     3.04           OBSERVATION DATA    M: Mixed            RINEX VERSION / TYPE
CONVBIN EX 2.5.0                        20260627 164940 UTC PGM / RUN BY / DATE 
format: RTCM 3                                              COMMENT             
log: C:\Users\jinyu\Desktop\540423496360\2026-06-08\1.rtcm3 COMMENT             
BASE                                                        MARKER NAME         
                                                            MARKER NUMBER       
                                                            MARKER TYPE         
                                                            OBSERVER / AGENCY   
                    NONE                                    REC # / TYPE / VERS 
NONE                NONE                                    ANT # / TYPE        
  -493099.6505  5551400.7556  3092551.4870                  APPROX POSITION XYZ 
        0.0000        0.0000        0.0000                  ANTENNA: DELTA H/E/N
C    6 C2I L2I S2I C7I L7I S7I                              SYS / # / OBS TYPES 
  2026    06    07    17    00   18.0000000     GPS         TIME OF FIRST OBS   
  2026    06    07    18    00   03.0000000     GPS         TIME OF LAST OBS    
C L2I                                                       SYS / PHASE SHIFT   
C L7I                                                       SYS / PHASE SHIFT   
  0                                                         GLONASS SLOT / FRQ #
 C1C    0.000 C1P    0.000 C2C    0.000 C2P    0.000        GLONASS COD/PHS/BIS 
                                                            END OF HEADER       
> 2026 06 07 17 00 18.0000000  0 12                     
C01  38581984.884   200906514.345          47.000                                                  
C02  36961954.657   192470585.510          49.000                                                  
C03  37001014.536   192673992.224          49.000                                                  
C07                                                                                                
C08  38354962.611   199724374.987          45.000                                                  
C09  38634601.599   201180515.654          42.000    38634606.763   155565501.153          44.000  
C12  22691269.881   118159375.662          50.000                                                  
C19  22249296.770   115857942.736          51.000                                                  
C20  24451595.580   127325787.560          47.000                                                  
C22  23574426.685   122758220.702          29.000                                                  
C36  22571319.204   117534853.005          50.000                                                  
C39  26358965.075   137258089.527          39.000                                                  
> 2026 06 07 17 00 33.0000000  0 12                     
C01  38581961.637   200906393.379          47.000                                                  
C02  36962155.272   192471629.822          49.000                                                  
C03  37001164.368   192674772.615          49.000                                                  
C07  37175312.917   193581609.050          30.000                                                  
C08  38349989.269   199698476.050          46.000                                                  
C09  38640122.180   201209260.523          42.000    38640126.986   155587728.498          45.000  
C12  22698491.540   118196980.302          49.000                                                  
C19  22252347.942   115873830.149          51.000                                                  
C20  24460662.161   127372998.085          47.000                                                  
C22                                                                                                
C36  22569158.661   117523603.215          50.000                                                  
C39  26352990.157   137226971.815          41.000                                                  
> 2026 06 07 17 00 48.0000000  0 12                     
C01  38581939.551   200906278.286          47.000                                                  
C02  36962357.031   192472680.193          49.000                                                  
C03  37001315.343   192675558.871          49.000                                                  
C07  37175329.375   193581697.3881         29.000                                                  
C08  38345019.893   199672597.426          45.000                                                  
C09  38645646.227   201238023.054          44.000    38645650.677   155609969.528          45.000  
C12  22705729.638   118234671.117          49.000                                                  
C19  22255423.272   115889844.564          51.000                                                  
C20  24469738.446   127420260.077          47.000                                                  
C22                                                                                                
C36  22567008.427   117512406.308          51.000                                                  
C39  26347022.403   137195891.609          40.000                                                  
> 2026 06 07 17 01 03.0000000  0 12                     
C01  38581918.394   200906168.201          47.000                                                  
C02  36962559.773   192473735.749          49.000                                                  
C03  37001467.284   192676350.131          49.000                                                  
C07                                                                                                
C08  38340053.949   199646738.325          44.000                                                  
C09  38651173.527   201266802.154          44.000    38651177.565   155632223.351          45.000  
C12  22712983.907   118272447.024          48.000                                                  
C19  22258522.743   115905985.006          51.000                                                  
C20  24478824.540   127467572.394          47.000                                                  
C22                                                                                                
C36  22564868.183   117501261.372          50.000                                                  
C39  26341061.387   137164847.984          41.000                                                  
> 2026 06 07 17 01 18.0000000  0 12                     
C01  38581895.915   200906051.288          46.000                                                  
C02  36962761.247   192474784.647          49.000                                                  
C03  37001617.902   192677134.569          49.000                                                  
C07                                                                                                
C08  38335089.094   199620887.000          45.000                                                  
C09  38656701.631   201295585.877          44.000    38656705.223   155654480.756          46.000  
C12  22720251.918   118310295.885          47.000                                                  
C19  22261644.337   115922239.562          52.000                                                  
C20  24487917.603   127514922.891          46.000                                                  
C22  23551630.762   122639517.0871         30.000                                                  
C36  22562735.569   117490156.426          49.000                                                  
C39  26335105.194   137133829.042          40.000                                                  
> 2026 06 07 17 01 33.0000000  0 12                     
C01  38581873.811   200905936.129          46.000                                                  
C02  36962963.095   192475835.469          49.000                                                  
C03  37001768.877   192677920.760          49.000                                                  
C07                                                                                                
C08  38330127.474   199595052.022          45.000                                                  
C09  38662231.897   201324382.891          44.000    38662235.596   155676748.448          46.000  
C12  22727535.564   118348226.071          48.000                                                  
C19  22264789.517   115938616.684          52.000                                                  
C20  24497019.726   127562319.897          47.000                                                  
C22  23545978.754   122610089.822          31.000                                                  
C36  22560612.032   117479100.003          50.000                                                  
C39  26329154.881   137102843.415          40.000                                                  
> 2026 06 07 17 01 48.0000000  0 12                     
C01  38581852.886   200905827.207          46.000                                                  
C02  36963166.212   192476892.732          49.000                                                  
C03  37001921.014   192678713.204          49.000                                                  
C07                                                                                                
C08  38325170.143   199569238.056          44.000                                                  
C09  38667765.236   201353197.538          43.000    38667769.185   155699029.790          46.000  
C12  22734836.150   118386241.853          49.000                                                  
C19  22267958.856   115955120.751          51.000                                                  
C20  24506131.641   127609767.643          47.000                                                  
C22  23540347.296   122580766.695          32.000                                                  
C36  22558498.770   117468096.503          50.000                                                  
C39  26323212.073   137071895.568          39.000                                                  
> 2026 06 07 17 02 03.0000000  0 12                     
C01  38581830.317   200905709.526          47.000                                                  
C02  36963367.650   192477941.382          49.000                                                  
C03  37002071.435   192679496.854          49.000                                                  
C07  37175370.956   193581910.030          30.000                                                  
C08  38320213.955   199543430.123          43.000                                                  
C09  38673299.255   201382014.555          43.000    38673303.311   155721312.933          45.000  
C12  22742150.423   118424327.924          50.000                                                  
C19  22271149.585   115971736.610          51.000                                                  
C20  24515250.043   127657250.815          46.000                                                  
C22  23534732.920   122551533.035          33.000                                                  
C36  22556393.120   117457130.712          51.000                                                  
C39  26317273.357   137040970.475          36.000                                                  
> 2026 06 07 17 02 18.0000000  0 12                     
C01  38581805.515   200905580.424          46.000                                                  
C02  36963566.889   192478978.764          49.000                                                  
C03  37002219.730   192680269.068          48.000                                                  
C07  37175368.847   193581895.544          31.000                                                  
C08  38315258.124   199517625.673          43.000                                                  
C09  38678833.202   201410831.427          43.000    38678837.348   155743595.982          46.000  
C12  22749477.795   118462481.414          50.000                                                  
C19  22274361.416   115988461.537          51.000                                                  
C20  24524374.538   127704766.481          45.000                                                  
C22  23529135.306   122522386.411          36.000                                                  
C36  22554294.135   117446199.966          51.000                                                  
C39  26311336.821   137010065.547          33.000                                                  
> 2026 06 07 17 02 33.0000000  0 13                     
C01  38581782.482   200905460.711          46.000                                                  
C02  36963767.970   192480025.719          49.000                                                  
C03  37002369.794   192681050.689          48.000                                                  
C07  37175364.684   193581875.489          31.000                                                  
C08  38310307.047   199491845.516          45.000                                                  
C09  38684371.098   201439668.705          43.000    38684375.315   155765894.815          46.000  
C10                                                                                                
C12  22756821.767   118500722.819          50.000                                                  
C19  22277598.122   116005316.182          51.000                                                  
C20  24533509.558   127752335.148          46.000                                                  
C22  23523558.562   122493347.854          37.000                                                  
C36  22552205.639   117435324.969          50.000                                                  
C39  26305407.825   136979201.380          38.000                                                  
> 2026 06 07 17 02 48.0000000  0 12                     
C01  38581760.128   200905344.258          46.000                                                  
C02  36963969.675   192481076.087          49.000                                                  
C03  37002520.484   192681835.549          48.000                                                  
C07  37175358.001   193581843.582          31.000                                                  
C08  38305360.044   199466083.619          45.000                                                  
C09  38689911.728   201468520.261          43.000    38689915.945   155788204.715          46.000  
C12  22764181.392   118539045.774          49.000                                                  
C19  22280858.790   116022294.349          52.000                                                  
C20  24542653.798   127799950.463          46.000                                                  
C22  23518001.368   122464411.446          37.000                                                  
C36  22550126.614   117424499.475          51.000                                                  
C39  26299487.479   136948371.889          40.000                                                  
> 2026 06 07 17 03 03.0000000  0 13                     
C01  38581737.470   200905226.301          46.000                                                  
C02  36964171.148   192482125.078          49.000                                                  
C03  37002670.870   192682618.894          48.000                                                  
C07  37175348.566   193581795.185          32.000                                                  
C08  38300415.685   199440335.336          44.000                                                  
C09  38695454.181   201497381.182          43.000    38695458.362   155810521.819          46.000  
C10                                                                                                
C12  22771555.669   118577445.271          50.000                                                  
C19  22284141.973   116039391.087          51.000                                                  
C20  24551806.169   127847607.369          47.000                                                  
C22  23512463.043   122435572.685          37.000                                                  
C36  22548056.363   117413718.618          51.000                                                  
C39  26293573.297   136917572.199          38.000                                                  
> 2026 06 07 17 03 18.0000000  0 13                     
C01  38581714.544   200905107.001          47.000                                                  
C02  36964372.389   192483172.855          49.000                                                  
C03  37002821.005   192683400.866          49.000                                                  
C07  37175336.594   193581730.382          34.000                                                  
C08  38295473.667   199414600.877          44.000                                                  
C09  38700998.492   201526251.554          43.000    38701002.477   155832846.222          45.000  
C10                                                                                                
C12  22778944.493   118615921.182          49.000                                                  
C19  22287447.903   116056606.482          51.000                                                  
C20  24560966.259   127895305.707          46.000                                                  
C22  23506943.641   122406831.956          36.000                                                  
C36  22545994.421   117402982.477          50.000                                                  
C39  26287664.082   136886802.642          36.000                                                  
> 2026 06 07 17 03 33.0000000  0 13                     
C01  38581690.993   200904984.392          46.000                                                  
C02  36964573.040   192484217.536          49.000                                                  
C03  37002970.533   192684179.509          48.000                                                  
C07  37175321.084   193581647.249          32.000                                                  
C08  38290533.740   199388878.365          44.000                                                  
C09  38706544.000   201555129.390          42.000    38706548.092   155855176.390          45.000  
C10                                                                                                
C12  22786347.361   118654471.353          49.000                                                  
C19  22290776.348   116073938.455          51.000                                                  
C20  24570133.568   127943043.280          45.000                                                  
C22  23501442.805   122378187.510          34.000                                                  
C36  22543940.698   117392288.972          50.000                                                  
C39  26281759.085   136856061.221          37.000                                                  
> 2026 06 07 17 03 48.0000000  0 12                     
C01  38581667.477   200904862.155          46.000                                                  
C02  36964773.799   192485262.723          49.000                                                  
C03  37003120.133   192684958.492          49.000                                                  
C07  37175302.410   193581549.589          30.000                                                  
C08  38285596.511   199363171.536          43.000                                                  
C09  38712091.278   201584018.118          42.000    38712095.852   155877515.001          46.000  
C12  22793765.400   118693099.177          49.000                                                  
C19  22294127.897   116091390.569          51.000                                                  
C20  24579309.472   127990823.507          47.000                                                  
C22  23495961.250   122349643.288          33.000                                                  
C36  22541896.107   117381641.719          50.000                                                  
C39  26275861.307   136825351.388          38.000                                                  
> 2026 06 07 17 04 03.0000000  0 12                     
C01  38581645.713   200904748.947          47.000                                                  
C02  36964976.309   192486317.084          50.000                                                  
C03  37003271.465   192685746.449          49.000                                                  
C08  38280663.857   199337489.097          44.000                                                  
C09  38717642.325   201612926.335          42.000    38717647.525   155899868.688          46.000  
C10                                                                                                
C12  22801200.021   118731813.016          50.000                                                  
C19  22297504.035   116108971.305          50.000                                                  
C20  24588495.257   128038654.745          47.000                                                  
C22  23490500.709   122321208.137          32.000                                                  
C36  22539861.897   117371049.204          50.000                                                  
C39  26269972.248   136794681.925          39.000                                                  
> 2026 06 07 17 04 18.0000000  0 11                     
C01  38581622.358   200904627.483          47.000                                                  
C02  36965177.228   192487363.309          49.000                                                  
C03  37003421.226   192686526.177          49.000                                                  
C08  38275732.775   199311813.889          44.000                                                  
C09  38723194.052   201641836.735          42.000    38723199.520   155922224.063          46.000  
C12  22808647.991   118770595.388          50.000                                                  
C19  22300901.151   116126663.267          49.000                                                  
C20  24597687.297   128086519.413          48.000                                                  
C22  23485058.198   122292865.102          33.000                                                  
C36  22537834.835   117360494.124          49.000                                                  
C39  26264087.372   136764035.510          37.000                                                  
> 2026 06 07 17 04 33.0000000  0 12                     
C01  38581599.396   200904508.032          46.000                                                  
C02  36965378.594   192488411.718          49.000                                                  
C03  37003571.343   192687307.861          48.000                                                  
C08  38270805.195   199286156.218          44.000                                                  
C09  38728748.191   201670759.560          42.000    38728753.874   155944589.019          45.000  
C10  37315182.284   194309958.283          30.000                                                  
C12  22816111.042   118809456.273          50.000                                                  
C19  22304322.282   116144476.668          51.000                                                  
C20  24606887.664   128134427.539          47.000                                                  
C22  23479635.235   122264624.524          33.000                                                  
C36  22535816.994   117349986.624          50.000                                                  
C39  26258208.695   136733422.380          40.000                                                  
> 2026 06 07 17 04 48.0000000  0 12                     
C01  38581577.042   200904391.646          46.000                                                  
C02  36965580.550   192489463.351          49.000                                                  
C03  37003722.033   192688092.617          48.000                                                  
C08  38265881.404   199260517.230          45.000                                                  
C09  38734304.886   201699695.609          41.000    38734310.800   155966964.222          45.000  
C10  37315171.562   194309911.541          31.000                                                  
C12  22823589.407   118848396.484          50.000                                                  
C19  22307766.929   116162412.394          51.000                                                  
C20  24616096.322   128182379.839          46.000                                                  
C22  23474231.946   122236487.760          33.000                                                  
C36  22533808.623   117339527.616          51.000                                                  
C39  26252337.310   136702843.503          40.000                                                  
> 2026 06 07 17 05 03.0000000  0 12                     
C01  38581555.742   200904280.793          46.000                                                  
C02  36965783.631   192490520.640          50.000                                                  
C03  37003873.830   192688882.897          49.000                                                  
C08  38260961.758   199234899.451          44.000                                                  
C09  38739865.100   201728647.399          42.000    38739870.854   155989351.593          46.000  
C10  37315160.287   194309852.635          29.000                                                  
C12  22831083.121   118887418.172          50.000                                                  
C19  22311235.360   116180472.758          51.000                                                  
C20  24625314.022   128230378.530          47.000                                                  
C22  23468849.028   122208457.374          33.000                                                  
C36  22531809.901   117329119.504          50.000                                                  
C39  26246472.982   136672301.329          40.000                                                  
> 2026 06 07 17 05 18.0000000  0 12                     
C01  38581530.725   200904150.559          47.000                                                  
C02  36965982.996   192491558.688          50.000                                                  
C03  37004021.911   192689653.753          49.000                                                  
C08  38256041.594   199209278.017          46.000                                                  
C09  38745423.564   201757589.889          44.000    38745429.246   156011731.758          46.000  
C10  37315140.792   194309736.5861         29.000                                                  
C12  22838587.485   118926496.171          49.000                                                  
C19  22314723.126   116198632.757          51.000                                                  
C20  24634535.635   128278398.433          46.000                                                  
C22  23463481.889   122180508.931          32.000                                                  
C36  22529815.932   117318737.291          49.000                                                  
C39  26240609.923   136641771.073          37.000                                                  
> 2026 06 07 17 05 33.0000000  0 11                     
C01  38581506.995   200904026.938          46.000                                                  
C02  36966183.665   192492603.515          50.000                                                  
C03  37004171.224   192690431.218          49.000                                                  
C08  38251125.969   199183679.051          46.000                                                  
C09  38750985.082   201786548.974          43.000    38750990.836   156034124.773          47.000  
C12  22846107.824   118965656.332          50.000                                                  
C19  22318234.818   116216918.253          52.000                                                  
C20  24643766.397   128326465.267          47.000                                                  
C22  23458135.227   122152668.551          31.000                                                  
C36  22527831.917   117308406.877          49.000                                                  
C39  26234753.012   136611278.644          39.000                                                  
> 2026 06 07 17 05 48.0000000  0 12                     
C01  38581482.926   200903901.770          46.000                                                  
C02  36966384.048   192493646.922          50.000                                                  
C03  37004320.252   192691207.099          49.000                                                  
C08  38246213.077   199158094.391          45.000                                                  
C09  38756548.210   201815516.387          43.000    38756553.856   156056524.268          46.000  
C10                                                  37315093.814   150252432.444          29.000  
C12  22853642.137   119004890.098          49.000                                                  
C19  22321769.096   116235320.940          52.000                                                  
C20  24653005.057   128374570.612          48.000                                                  
C22  23452803.736   122124904.3361         28.000                                                  
C36  22525856.568   117298119.931          49.000                                                  
C39  26228902.854   136580815.733          40.000                                                  
> 2026 06 07 17 06 03.0000000  0 11                     
C01  38581458.034   200903772.133          46.000                                                  
C02  36966583.609   192494686.014          50.000                                                  
C03  37004468.422   192691978.516          49.000                                                  
C08  38241302.152   199132521.302          45.000                                                  
C09  38762112.302   201844489.240          42.000    38762117.841   156078927.898          46.000  
C12  22861190.030   119044194.348          49.000                                                  
C19  22325325.174   116253837.761          51.000                                                  
C20  24662250.204   128422711.228          47.000                                                  
C22  23447496.028   122097272.335          29.000                                                  
C36  22523888.867   117287873.522          48.000                                                  
C39  26223057.968   136550379.430          40.000                                                  
> 2026 06 07 17 06 18.0000000  0 12                     
C01  38581434.554   200903650.068          47.000                                                  
C02  36966784.636   192495732.815          50.000                                                  
C03  37004618.039   192692757.456          49.000                                                  
C08  38236395.657   199106971.791          44.000                                                  
C09  38767679.914   201873479.237          44.000    38767685.060   156101344.846          46.000  
C10                                                  37315035.579   150252187.189          31.000  
C12  22868753.594   119083580.824          49.000                                                  
C19  22328905.144   116272480.604          51.000                                                  
C20  24671503.731   128470898.866          45.000                                                  
C22  23442204.350   122069691.1581         29.000                                                  
C36  22521930.958   117277679.558          50.000                                                  
C39  26217220.302   136519981.865          36.000                                                  
> 2026 06 07 17 06 33.0000000  0 12                     
C01  38581410.735   200903526.267          47.000                                                  
C02  36966985.359   192496778.008          50.000                                                  
C03  37004767.281   192693534.625          49.000                                                  
C08  38231491.879   199081436.686          45.000                                                  
C09  38773248.938   201902477.126          44.000    38773253.691   156123767.875          46.000  
C10                                                  37315001.646   150252048.991          32.000  
C12  22876331.865   119123040.050          50.000                                                  
C19  22332507.449   116291240.035          51.000                                                  
C20  24680764.138   128519123.991          45.000                                                  
C22  23436939.903   122042258.476          30.000                                                  
C36  22519981.698   117267528.580          51.000                                                  
C39  26211386.923   136489613.709          36.000                                                  
> 2026 06 07 17 06 48.0000000  0 12                     
C01  38581388.667   200903411.424          47.000                                                  
C02  36967187.850   192497832.296          50.000                                                  
C03  37004918.257   192694320.732          49.000                                                  
C08  38226593.033   199055926.756          44.000                                                  
C09  38778821.375   201931493.474          43.000    38778825.717   156146205.165          45.000  
C10                                                  37314965.586   150251903.951          32.000  
C12  22883925.699   119162582.385          50.000                                                  
C19  22336134.522   116310126.660          52.000                                                  
C20  24690033.389   128567396.905          42.000                                                  
C22  23431693.790   122014937.194          30.000                                                  
C36  22518042.784   117257431.244          52.000                                                  
C39  26205562.247   136459285.430          38.000                                                  
> 2026 06 07 17 07 03.0000000  0 12                     
C01  38581364.097   200903283.645          46.000                                                  
C02  36967387.858   192498873.772          50.000                                                  
C03  37005066.748   192695093.871          49.000                                                  
C08  38221694.508   199030420.159          43.000                                                  
C09  38784392.829   201960506.254          43.000    38784397.046   156168639.691          45.000  
C10                                                  37314923.630   150251735.152          32.000  
C12  22891530.863   119202185.627          49.000                                                  
C19  22339781.786   116329118.409          51.000                                                  
C20  24699308.431   128615695.570          44.000                                                  
C22  23426465.028   121987705.782          28.000                                                  
C36  22516109.623   117247365.562          51.000                                                  
C39  26199741.645   136428975.243          39.000                                                  
> 2026 06 07 17 07 18.0000000  0 13                     
C01  38581341.975   200903168.585          46.000                                                  
C02  36967590.350   192499928.098          50.000                                                  
C03  37005217.652   192695879.658          49.000                                                  
C07  37174742.127   193578621.0381         29.000                                                  
C08  38216801.237   199004942.627          44.000                                                  
C09  38789968.322   201989541.054          42.000    38789972.485   156191091.272          44.000  
C10                                                  37314880.601   150251562.347          30.000  
C12  22899152.984   119241875.229          50.000                                                  
C19  22343453.959   116348240.762          51.000                                                  
C20  24708593.676   128664045.246          45.000                                                  
C22                                                                                                
C36  22514187.488   117237357.036          52.000                                                  
C39  26193929.370   136398708.769          39.000                                                  
> 2026 06 07 17 07 33.0000000  0 13                     
C01  38581317.637   200903042.021          47.000                                                  
C02  36967790.626   192500971.052          50.000                                                  
C03  37005366.322   192696653.937          49.000                                                  
C07  37174678.496   193578296.813          30.000                                                  
C08  38211908.985   198979470.001          44.000                                                  
C09  38795543.618   202018573.659          43.000    38795547.406   156213541.090          43.000  
C10                                                  37314831.944   150251367.027          30.000  
C12  22906786.756   119281626.701          49.000                                                  
C19  22347146.593   116367469.428          51.000                                                  
C20  24717884.406   128712421.540          46.000                                                  
C22                                                                                                
C36  22512271.893   117227381.376          52.000                                                  
C39  26188121.187   136368461.715          40.000                                                  
> 2026 06 07 17 07 48.0000000  0 13                     
C01  38581293.514   200902916.539          46.000                                                  
C02  36967991.170   192502015.204          49.000                                                  
C03  37005515.189   192697429.242          49.000                                                  
C07  37174613.470   193577959.104          31.000                                                  
C08  38207020.556   198954014.918          45.000                                                  
C09  38801121.058   202047616.415          43.000    38801124.310   156235998.780          43.000  
C10                                                  37314780.034   150251158.767          29.000  
C12  22914434.590   119321452.343          49.000                                                  
C19  22350862.188   116386816.813          51.000                                                  
C20  24727182.391   128760836.708          45.000                                                  
C22                                                                                                
C36  22510365.072   117217451.065          51.000                                                  
C39  26182319.169   136338246.741          39.000                                                  
> 2026 06 07 17 08 03.0000000  0 13                     
C01  38581270.570   200902797.166          46.000                                                  
C02  36968192.894   192503065.607          50.000                                                  
C03  37005665.271   192698210.641          49.000                                                  
C07  37174547.194   193577612.867          31.000                                                  
C08  38202136.791   198928582.477          46.000                                                  
C09  38806701.411   202076674.390          43.000    38806704.359   156258468.237          44.000  
C10                                                  37314727.088   150250942.3381         27.000  
C12  22922097.864   119361356.943          50.000                                                  
C19  22354601.228   116406287.804          50.000                                                  
C20  24736488.757   128809295.437          45.000                                                  
C22  23405750.560   121879915.3221         34.000                                                  
C36  22508467.686   117207571.062          50.000                                                  
C39  26176523.852   136308068.756          39.000                                                  
> 2026 06 07 17 08 18.0000000  0 13                     
C01  38581247.466   200902676.941          46.000                                                  
C02  36968394.492   192504115.286          50.000                                                  
C03  37005815.156   192698991.148          49.000                                                  
C07  37174478.005   193577251.175          32.000                                                  
C08  38197256.011   198903165.858          45.000                                                  
C09  38812282.872   202105740.458          42.000    38812286.195   156280943.980          44.000  
C10                                                  37314670.479   150250717.636          28.000  
C12  22929775.182   119401333.278          50.000                                                  
C19  22358362.693   116425875.330          51.000                                                  
C20  24745802.271   128857790.587          47.000                                                  
C22  23400621.829   121853208.544          37.000                                                  
C36  22506578.447   117197734.286          50.000                                                  
C39  26170734.163   136277920.753          38.000                                                  
> 2026 06 07 17 08 33.0000000  0 12                     
C01  38581225.129   200902560.974          46.000                                                  
C02  36968596.930   192505169.336          50.000                                                  
C03  37005965.828   192699775.880          49.000                                                  
C07  37174406.761   193576879.109          31.000                                                  
C08  38192378.965   198877770.215          45.000                                                  
C09  38817866.709   202134819.602          41.000    38817870.390   156303429.838          43.000  
C12  22937467.260   119441386.192          50.000                                                  
C19  22362147.477   116445584.334          50.000                                                  
C20  24755123.700   128906326.956          46.000                                                  
C22  23395514.040   121826610.108          39.000                                                  
C36  22504698.590   117187945.712          50.000                                                  
C39  26164950.747   136247807.902          38.000                                                  
> 2026 06 07 17 08 48.0000000  0 13                     
C01  38581200.363   200902432.270          46.000                                                  
C02  36968796.938   192506210.810          50.000                                                  
C03  37006114.034   192700547.835          49.000                                                  
C07  37174330.103   193576479.802          31.000                                                  
C08  38187502.687   198852378.594          46.000                                                  
C09  38823450.189   202163894.852          42.000    38823453.727   156325912.698          42.000  
C10                                                  37314544.806   150250198.801          28.000  
C12  22945170.793   119481498.405          50.000                                                  
C19  22365951.988   116465397.660          49.000                                                  
C20  24764449.168   128954887.254          46.000                                                  
C22  23390423.763   121800103.257          40.000                                                  
C36  22502824.791   117178188.277          50.000                                                  
C39  26159171.351   136217713.082          40.000                                                  
> 2026 06 07 17 09 03.0000000  0 12                     
C01  38581176.025   200902305.607          46.000                                                  
C02  36968997.375   192507254.424          51.000                                                  
C03  37006262.615   192701321.782          49.000                                                  
C07  37174250.961   193576068.021          32.000                                                  
C08  38182630.054   198827005.908          46.000                                                  
C09  38829035.742   202192980.780          42.000    38829039.083   156348403.782          43.000  
C12  22952887.995   119521684.407          49.000                                                  
C19  22369779.515   116485329.966          51.000                                                  
C20  24773781.408   129003485.943          44.000                                                  
C22  23385353.946   121773702.930          41.000                                                  
C36  22500959.462   117168476.660          50.000                                                  
C39  26153398.459   136187651.085          38.000                                                  
> 2026 06 07 17 09 18.0000000  0 12                     
C01  38581152.939   200902185.412          47.000                                                  
C02  36969199.080   192508304.626          50.000                                                  
C03  37006412.429   192702102.170          49.000                                                  
C07  37174170.372   193575648.121          31.000                                                  
C08  38177761.854   198801656.627          46.000                                                  
C09  38834624.708   202222081.799          43.000    38834627.513   156370906.568          42.000  
C12  22960620.010   119561948.397          49.000                                                  
C19  22373631.040   116505385.559          50.000                                                  
C20  24783121.797   129052127.214          44.000                                                  
C22  23380305.464   121747413.822          41.000                                                  
C36  22499103.960   117158815.161          51.000                                                  
C39  26147632.179   136157626.322          38.000                                                  
> 2026 06 07 17 09 33.0000000  0 12                     
C01  38581129.173   200902061.631          47.000                                                  
C02  36969400.089   192509351.381          51.000                                                  
C03  37006561.599   192702878.903          49.000                                                  
C07  37174086.227   193575210.141          30.000                                                  
C08  38172896.458   198776320.736          47.000                                                  
C09  38840214.656   202251187.697          43.000    38840216.783   156393413.074          42.000  
C12  22968364.963   119602280.056          48.000                                                  
C19  22377504.097   116525554.186          50.000                                                  
C20  24792468.457   129100800.763          43.000                                                  
C22  23375276.317   121721226.070          41.000                                                  
C36  22497256.393   117149193.671          52.000                                                  
C39  26141871.063   136127628.727          37.000                                                  
> 2026 06 07 17 09 48.0000000  0 12                     
C01  38581104.585   200901933.482          46.000                                                  
C02  36969600.258   192510393.840          50.000                                                  
C03  37006709.912   192703651.248          49.000                                                  
C07  37173998.919   193574753.289          30.000                                                  
C08  38168033.582   198750997.546          45.000                                                  
C09  38845805.302   202280297.658          44.000    38845807.106   156415922.751          43.000  
C12  22976122.835   119642678.259          49.000                                                  
C19  22381398.865   116545834.893          51.000                                                  
C20  24801821.479   129149505.458          45.000                                                  
C22  23370266.540   121695139.087          40.000                                                  
C36  22495416.205   117139611.258          51.000                                                  
C39  26136114.415   136097657.505          37.000                                                  
> 2026 06 07 17 10 03.0000000  0 11                     
C01  38581081.981   200901815.584          47.000                                                  
C02  36969802.392   192511446.718          50.000                                                  
C03  37006860.173   192704433.790          49.000                                                  
C08  38163175.728   198725701.765          45.000                                                  
C09  38851399.092   202309426.164          43.000    38851401.022   156438446.733          42.000  
C12  22983896.343   119683157.467          49.000                                                  
C19  22385318.007   116566242.204          52.000                                                  
C20  24811183.578   129198255.721          45.000                                                  
C22  23365278.974   121669167.764          41.000                                                  
C36  22493586.417   117130082.502          51.000                                                  
C39  26130366.450   136067727.198          39.000                                                  
> 2026 06 07 17 10 18.0000000  0 11                     
C01  38581057.554   200901688.459          46.000                                                  
C02  36970002.811   192512490.457          50.000                                                  
C03  37007008.646   192705207.036          49.000                                                  
C08  38158319.392   198700413.939          46.000                                                  
C09  38856992.454   202338553.650          42.000    38856994.866   156460969.975          44.000  
C12  22991681.840   119723697.825          49.000                                                  
C19  22389258.019   116586756.512          52.000                                                  
C20  24820550.860   129247031.711          45.000                                                  
C22  23360309.920   121643292.702          42.000                                                  
C36  22491763.080   117120587.767          51.000                                                  
C39  26124623.578   136037818.199          41.000                                                  
> 2026 06 07 17 10 33.0000000  0 12                     
C01  38581031.572   200901553.437          46.000                                                  
C02  36970201.729   192513526.411          50.000                                                  
C03  37007155.565   192705972.333          49.000                                                  
C08  38153464.825   198675135.482          46.000                                                  
C09  38862585.940   202367681.260          43.000    38862588.871   156483493.314          45.000  
C10  37313992.403   194303750.8661         29.000                                                  
C12  22999479.489   119764300.471          50.000                                                  
C19  22393218.295   116607378.897          50.000                                                  
C20  24829923.144   129295834.494          45.000                                                  
C22  23355359.808   121617515.568          43.000                                                  
C36  22489946.515   117111128.294          51.000                                                  
C39  26118884.960   136007931.957          41.000                                                  
> 2026 06 07 17 10 48.0000000  0 12                     
C01  38581008.789   200901434.794          46.000                                                  
C02  36970403.828   192514578.842          50.000                                                  
C03  37007305.630   192706753.977          49.000                                                  
C08  38148616.887   198649890.782          46.000                                                  
C09  38868184.448   202396833.392          43.000    38868187.432   156506035.630          44.000  
C10  37313901.379   194303275.366          30.000                                                  
C12  23007293.684   119804989.402          49.000                                                  
C19  22397203.784   116628133.544          50.000                                                  
C20  24839305.257   129344688.090          45.000                                                  
C22  23350433.211   121591860.788          44.000                                                  
C36  22488141.118   117101728.294          50.000                                                  
C39  26113154.453   135978092.698          40.000                                                  
> 2026 06 07 17 11 03.0000000  0 11                     
C01  38580984.720   200901309.637          46.000                                                  
C02  36970604.693   192515624.872          50.000                                                  
C03  37007454.443   192707529.064          49.000                                                  
C08  38143771.130   198624656.997          45.000                                                  
C09  38873783.170   202425986.966          43.000    38873786.208   156528579.018          44.000  
C12  23015119.673   119845741.408          49.000                                                  
C19  22401210.251   116648997.413          50.000                                                  
C20  24848692.623   129393569.277          46.000                                                  
C22  23345525.716   121566305.695          45.000                                                  
C36  22486342.833   117092364.761          51.000                                                  
C39  26107428.968   135948277.400          43.000                                                  
> 2026 06 07 17 11 18.0000000  0 11                     
C01  38580959.256   200901177.095          46.000                                                  
C02  36970804.112   192516663.667          50.000                                                  
C03  37007601.862   192708296.744          49.000                                                  
C08  38138927.338   198599433.309          46.000                                                  
C09  38879381.982   202455140.959          44.000    38879384.948   156551122.714          43.000  
C12  23022957.276   119886555.434          48.000                                                  
C19  22405237.536   116669969.469          50.000                                                  
C20  24858085.171   129442476.990          45.000                                                  
C22  23340637.198   121540849.634          45.000                                                  
C36  22484551.660   117083036.694          51.000                                                  
C39  26101708.683   135918485.241          43.000                                                  
> 2026 06 07 17 11 33.0000000  0 11                     
C01  38580934.919   200901050.538          46.000                                                  
C02  36971004.709   192517708.549          50.000                                                  
C03  37007750.336   192709070.325          49.000                                                  
C08  38134087.907   198574233.199          45.000                                                  
C09  38884983.456   202484308.755          44.000    38884986.315   156573677.100          44.000  
C12  23030808.872   119927444.455          48.000                                                  
C19  22409288.282   116691062.930          50.000                                                  
C20  24867485.206   129491424.257          46.000                                                  
C22  23335770.230   121515506.154          46.000                                                  
C36  22482769.618   117073757.398          51.000                                                  
C39  26095995.510   135888729.528          41.000                                                  
> 2026 06 07 17 11 48.0000000  0 11                     
C01  38580910.277   200900922.200          46.000                                                  
C02  36971205.003   192518751.741          50.000                                                  
C03  37007898.470   192709842.065          49.000                                                  
