     3.04           OBSERVATION DATA    M: Mixed            RINEX VERSION / TYPE
CONVBIN EX 2.5.0                        20260701 180726 UTC PGM / RUN BY / DATE 
format: RTCM 3                                              COMMENT             
log: D:\code\monitor\compare_test_realtime\rover_15.rtcm3   COMMENT             
0000                                                        MARKER NAME         
                                                            MARKER NUMBER       
                                                            MARKER TYPE         
                                                            OBSERVER / AGENCY   
                                                            REC # / TYPE / VERS 
                                                            ANT # / TYPE        
 -1083504.1627  5483619.6309  3066098.0982                  APPROX POSITION XYZ 
        0.0000        0.0000        0.0000                  ANTENNA: DELTA H/E/N
C   18 C2I L2I S2I C7I L7I S7I C7D L7D S7D C5P L5P S5P C6I  SYS / # / OBS TYPES 
       L6I S6I C1P L1P S1P                                  SYS / # / OBS TYPES 
  2026    07    01    07    00   30.0000000     GPS         TIME OF FIRST OBS   
  2026    07    01    08    00   00.0000000     GPS         TIME OF LAST OBS    
C L2I                                                       SYS / PHASE SHIFT   
C L7I                                                       SYS / PHASE SHIFT   
C L7D                                                       SYS / PHASE SHIFT   
C L5P  0.00000                                              SYS / PHASE SHIFT   
C L6I                                                       SYS / PHASE SHIFT   
C L1P  0.00000                                              SYS / PHASE SHIFT   
  0                                                         GLONASS SLOT / FRQ #
 C1C    0.000 C1P    0.000 C2C    0.000 C2P    0.000        GLONASS COD/PHS/BIS 
                                                            END OF HEADER       
> 2026 07 01 07 00 30.0000000  0 14                     
C01  38083422.579   198310265.095          47.000                                                    38083411.089   153346041.773          49.000                                                    38083423.187   161143311.908          46.000                                                  
C02  36976463.839   192546062.477          49.000                                                    36976450.616   148888804.062          51.000                                                    36976448.471   156459427.352          50.000                                                  
C03  36652121.666   190857141.146          49.000                                                    36652112.321   147582825.558          52.000                                                    36652110.730   155087043.598          50.000                                                  
C04  39522730.405   205805161.421          43.000                                                    39522723.382   159141607.263          37.000                                                    39522720.684   167233536.999          42.000                                                  
C06  37012846.403   192735572.706          48.000                                                    37012844.115   149035360.817          50.000    37012845.652   145246322.569          48.000    37012843.883   156613430.602          49.000    37012843.150   194503789.571          45.000  
C07  38237387.603   199112255.593          45.000                                                    38237389.068   153966264.247          47.000    38237391.016   150051872.265          45.000    38237388.014   161795047.711          47.000    38237384.618   200938972.475          42.000  
C08  39541782.482   205904317.881          34.000                                                    39541795.634   159218241.172          36.000    39541799.744   155170315.919          35.000    39541793.311   167314093.926          35.000    39541780.874   207793346.868          31.000  
C09  37309291.171   194279258.787          47.000    37309292.064   150229044.817          49.000                                                                                                    37309291.010   157867811.731          47.000                                                  
C10  39155739.395   203894260.973          43.000    39155749.545   157663992.622          45.000                                                                                                    39155744.345   165680805.511          40.000                                                  
C14  24224992.924   126145957.270          47.000                                                    24225013.224    97544070.549          46.000    24225014.600    95064134.109          44.000    24224983.811   102503935.037          46.000    24224988.940   127303254.357          43.000  
C21  22934910.185   119428221.111          51.000                                                    22934906.254    92349514.795          51.000    22934907.970    90001646.575          49.000    22934904.825    97045240.561          51.000    22934905.396   120523890.983          47.000  
C22  22581812.663   117589511.889          51.000                                                    22581807.106    90927689.307          52.000    22581807.892    88615970.196          49.000    22581806.141    95551125.832          51.000    22581808.857   118668314.245          48.000  
C34  23215244.224   120887876.436          48.000                                                    23215244.296    93478176.096          48.000    23215245.850    91101612.477          46.000    23215244.796    98231302.851          47.000    23215239.811   121996939.742          44.000  
C35  24766432.969   128965142.842          44.000                                                    24766444.387    99723981.118          45.000    24766447.407    97188619.672          42.000    24766442.082   104794703.177          46.000    24766427.841   130148309.164          40.000  
> 2026 07 01 07 00 45.0000000  0 14                     
C01  38083465.304   198310487.223          47.000                                                    38083453.725   153346213.543          49.000                                                    38083465.840   161143492.409          45.000                                                  
C02  36976364.827   192545546.522          49.000                                                    36976351.496   148888405.088          51.000                                                    36976349.370   156459008.091          49.000                                                  
C03  36652076.082   190856903.534          48.000                                                    36652066.719   147582641.812          52.000                                                    36652065.111   155086850.514          50.000                                                  
C04  39522770.771   205805371.565          43.000                                                    39522763.730   159141769.758          37.000                                                    39522761.032   167233707.749          42.000                                                  
C06  37012829.320   192735483.255          48.000                                                    37012826.943   149035291.645          50.000    37012828.444   145246255.160          48.000    37012826.711   156613357.917          49.000    37012826.103   194503699.293          45.000  
C07  38232436.883   199086476.372          45.000                                                    38232438.437   153946330.194          47.000    38232440.403   150032445.036          45.000    38232437.401   161774100.048          47.000    38232433.630   200912956.750          42.000  
C08  39546614.713   205929480.175          33.000                                                    39546627.793   159237698.229          36.000    39546631.849   155189278.292          33.000    39546625.363   167334540.354          34.000    39546612.747   207818740.014          29.000  
C09  37309338.041   194279502.926          46.000    37309338.881   150229233.596          49.000                                                                                                    37309337.916   157868010.114          47.000                                                  
C10  39151002.978   203869593.311          43.000    39151011.806   157644918.183          45.000                                                                                                    39151006.874   165660761.138          40.000                                                  
C14  24220633.544   126123257.474          47.000                                                    24220653.700    97526517.726          46.000    24220654.951    95047027.553          43.000    24220624.645   102485489.664          46.000    24220629.202   127280346.324          43.000  
C21  22933128.662   119418942.674          50.000                                                    22933124.427    92342340.155          51.000    22933126.106    89994654.345          49.000    22933123.069    97037701.099          51.000    22933123.462   120514527.437          47.000  
C22  22585988.421   117611255.928          50.000                                                    22585982.828    90944503.163          52.000    22585983.632    88632356.576          49.000    22585981.845    95568794.629          51.000    22585984.615   118690257.763          48.000  
C34  23210683.514   120864127.214          47.000                                                    23210683.496    93459811.698          48.000    23210684.979    91083714.977          45.000    23210683.943    98212004.677          47.000    23210678.993   121972972.641          44.000  
C35  24775626.188   129013011.719          45.000                                                    24775637.338    99760996.030          45.000    24775640.215    97224693.514          41.000    24775635.051   104833600.281          45.000    24775619.791   130196617.251          41.000  
> 2026 07 01 07 01 00.0000000  0 14                     
C01  38083508.011   198310709.432          47.000                                                    38083496.396   153346385.385          49.000                                                    38083508.511   161143672.986          45.000                                                  
C02  36976265.939   192545031.483          49.000                                                    36976252.591   148888006.841          51.000                                                    36976250.465   156458589.594          49.000                                                  
C03  36652030.624   190856666.737          49.000                                                    36652021.242   147582458.715          52.000                                                    36652019.634   155086658.099          50.000                                                  
C04  39522811.280   205805582.591          43.000                                                    39522804.275   159141932.934          37.000                                                    39522801.559   167233879.216          42.000                                                  
C06  37012808.645   192735374.434          48.000                                                    37012806.036   149035207.505          50.000    37012807.466   145246173.148          48.000    37012805.876   156613269.492          49.000    37012805.357   194503589.483          45.000  
C07  38227488.593   199060710.866          45.000                                                    38227490.362   153926406.756          48.000    38227492.435   150013028.133          45.000    38227489.450   161753163.542          46.000    38227484.626   200886954.861          42.000  
C08  39551446.657   205954640.870          32.000                                                    39551459.719   159257154.023          35.000    39551463.651   155208239.466          33.000    39551457.093   167354985.439          33.000    39551443.066   207844131.532          26.000  
C09  37309380.677   194279725.371          46.000    37309381.498   150229405.620          48.000                                                                                                    37309380.730   157868190.878          47.000                                                  
C10  39146266.240   203844927.414          43.000    39146274.978   157625845.109          45.000                                                                                                    39146269.974   165640718.206          40.000                                                  
C14  24216282.508   126100599.935          47.000                                                    24216302.540    97508997.560          47.000    24216303.701    95029952.824          43.000    24216273.467   102467078.624          46.000    24216278.184   127257480.888          43.000  
C21  22931355.912   119409711.726          50.000                                                    22931351.748    92335202.223          51.000    22931353.392    89987697.897          49.000    22931350.319    97030200.212          50.000    22931350.783   120505211.778          47.000  
C22  22590167.718   117633017.994          50.000                                                    22590162.053    90961330.967          52.000    22590162.929    88648756.558          49.000    22590160.999    95586478.087          51.000    22590163.911   118712219.474          48.000  
C34  23206142.727   120840481.419          48.000                                                    23206142.655    93441527.303          48.000    23206143.799    91065895.431          46.000    23206142.888    98192790.555          47.000    23206138.027   121949109.906          44.000  
C35  24784824.357   129060908.306          44.000                                                    24784835.615    99798032.376          45.000    24784838.402    97260788.219          41.000    24784833.256   104872519.919          45.000    24784818.514   130244953.280          41.000  
> 2026 07 01 07 01 15.0000000  0 14                     
C01  38083550.718   198310931.752          47.000                                                    38083539.085   153346557.299          49.000                                                    38083551.200   161143853.644          45.000                                                  
C02  36976167.231   192544517.404          49.000                                                    36976153.847   148887609.324          51.000                                                    36976151.738   156458171.862          49.000                                                  
C03  36651985.326   190856430.829          49.000                                                    36651975.944   147582276.289          52.000                                                    36651974.336   155086466.407          50.000                                                  
C04  39522851.986   205805794.556          43.000                                                    39522844.963   159142096.820          37.000                                                    39522842.265   167234051.454          42.000                                                  
C06  37012784.004   192735246.300          48.000                                                    37012781.431   149035108.426          50.000    37012782.842   145246076.591          47.000    37012781.288   156613165.377          49.000    37012780.698   194503460.179          45.000  
C07  38222543.358   199034959.208          45.000                                                    38222545.092   153906494.014          47.000    38222547.111   149993621.660          45.000    38222544.091   161732238.267          47.000    38222539.320   200860966.951          42.000  
C08  39556278.352   205979799.867          31.000                                                    39556291.360   159276608.582          34.000    39556295.131   155227199.378          32.000    39556288.483   167375429.185          32.000    39556273.241   207869521.313          23.000  
C09  37309419.238   194279926.263          47.000    37309420.078   150229560.958          49.000                                                                                                    37309419.291   157868354.109          47.000                                                  
C10  39141529.752   203820263.425          43.000    39141538.597   157606773.514          45.000                                                                                                    39141533.450   165620676.827          40.000                                                  
C14  24211939.496   126077984.590          46.000                                                    24211959.491    97491510.022          46.000    24211960.546    95012909.897          43.000    24211930.454   102448701.872          47.000    24211935.261   127234658.051          42.000  
C21  22929592.114   119400528.157          50.000                                                    22929588.201    92328100.936          51.000    22929589.809    89980777.158          49.000    22929586.646    97022737.845          51.000    22929587.236   120495943.960          47.000  
C22  22594350.302   117654798.029          51.000                                                    22594344.691    90978172.661          52.000    22594345.567    88665170.070          49.000    22594343.637    95604176.145          51.000    22594346.389   118734199.335          47.000  
C34  23201621.936   120816939.274          48.000                                                    23201621.596    93423323.037          48.000    23201622.775    91048153.998          45.000    23201621.864    98173660.655          47.000    23201617.039   121925351.775          44.000  
C35  24794027.637   129108832.357          44.000                                                    24794039.180    99835089.958          45.000    24794041.896    97296903.617          41.000    24794036.732   104911461.869          44.000    24794022.329   130293317.028          40.000  
> 2026 07 01 07 01 30.0000000  0 14                     
C01  38083593.496   198311154.176          46.000                                                    38083581.810   153346729.294          49.000                                                    38083593.943   161144034.382          46.000                                                  
C02  36976068.755   192544004.260          48.000                                                    36976055.282   148887212.541          51.000                                                    36976053.191   156457754.901          49.000                                                  
C03  36651940.188   190856195.750          48.000                                                    36651930.825   147582094.509          52.000                                                    36651929.199   155086275.377          50.000                                                  
C04  39522892.852   205806007.405          42.000                                                    39522885.865   159142261.413          37.000                                                    39522883.131   167234224.393          42.000                                                  
C06  37012755.664   192735098.841          48.000                                                    37012753.108   149034994.404          50.000    37012754.520   145245965.469          47.000    37012752.983   156613045.553          49.000    37012752.412   194503311.362          45.000  
C07  38217600.644   199009221.413          44.000                                                    38217602.449   153886592.007          47.000    38217604.432   149974225.636          45.000    38217601.412   161711324.259          47.000    38217596.873   200834993.045          42.000  
C08  39561110.261   206004957.107          30.000                                                    39561123.055   159296061.718          34.000    39561126.218   155246157.980          31.000    39561119.195   167395871.494          32.000    39561092.141   207894909.383          23.000  
C09  37309453.636   194280105.315          46.000    37309454.422   150229699.417          49.000                                                                                                    37309453.654   157868499.618          47.000                                                  
C10  39136793.710   203795601.363          43.000    39136802.573   157587703.408          45.000                                                                                                    39136797.051   165600637.026          40.000                                                  
C14  24207604.668   126055411.349          46.000                                                    24207624.431    97474055.051          46.000    24207625.056    94995898.700          42.000    24207595.572   102430359.343          47.000    24207600.290   127211877.714          42.000  
C21  22927837.090   119391391.822          50.000                                                    22927833.713    92321036.179          51.000    22927835.375    89973892.022          49.000    22927831.979    97015313.851          51.000    22927833.159   120486723.803          47.000  
C22  22598536.281   117676595.836          50.000                                                    22598530.706    90995028.108          52.000    22598531.618    88681596.992          49.000    22598529.706    95621888.647          51.000    22598532.404   118756197.120          47.000  
C34  23197120.889   120793500.916          47.000                                                    23197120.496    93405199.043          48.000    23197121.694    91030490.773          45.000    23197120.693    98154615.074          47.000    23197116.011   121901698.378          44.000  
C35  24803236.938   129156783.578          44.000                                                    24803248.624    99872168.542          45.000    24803251.162    97333039.482          41.000    24803245.890   104950425.895          44.000    24803232.417   130341708.151          40.000  
> 2026 07 01 07 01 45.0000000  0 14                     
C01  38083636.185   198311376.705          46.000                                                    38083624.535   153346901.372          49.000                                                    38083636.668   161144215.207          46.000                                                  
C02  36975970.404   192543492.091          49.000                                                    36975956.930   148886816.506          51.000                                                    36975954.822   156457338.731          50.000                                                  
C03  36651895.212   190855961.567          49.000                                                    36651885.867   147581913.413          52.000                                                    36651884.223   155086085.082          50.000                                                  
C04  39522933.915   205806221.199          43.000                                                    39522926.946   159142426.708          37.000                                                    39522924.194   167234398.123          43.000                                                  
C06  37012723.732   192734932.130          48.000                                                    37012721.105   149034865.488          50.000    37012722.481   145245839.833          47.000    37012720.980   156612910.088          49.000    37012720.533   194503143.121          45.000  
C07  38212660.574   198983497.631          44.000                                                    38212662.575   153866700.814          47.000    38212664.398   149954840.174          45.000    38212661.378   161690421.641          47.000    38212657.411   200809033.239          42.000  
C08  39565941.562   206030112.571          29.000                                                    39565953.981   159315513.509          33.000    39565957.108   155265115.169          30.000    39565949.960   167416312.343          31.000                                                  
C09  37309483.834   194280262.712          46.000    37309484.674   150229821.131          48.000                                                                                                    37309483.888   157868627.509          47.000                                                  
C10  39132057.936   203770941.355          43.000    39132066.853   157568634.894          45.000                                                                                                    39132061.314   165580598.872          41.000                                                  
C14  24203277.666   126032880.199          46.000                                                    24203297.483    97456632.632          46.000    24203298.072    94978919.238          43.000    24203268.696   102412051.018          47.000    24203273.359   127189139.861          42.000  
C21  22926091.644   119382302.663          51.000                                                    22926088.267    92314007.900          51.000    22926089.946    89967042.426          49.000    22926086.480    97007928.195          51.000    22926087.588   120477551.251          47.000  
C22  22602725.584   117698411.332          50.000                                                    22602720.134    91011897.229          52.000    22602721.135    88698037.236          49.000    22602719.223    95639615.519          52.000    22602721.475   118778212.757          47.000  
C34  23192639.714   120770166.578          48.000                                                    23192639.339    93387155.464          48.000    23192640.571    91012905.938          45.000    23192639.571    98135654.032          47.000    23192634.943   121878149.984          44.000  
C35  24812451.100   129204761.746          45.000                                                    24812462.500    99909267.958          44.000    24812465.091    97369195.655          41.000    24812459.712   104989411.803          45.000    24812445.971   130390126.503          40.000  
> 2026 07 01 07 02 00.0000000  0 14                     
C01  38083678.892   198311599.303          46.000                                                    38083667.278   153347073.515          49.000                                                    38083679.428   161144396.094          45.000                                                  
C02  36975872.231   192542980.859          49.000                                                    36975858.740   148886421.191          51.000                                                    36975856.649   156456923.310          49.000                                                  
C03  36651850.397   190855728.204          48.000                                                    36651841.033   147581732.964          52.000                                                    36651839.407   155085895.450          50.000                                                  
C04  39522975.175   205806435.885          43.000                                                    39522968.241   159142592.712          38.000                                                    39522965.418   167234572.566          42.000                                                  
C06  37012688.119   192734746.097          48.000                                                    37012685.367   149034721.646          50.000    37012686.725   145245699.648          48.000    37012685.313   156612758.930          49.000    37012685.063   194502955.381          45.000  
C07  38207723.095   198957787.850          44.000                                                    38207725.185   153846820.468          47.000    38207727.062   149935465.265          45.000    38207724.077   161669530.411          47.000    38207720.253   200783087.594          42.000  
C08  39570772.702   206055266.098          28.000                                                    39570784.550   159334963.767          33.000    39570787.641   155284070.992          30.000    39570780.404   167436751.649          29.000                                                  
C09  37309509.852   194280398.418          47.000    37309510.638   150229926.067          48.000                                                                                                    37309509.959   157868737.781          47.000                                                  
C10  39127322.520   203746283.440          43.000    39127331.508   157549567.999          45.000                                                                                                    39127325.987   165560562.424          41.000                                                  
C14  24198958.830   126010391.011          46.000                                                    24198978.593    97439242.653          47.000    24198979.254    94961971.388          43.000    24198949.878   102393776.791          47.000    24198954.488   127166444.365          42.000  
C21  22924355.204   119373260.511          51.000                                                    22924351.826    92307015.969          51.000    22924353.524    89960228.258          49.000    22924350.004    97000580.730          51.000    22924351.147   120468426.140          47.000  
C22  22606918.336   117720244.332          50.000                                                    22606912.922    91028779.892          52.000    22606913.958    88714490.683          49.000    22606912.064    95657356.623          52.000    22606914.155   118800246.060          47.000  
C34  23188178.927   120746936.417          48.000                                                    23188177.997    93369192.437          48.000    23188179.373    90995399.591          46.000    23188178.301    98116777.638          47.000    23188173.852   121854706.672          44.000  
C35  24821670.157   129252766.549          44.000                                                    24821681.504    99946387.957          44.000    24821684.131    97405371.888          41.000    24821678.627   105028419.359          44.000    24821664.922   130438571.723          40.000  
> 2026 07 01 07 02 15.0000000  0 14                     
C01  38083721.635   198311821.980          47.000                                                    38083710.038   153347245.705          49.000                                                    38083722.189   161144577.051          45.000                                                  
C02  36975774.220   192542470.550          49.000                                                    36975760.746   148886026.597          51.000                                                    36975758.638   156456508.650          49.000                                                  
C03  36651805.742   190855495.672          49.000                                                    36651796.379   147581553.151          52.000                                                    36651794.752   155085706.502          50.000                                                  
C04  39523016.595   205806651.462          43.000                                                    39523009.644   159142759.410          37.000                                                    39523006.803   167234747.725          42.000                                                  
C06  37012648.718   192734540.788          48.000                                                    37012645.912   149034562.895          50.000    37012647.288   145245544.924          48.000    37012645.894   156612592.095          49.000    37012645.626   194502748.185          45.000  
C07  38202788.439   198932092.192          45.000                                                    38202790.476   153826951.021          47.000    38202792.424   149916100.986          45.000    38202789.475   161648650.636          47.000    38202785.598   200757156.173          42.000  
C08  39575605.219   206080417.616          27.000                                                    39575614.725   159354412.505          32.000    39575618.013   155303025.264          29.000    39575610.347   167457189.277          29.000                                                  
C09  37309531.884   194280512.469          47.000    37309532.510   150230014.257          49.000                                                                                                    37309531.902   157868830.465          47.000                                                  
C10  39122587.390   203721627.645          43.000    39122596.610   157530502.749          45.000                                                                                                    39122591.071   165540527.729          41.000                                                  
C14  24194647.982   125987943.712          46.000                                                    24194667.763    97421885.063          47.000    24194668.406    94945055.104          43.000    24194639.101   102375536.597          47.000    24194643.693   127143791.112          42.000  
C21  22922627.877   119364265.250          50.000                                                    22922624.464    92300060.293          51.000    22922626.161    89953449.424          49.000    22922622.516    96993271.362          51.000    22922623.677   120459348.339          47.000  
C22  22611114.573   117742094.677          51.000                                                    22611109.033    91045675.969          52.000    22611110.105    88730957.193          49.000    22611108.193    95675111.823          51.000    22611110.230   118822296.864          47.000  
C34  23183737.849   120723810.537          49.000                                                    23183736.902    93351310.064          48.000    23183738.385    90977971.866          45.000    23183737.152    98097985.978          47.000    23183732.667   121831368.649          44.000  
C35  24830894.915   129300797.699          43.000                                                    24830906.101    99983528.339          44.000    24830909.014    97441567.975          42.000    24830902.921   105067448.331          44.000    24830889.251   130487043.529          41.000  
> 2026 07 01 07 02 30.0000000  0 14                     
C01  38083764.271   198312044.727          47.000                                                    38083752.781   153347417.958          49.000                                                    38083764.932   161144758.051          45.000                                                  
C02  36975676.422   192541961.179          49.000                                                    36975662.913   148885632.721          51.000                                                    36975660.787   156456094.744          49.000                                                  
C03  36651761.248   190855263.964          49.000                                                    36651751.885   147581373.979          52.000                                                    36651750.259   155085518.215          50.000                                                  
C04  39523058.194   205806867.919          43.000                                                    39523051.243   159142926.773          38.000                                                    39523048.384   167234923.605          42.000                                                  
C06  37012605.582   192734316.206          49.000                                                    37012602.776   149034389.238          50.000    37012604.134   145245375.692          48.000    37012602.776   156612409.614          49.000    37012602.401   194502521.540          45.000  
C07  38197856.499   198906410.692          45.000                                                    38197858.500   153807092.539          47.000    38197860.502   149896747.381          45.000    38197857.589   161627782.375          46.000    38197853.569   200731239.066          41.000  
C08  39580435.591   206105567.092          23.000                                                                                                    39580447.778   155321977.980          28.000    39580440.166   167477625.275          27.000                                                  
C09  37309549.557   194280604.678          47.000    37309550.325   150230085.579          49.000                                                                                                    37309549.646   157868905.396          46.000                                                  
C10  39117852.045   203696974.118          43.000    39117862.034   157511439.240          46.000                                                                                                    39117856.513   165520494.849          40.000                                                  
C14  24190344.853   125965538.241          46.000                                                    24190364.741    97404559.811          47.000    24190365.367    94928170.334          44.000    24190336.348   102357330.381          47.000    24190340.583   127121180.040          42.000  
C21  22920909.216   119355316.731          51.000                                                    22920905.946    92293140.774          51.000    22920907.626    89946705.826          49.000    22920904.016    96985999.995          50.000    22920905.071   120450317.730          48.000  
C22  22615314.132   117763962.260          51.000                                                    22615308.397    91062585.369          52.000    22615309.629    88747436.695          49.000    22615307.682    95692881.023          51.000    22615309.612   118844365.064          47.000  
C34  23179316.838   120700789.192          49.000                                                    23179315.838    93333508.509          48.000    23179317.428    90960622.903          46.000    23179316.070    98079279.251          46.000    23179311.674   121808136.084          45.000  
C35  24840123.444   129348854.970          43.000                                                    24840135.041   100020688.930          44.000    24840138.061    97477783.761          42.000    24840131.932   105106498.516          43.000    24840118.583   130535541.698          40.000  
> 2026 07 01 07 02 45.0000000  0 14                     
C01  38083807.067   198312267.529          47.000                                                    38083795.577   153347590.250          49.000                                                    38083807.710   161144939.106          45.000                                                  
C02  36975578.786   192541452.729          49.000                                                    36975565.259   148885239.562          51.000                                                    36975563.151   156455681.594          49.000                                                  
C03  36651716.933   190855033.084          49.000                                                    36651707.552   147581195.446          52.000                                                    36651705.926   155085330.603          50.000                                                  
C04  39523099.954   205807085.258          43.000                                                    39523093.003   159143094.828          37.000                                                    39523090.126   167235100.213          42.000                                                  
C06  37012558.836   192734072.351          48.000                                                    37012555.942   149034200.686          49.000    37012557.264   145245191.929          48.000    37012555.977   156612211.476          49.000    37012555.352   194502275.455          45.000  
C07  38192927.025   198880743.432          45.000                                                    38192928.919   153787245.057          47.000    38192931.171   149877404.511          45.000    38192928.348   161606925.692          47.000    38192924.238   200705336.340          41.000  
C08                                                                                                                                                  39585277.078   155340929.057          28.000    39585269.555   167498059.485          27.000                                                  
C09  37309563.262   194280675.058          47.000    37309563.816   150230139.992          49.000                                                                                                    37309563.298   157868962.588          47.000                                                  
C10  39113117.773   203672322.908          43.000    39113128.065   157492377.514          46.000                                                                                                    39113122.472   165500463.861          40.000                                                  
C14  24186049.998   125943174.526          46.000                                                    24186070.047    97387266.855          47.000    24186070.654    94911317.039          44.000    24186041.653   102339158.101          47.000    24186045.852   127098611.162          42.000  
C21  22919199.669   119346414.856          51.000                                                    22919196.435    92286257.317          51.000    22919198.061    89939997.371          49.000    22919194.469    96978766.521          51.000    22919195.577   120441334.189          47.000  
C22  22619516.855   117785846.902          51.000                                                    22619511.119    91079507.963          52.000    22619512.370    88763929.051          49.000    22619510.387    95710664.087          51.000    22619512.316   118866450.480          47.000  
C34  23174915.930   120677872.491          48.000                                                    23174914.662    93315787.871          48.000    23174916.645    90943352.792          45.000    23174915.019    98060657.574          47.000    23174910.695   121785009.150          45.000  
C35  24849357.065   129396938.065          43.000                                                    24849368.948   100057869.462          43.000    24849372.093    97514018.975          42.000    24849365.928   105145569.672          44.000    24849352.562   130584065.913          39.000  
> 2026 07 01 07 03 00.0000000  0 14                     
C01  38083849.881   198312490.436          47.000                                                    38083838.373   153347762.625          49.000                                                    38083850.524   161145120.243          45.000                                                  
C02  36975481.364   192540945.212          49.000                                                    36975467.802   148884847.124          51.000                                                    36975465.675   156455269.202          49.000                                                  
C03  36651672.779   190854803.065          49.000                                                    36651663.379   147581017.571          52.000                                                    36651661.753   155085143.687          50.000                                                  
C04  39523141.928   205807303.498          43.000                                                    39523134.888   159143263.585          37.000                                                    39523132.047   167235277.548          42.000                                                  
C06  37012508.321   192733809.282          48.000                                                    37012505.354   149033997.269          49.000    37012506.730   145244993.687          48.000    37012505.462   156611997.709          49.000    37012504.729   194502009.972          45.000  
C07  38188000.768   198855090.504          45.000                                                    38188002.483   153767408.667          47.000    38188004.771   149858072.447          45.000    38188001.930   161586080.650          46.000    38187997.802   200679448.079          42.000  
C08                                                                                                                                                  39590106.056   155359878.398          27.000    39590098.819   167518491.879          25.000                                                  
C09  37309572.643   194280723.664          47.000    37309573.215   150230177.584          49.000                                                                                                    37309572.626   157869002.080          47.000                                                  
C10  39108384.054   203647674.100          43.000    39108394.454   157473317.661          46.000                                                                                                    39108388.861   165480434.816          40.000                                                  
C14  24181763.201   125920852.499          46.000                                                    24181783.286    97370006.143          47.000    24181783.983    94894495.167          44.000    24181754.892   102321019.713          47.000    24181759.145   127076084.355          41.000  
C21  22917499.128   119337559.534          50.000                                                    22917495.822    92279409.852          51.000    22917497.412    89933324.005          49.000    22917493.856    96971570.872          51.000    22917494.982   120432397.620          47.000  
C22  22623722.919   117807748.540          51.000                                                    22623717.112    91096443.692          52.000    22623718.381    88780434.204          49.000    22623716.379    95728460.953          51.000    22623718.220   118888553.056          47.000  
C34  23170535.053   120655060.688          49.000                                                    23170533.910    93298148.356          48.000    23170535.857    90926161.746          45.000    23170534.303    98042121.125          47.000    23170530.050   121761988.059          45.000  
C35  24858595.368   129445046.716          44.000                                                    24858608.072   100095069.794          43.000    24858611.718    97550273.483          42.000    24858605.249   105184661.622          43.000    24858591.418   130632615.960          38.000  
> 2026 07 01 07 03 15.0000000  0 14                     
C01  38083892.713   198312713.239          46.000                                                    38083881.134   153347934.916          49.000                                                    38083893.267   161145301.288          45.000                                                  
C02  36975384.157   192540438.472          49.000                                                    36975370.469   148884455.290          51.000                                                    36975368.361   156454857.441          49.000                                                  
C03  36651628.767   190854573.700          48.000                                                    36651619.332   147580840.207          52.000                                                    36651617.706   155084957.307          50.000                                                  
C04  39523183.992   205807522.447          43.000                                                    39523176.916   159143432.888          37.000                                                    39523174.110   167235455.455          42.000                                                  
C06  37012454.088   192733526.824          48.000                                                    37012451.086   149033778.856          50.000    37012452.480   145244780.826          48.000    37012451.211   156611768.196          49.000    37012450.425   194501724.929          45.000  
C07  38183077.191   198829451.829          44.000                                                    38183078.817   153747583.285          47.000    38183081.104   149838751.102          45.000    38183078.227   161565247.184          46.000    38183074.082   200653574.170          42.000  
C08                                                                                                                                                  39594934.409   155378825.934          26.000    39594927.261                1         26.000                                                  
C09  37309577.754   194280750.369          47.000    37309578.290   150230198.236          49.000                                                                                                    37309577.754   157869023.796          47.000                                                  
C10  39103650.085   203623027.604          43.000    39103661.057   157454259.604          45.000                                                                                                    39103655.571   165460407.644          41.000                                                  
C14  24177484.267   125898571.944          46.000                                                    24177504.388    97352777.494          47.000    24177505.317    94877704.543          45.000    24177475.994   102302915.017          47.000    24177480.157   127053599.408          42.000  
C21  22915807.271   119328750.446          51.000                                                    22915804.126    92272598.151          51.000    22915805.430    89926685.491          49.000    22915801.999    96964412.800          51.000    22915802.946   120423507.726          47.000  
C22  22627932.093   117829666.840          51.000                                                    22627926.303    91113392.300          52.000    22627927.572    88796951.920          49.000    22627925.553    95746271.357          51.000    22627927.465   118910672.441          47.000  
C34  23166174.404   120632353.740          48.000                                                    23166173.350    93280589.926          48.000    23166175.119    90909049.714          45.000    23166173.761    98023669.881          47.000    23166169.454   121739072.796          45.000  
C35  24867839.388   129493180.519          44.000                                                    24867851.897   100132289.549          43.000    24867855.506    97586546.932          42.000    24867848.930   105223774.001          44.000    24867835.582   130681191.361          40.000  
> 2026 07 01 07 03 30.0000000  0 14                     
C01  38083935.563   198312936.375          47.000                                                    38083923.984   153348107.471          50.000                                                    38083936.117   161145482.610          46.000                                                  
C02  36975287.110   192539932.918          49.000                                                    36975273.387   148884064.372          51.000                                                    36975271.260   156454446.644          49.000                                                  
C03  36651584.934   190854345.437          49.000                                                    36651575.517   147580663.702          52.000                                                    36651573.873   155084771.820          50.000                                                  
C04  39523226.270   205807742.559          43.000                                                    39523219.194   159143603.077          38.000                                                    39523216.389   167235634.305          42.000                                                  
C06  37012396.175   192733225.419          49.000                                                    37012393.191   149033545.800          50.000    37012394.584   145244553.697          47.000    37012393.316   156611523.279          49.000    37012392.136   194501420.744          45.000  
C07  38178156.652   198803827.897          45.000                                                    38178157.849   153727769.314          48.000    38178160.208   149819440.887          45.000    38178157.134   161544425.692          47.000    38178152.971   200627715.150          42.000  
C08                                                                                                                                                  39599762.262   155397771.879          25.000    39599755.203                1         23.000                                                  
C09  37309578.755   194280755.501          47.000    37309579.434   150230202.220          49.000                                                                                                    37309578.683   157869027.969          47.000                                                  
C10  39098917.635   203598383.894          43.000    39098928.178   157435203.720          45.000                                                                                                    39098922.889   165440382.776          41.000                                                  
C14  24173213.589   125876333.219          45.000                                                    24173233.584    97335581.180          47.000    24173234.620    94860945.433          44.000    24173205.190   102284844.296          46.000    24173209.461   127031156.632          42.000  
C21  22914124.563   119319987.917          50.000                                                    22914121.346    92265822.451          51.000    22914122.615    89920082.061          49.000    22914119.220    96957292.565          51.000    22914120.113   120414664.812          47.000  
C22  22632144.626   117851602.089          51.000                                                    22632138.747    91130354.024          52.000    22632140.051    88813482.414          49.000    22632137.978    95764095.542          51.000    22632140.015   118932808.917          47.000  
C34  23161833.786   120609752.256          48.000                                                    23161833.054    93263113.050          49.000    23161834.429    90892017.152          45.000    23161833.715    98005304.348          47.000    23161829.319   121716263.965          45.000  
C35  24877087.984   129541339.605          44.000                                                    24877100.581   100169528.884          44.000    24877104.227    97622839.451          42.000    24877097.526   105262906.937          44.000    24877084.088   130729792.324          40.000  
> 2026 07 01 07 03 45.0000000  0 14                     
C01  38083978.413   198313159.581          46.000                                                    38083966.834   153348280.081          49.000                                                    38083978.967   161145664.000          46.000                                                  
C02  36975190.224   192539428.309          49.000                                                    36975176.483   148883674.179          51.000                                                    36975174.357   156454036.613          49.000                                                  
C03  36651541.263   190854118.005          49.000                                                    36651531.846   147580487.835          52.000                                                    36651530.184   155084587.018          50.000                                                  
C04  39523268.763   205807963.553          43.000                                                    39523261.579   159143773.957          37.000                                                    39523258.845   167235813.874          42.000                                                  
C06  37012334.616   192732904.826          48.000                                                    37012331.560   149033297.897          50.000    37012333.008   145244312.105          47.000    37012331.739   156611262.773          49.000    37012330.506   194501097.209          45.000  
C07  38173238.561   198778218.513          45.000                                                    38173239.865   153707966.576          48.000    38173242.170   149800141.624          45.000    38173239.025   161523616.029          47.000    38173235.040   200601870.802          42.000  
C08                                                                                                                                                  39604589.650   155416715.828          25.000    39604582.627                1         22.000                                                  
C09  37309575.556   194280738.767          47.000    37309576.199   150230189.290          49.000                                                                                                    37309575.413   157869014.381          47.000                                                  
C10  39094185.614   203573742.844          42.000    39094195.782   157416149.872          45.000                                                                                                    39094190.707   165420360.041          41.000                                                  
C14  24168950.808   125854135.982          46.000                                                    24168970.750    97318416.940          47.000    24168971.786    94844217.610          45.000    24168942.320   102266807.270          46.000    24168946.680   127008755.745          42.000  
C21  22912450.646   119311271.566          50.000                                                    22912447.340    92259082.447          51.000    22912448.681    89913513.413          49.000    22912445.285    96950209.844          51.000    22912446.161   120405868.477          48.000  
C22  22636360.214   117873553.907          50.000                                                    22636354.353    91147328.571          52.000    22636355.675    88830025.406          49.000    22636353.603    95781933.201          51.000    22636355.711   118954962.145          47.000  
C34  23157513.557   120587256.153          48.000                                                    23157512.967    93245717.647          49.000    23157514.307    90875064.021          45.000    23157513.593    97987024.440          48.000    23157509.268   121693561.473          45.000  
