     3.04           OBSERVATION DATA    M: Mixed            RINEX VERSION / TYPE
CONVBIN EX 2.5.0                        20260702 082907 UTC PGM / RUN BY / DATE 
format: RTCM 3                                              COMMENT             
log: C:\Users\Admin\Desktop\540423496360\2026-06-08\0.rtcm3 COMMENT             
0000                                                        MARKER NAME         
                                                            MARKER NUMBER       
                                                            MARKER TYPE         
                                                            OBSERVER / AGENCY   
                    NONE                                    REC # / TYPE / VERS 
NONE                NONE                                    ANT # / TYPE        
  -493099.6505  5551400.7556  3092551.4870                  APPROX POSITION XYZ 
        0.0000        0.0000        0.0000                  ANTENNA: DELTA H/E/N
C   10 C2I L2I C7I L7I C5P L5P C6I L6I C1P L1P              SYS / # / OBS TYPES 
  2026    06    07    16    00   18.0000000     GPS         TIME OF FIRST OBS   
  2026    06    07    17    00   03.0000000     GPS         TIME OF LAST OBS    
C L2I                                                       SYS / PHASE SHIFT   
C L7I                                                       SYS / PHASE SHIFT   
C L5P  0.00000                                              SYS / PHASE SHIFT   
C L6I                                                       SYS / PHASE SHIFT   
C L1P  0.00000                                              SYS / PHASE SHIFT   
  0                                                         GLONASS SLOT / FRQ #
 C1C    0.000 C1P    0.000 C2C    0.000 C2P    0.000        GLONASS COD/PHS/BIS 
                                                            END OF HEADER       
> 2026 06 07 16 00 18.0000000  0 10                     
C01  38585994.389   200927386.490                                                                    38585991.405   163269949.435                                  
C02  36913859.699   192220132.689                                                                    36913842.688   156194534.315                                  
C03  36963958.882   192481006.289                                                                    36963944.837   156406524.546                                  
C06  39099107.279   203599184.894                                                                    39099109.084   165441065.120                                  
C08  39592501.417   206168523.119                                                                    39592500.773   167528842.642                                  
C09  37412234.308   194815337.656    37412237.650   150643545.465                                    37412237.239   158303380.834                                  
C12  21495152.382   111930897.785                                                                    21495149.219    90953039.767                                  
C19  22203492.550   115619426.983                                    22203490.870    87131256.046    22203486.975    93950209.632    22203487.439   116680128.289  
C20  22641468.271   117900005.266                                    22641466.502    88849966.819    22641461.552    95803410.359    22641462.410   118981628.965  
C36  23387860.434   121786769.100                                    23387868.796    91779046.321    23387865.723    98961747.667    23387856.485   122903932.263  
> 2026 06 07 16 00 33.0000000  0 10                     
C01  38585986.259   200927343.923                                                                    38585983.311   163269914.827                                  
C02  36914059.421   192221172.711                                                                    36914042.463   156195379.421                                  
C03  36964117.916   192481834.260                                                                    36964103.907   156407197.326                                  
C06  39104017.347   203624752.814                                                                    39104019.063   165461841.125                                  
C08  39587311.323   206141497.699                                                                    39587310.805   167506882.284                                  
C09  37416757.101   194838887.224    37416759.996   150661755.472                                    37416760.031   158322516.773                                  
C12  21497635.980   111943830.335                                                                    21497633.013    90963548.511                                  
C19  22200921.215   115606037.157                                    22200919.625    87121165.384    22200915.604    93939329.278    22200916.033   116666615.618  
C20  22647086.756   117929264.310                                    22647085.434    88872016.554    22647080.717    95827185.722    22647081.592   119011156.451  
C36  23383103.503   121761998.437                                    23383112.884    91760379.109    23383107.935    98941619.537    23383099.125   122878934.333  
> 2026 06 07 16 00 48.0000000  0 10                     
C01  38585976.681   200927293.973                                                                    38585973.840   163269874.220                                  
C02  36914257.839   192222205.874                                                                    36914240.863   156196218.946                                  
C03  36964275.539   192482655.097                                                                    36964261.619   156407864.316                                  
C06  39108928.041   203650324.173                                                                    39108929.417   165482619.940                                  
C08  39582119.246   206114460.369                                                                    39582118.210   167484912.258                                  
C09  37421284.379   194862460.633    37421286.934   150679983.887                                    37421287.148   158341672.088                                  
C12  21500140.591   111956872.421                                                                    21500137.321    90974146.243                                  
C19  22198369.912   115592752.104                                    22198368.625    87111153.715    22198364.408    93928534.082    22198364.533   116653208.683  
C20  22652723.289   117958615.055                                    22652721.431    88894135.378    22652717.357    95851035.582    22652718.358   119040776.459  
C36  23378357.401   121737283.445                                    23378366.604    91741753.847    23378361.332    98921536.634    23378352.612   122853992.648  
> 2026 06 07 16 01 03.0000000  0 10                     
C01  38585966.031   200927237.865                                                                    38585963.065   163269828.618                                  
C02  36914455.166   192223233.405                                                                    36914438.191   156197053.894                                  
C03  36964432.054   192483470.050                                                                    36964418.170   156408526.532                                  
C06  39113839.735   203675900.113                                                                    39113840.628   165503402.469                                  
C08  39576925.257   206087412.426                                                                    39576923.899   167462933.621                                  
C09  37425816.052   194886058.974    37425818.661   150698231.598                                    37425818.786   158360847.641                                  
C12  21502666.396   111970025.158                                                                    21502664.323    90984833.932                                  
C19  22195839.033   115579573.251                                    22195837.853    87101222.067    22195833.476    93917825.177    22195833.547   116639908.918  
C20  22658377.799   117988058.577                                    22658375.547    88916324.090    22658372.063    95874960.823    22658372.831   119070490.100  
C36  23373622.307   121712625.312                                    23373630.759    91723171.453    23373626.542    98901499.938    23373617.357   122829108.350  
> 2026 06 07 16 01 18.0000000  0 10                     
C01  38585955.596   200927183.056                                                                    38585952.558   163269784.046                                  
C02  36914652.869   192224262.719                                                                    36914635.822   156197890.293                                  
C03  36964588.855   192484286.529                                                                    36964575.042   156409189.981                                  
C06  39118753.591   203701488.000                                                                    39118753.680   165524194.728                                  
C08  39571730.428   206060361.433                                                                    39571729.338   167440952.478                                  
C09  37430353.783   194909689.654    37430356.571   150716504.366                                    37430356.517   158380049.496                                  
C12  21505215.144   111983296.027                                                                    21505212.571    90995617.591                                  
C19  22193329.954   115566508.179                                    22193328.632    87091376.157    22193324.272    93907208.744    22193324.468   116626723.975  
C20  22664051.142   118017602.147                                    22664049.748    88938588.220    22664045.245    95898967.385    22664045.978   119100304.706  
C36  23368899.184   121688031.505                                    23368907.190    91704637.511    23368903.419    98881515.492    23368894.842   122804288.902  
> 2026 06 07 16 01 33.0000000  0 10                     
C01  38585943.945   200927121.868                                                                    38585940.836   163269734.330                                  
C02  36914849.446   192225286.182                                                                    36914832.328   156198721.927                                  
C03  36964744.494   192485096.919                                                                    36964730.663   156409848.477                                  
C06  39123668.073   203727080.054                                                                    39123668.001   165544990.392                                  
C08  39566533.545   206033299.782                                                                    39566533.009   167418962.668                                  
C09  37434896.250   194933344.882    37434899.037   150734796.076                                    37434898.734   158399271.325                                  
C12  21507784.834   111996677.278                                                                    21507781.386    91006490.960                                  
C19  22190841.281   115553549.396                                    22190840.245    87081610.365    22190835.438    93896678.670    22190836.010   116613646.315  
C20  22669742.140   118047237.999                                    22669741.068    88960921.900    22669736.618    95923048.927    22669737.226   119130212.460  
C36  23364186.819   121663494.297                                    23364194.074    91686146.248    23364191.179    98861577.065    23364183.710   122779526.556  
> 2026 06 07 16 01 48.0000000  0 10                     
C01  38585932.455   200927061.750                                                                    38585929.275   163269685.482                                  
C02  36915046.309   192226311.197                                                                    36915029.173   156199554.819                                  
C03  36964900.383   192485908.623                                                                    36964886.606   156410508.054                                  
C06  39128584.770   203752683.628                                                                    39128584.985   165565795.413                                  
C08  39561335.928   206006235.000                                                                    39561336.339   167396970.282                                  
C09  37439445.167   194957032.061    37439447.704   150753112.469                                    37439447.025   158418519.086                                  
C12  21510377.308   112010176.352                                                                    21510373.966    91017460.059                                  
C19  22188374.499   115540704.507                                    22188373.480    87071930.410    22188368.530    93886241.139    22188369.513   116600683.580  
C20  22675451.990   118076973.369                                    22675450.828    88983330.590    22675446.897    95947211.353    22675446.986   119160220.644  
C36  23359486.677   121639021.145                                    23359495.575    91667703.237    23359491.841    98841690.650    23359484.157   122754828.839  
> 2026 06 07 16 02 03.0000000  0 11                     
C01  38585920.519   200926999.343                                                                    38585917.356   163269634.736                                  
C02  36915242.833   192227334.428                                                                    36915225.679   156200386.280                                  
C03  36965055.879   192486718.287                                                                    36965042.174   156411165.967                                  
C06  39133503.290   203778295.371                                                                    39133503.594   165586607.040                                  
C08  39556137.133   205979163.812                                                                    39556138.187   167374972.722                                  
C09  37443999.570   194980747.753    37444002.089   150771450.944                                    37444000.964   158437790.036                                  
C10                                  37211352.432   149834689.597                                                                                                  
C12  21512991.671   112023789.870                                                                    21512988.848    91028522.155                                  
C19  22185929.033   115527970.354                                    22185927.550    87062333.894    22185923.298    93875893.590    22185924.298   116587832.615  
C20  22681180.745   118106804.799                                    22681179.548    89005811.647    22681174.741    95971451.809    22681174.955   119190325.757  
C36  23354798.131   121614608.669                                    23354808.638    91649305.941    23354803.760    98821853.545    23354795.540   122730192.372  
> 2026 06 07 16 02 18.0000000  0 11                     
C01  38585908.690   200926937.576                                                                    38585905.473   163269584.543                                  
C02  36915439.571   192228358.801                                                                    36915422.381   156201218.648                                  
C03  36965211.572   192487528.822                                                                    36965197.902   156411824.591                                  
C06  39138423.901   203803918.021                                                                    39138424.616   165607427.572                                  
C08  39550937.873   205952089.169                                                                    39550939.088   167352972.407                                  
C09  37448560.048   195004494.844    37448562.621   150789813.678                                    37448561.406   158457086.457                                  
C10                                  37212162.095   149837949.443                                                                                                  
C12  21515628.478   112037520.629                                                                    21515625.225    91039679.531                                  
C19  22183505.404   115515349.980                                    22183503.868    87052823.108    22183499.990    93865638.490    22183501.080   116575096.466  
C20  22686928.620   118136735.036                                    22686927.959    89028367.168    22686922.902    95995772.542    22686922.634   119220530.578  
C36  23350121.915   121590259.757                                    23350132.708    91630956.547    23350127.955    98802068.097    23350119.288   122705620.026  
> 2026 06 07 16 02 33.0000000  0 11                     
C01  38585897.539   200926879.328                                                                    38585894.216   163269537.204                                  
C02  36915637.077   192229387.186                                                                    36915619.816   156202054.286                                  
C03  36965367.980   192488343.141                                                                    36965354.346   156412486.284                                  
C06  39143347.192   203829554.491                                                                    39143348.532   165628259.264                                  
C08  39545738.773   205925014.088                                                                    39545739.327   167330971.730                                  
C09  37453126.906   195028276.161    37453129.783   150808202.857                                    37453128.604   158476410.699                                  
C10                                  37212969.739   149841200.848                                                                                                  
C12  21518288.317   112051371.581                                                                    21518284.958    91050934.562                                  
C19  22181104.290   115502846.480                                    22181102.718    87043400.420    22181098.965    93855478.379    22181100.144   116562478.261  
C20  22692696.061   118166766.856                                    22692695.847    89050999.247    22692691.201    96020175.844    22692689.218   119250837.916  
C36  23345458.779   121565977.236                                    23345469.286    91612657.211    23345464.747    98782336.611    23345455.527   122681114.746  
> 2026 06 07 16 02 48.0000000  0 11                     
C01  38585884.102   200926808.934                                                                    38585880.778   163269479.979                                  
C02  36915832.350   192230403.935                                                                    36915815.088   156202880.476                                  
C03  36965522.100   192489145.561                                                                    36965508.484   156413138.316                                  
C06  39148270.072   203855188.917                                                                    39148271.984   165649089.325                                  
C08  39540536.690   205897923.014                                                                    39540536.332   167308958.046                                  
C09  37457697.141   195052075.900    37457700.554   150826606.349                                    37457699.160   158495749.943                                  
C10                                  37213772.130   149844431.590                                                                                                  
C12  21520968.117   112065326.896                                                                    21520964.275    91062274.382                                  
C19  22178722.635   115490444.317                                    22178721.313    87034054.089    22178717.310    93845400.599    22178718.525   116549962.311  
C20  22698480.121   118196884.435                                    22698479.853    89073695.931    22698475.064    96044648.806    22698473.688   119281231.821  
C36  23340805.489   121541745.434                                    23340815.924    91594396.097    23340811.582    98762646.347    23340801.307   122656660.688  
> 2026 06 07 16 03 03.0000000  0 11                     
C01  38585871.862   200926744.864                                                                    38585868.556   163269427.929                                  
C02  36916028.963   192231427.485                                                                    36916011.683   156203712.180                                  
C03  36965677.471   192489954.520                                                                    36965663.891   156413795.674                                  
C06  39153196.008   203880839.751                                                                    39153198.313   165669932.765                                  
C08  39535335.035   205870834.426                                                                    39535333.409   167286946.380                                  
C09  37462274.738   195075912.494    37462278.383   150845038.282                                    37462276.489   158515119.110                                  
C10                                  37214572.787   149847656.045                                                                                                  
C12  21523671.700   112079405.120                                                                    21523668.376    91073714.068                                  
C19  22176364.031   115478162.122                                    22176362.906    87024798.171    22176358.581    93835420.302    22176359.636   116537567.430  
C20  22704283.980   118227106.075                                    22704283.640    89096471.047    22704278.441    96069206.345    22704277.529   119311730.714  
C36  23336165.511   121517582.800                                    23336175.232    91576187.111    23336170.943    98743012.286    23336161.437   122632276.398  
> 2026 06 07 16 03 18.0000000  0 11                     
C01  38585861.909   200926692.786                                                                    38585858.424   163269385.585                                  
C02  36916227.988   192232463.533                                                                    36916210.601   156204554.051                                  
C03  36965835.165   192490775.748                                                                    36965821.638   156414462.970                                  
C06  39158126.125   203906512.580                                                                    39158128.644   165690794.027                                  
C08  39530134.881   205843754.093                                                                    39530132.272   167264941.415                                  
C09  37466860.662   195099791.566    37466864.396   150863503.086                                    37466862.073   158534522.790                                  
C10                                  37215372.569   149850878.483                                                                                                  
C12  21526399.817   112093611.829                                                                    21526397.280    91085258.190                                  
C19  22174029.586   115466005.738                                    22174028.443    87015637.074    22174023.868    93825542.233    22174024.923   116525299.513  
C20  22710108.745   118257437.314                                    22710108.585    89119328.755    22710102.420    96093852.921    22710102.509   119342340.213  
C36  23331539.721   121493495.000                                    23331548.334    91558034.518    23331544.510    98723439.028    23331535.701   122607967.592  
> 2026 06 07 16 03 33.0000000  0 11                     
C01  38585850.723   200926634.415                                                                    38585847.202   163269338.154                                  
C02  36916425.887   192233493.815                                                                    36916408.429   156205391.223                                  
C03  36965991.698   192491590.918                                                                    36965978.225   156415125.367                                  
C06  39163056.885   203932189.094                                                                    39163059.601   165711658.250                                  
C08  39524932.726   205816663.835                                                                    39524929.706   167242928.379                                  
C09  37471451.250   195123694.760    37471454.895   150881986.547                                    37471452.357   158553946.074                                  
C10                                  37216168.115   149854084.781                                                                                                  
C12  21529149.235   112107928.725                                                                    21529146.161    91096891.834                                  
C19  22171715.780   115453957.066                                    22171714.762    87006557.138    22171710.223    93815751.691    22171710.759   116513140.280  
C20  22715951.076   118287859.706                                    22715950.218    89142255.164    22715944.214    96118573.576    22715944.858   119373041.715  
C36  23326924.885   121469463.760                                    23326933.248    91539924.529    23326929.281    98703911.714    23326920.990   122583715.861  
> 2026 06 07 16 03 48.0000000  0 11                     
C01  38585837.982   200926568.028                                                                    38585834.426   163269284.190                                  
C02  36916622.321   192234516.522                                                                    36916604.792   156206222.261                                  
C03  36966146.765   192492398.325                                                                    36966133.364   156415781.447                                  
C06  39167987.735   203957867.404                                                                    39167991.041   165732523.945                                  
C08  39519728.034   205789562.002                                                                    39519725.389   167220905.938                                  
C09  37476046.090   195147620.309    37476049.521   150900487.273                                    37476046.984   158573387.536                                  
C10                                  37216959.409   149857273.604                                                                                                  
C12  21531919.380   112122354.017                                                                    21531916.074    91108613.565                                  
C19  22169422.220   115442014.462                                    22169421.201    86997557.152    22169416.895    93806047.370    22169417.288   116501088.095  
C20  22721810.740   118318371.369                                    22721808.792    89165248.827    22721804.325    96143366.773    22721804.664   119403833.313  
C36  23322320.789   121445487.197                                    23322329.294    91521855.785    23322324.630    98684428.861    23322316.768   122559519.356  
> 2026 06 07 16 04 03.0000000  0 11                     
C01  38585826.903   200926510.198                                                                    38585823.383   163269237.192                                  
C02  36916820.489   192235548.312                                                                    36916802.834   156207060.671                                  
C03  36966303.530   192493214.560                                                                    36966290.182   156416444.709                                  
C06  39172922.355   203983564.042                                                                    39172926.107   165753404.597                                  
C08  39514523.931   205762465.275                                                                    39514522.233   167198887.623                                  
C09  37480648.275   195171584.738    37480651.634   150919018.067                                    37480648.882   158592860.588                                  
C10                                  37217749.756   149860457.672                                    37217747.272   157480467.891                                  
C12  21534713.363   112136904.245                                                                    21534710.771    91120436.850                                  
C19  22167152.157   115430194.739                                    22167151.299    86988649.788    22167146.760    93796442.905    22167147.475   116489159.970  
C20  22727690.595   118348988.785                                    22727688.648    89188322.198    22727685.485    96168245.885    22727684.734   119434731.609  
C36  23317730.147   121421582.019                                    23317738.403    91503840.803    23317732.971    98665003.999    23317725.805   122535394.868  
> 2026 06 07 16 04 18.0000000  0 11                     
C01  38585815.056   200926448.216                                                                    38585811.464   163269186.833                                  
C02  36917017.959   192236576.425                                                                    36917000.287   156207896.098                                  
C03  36966459.580   192494026.825                                                                    36966446.179   156417104.741                                  
C06  39177857.940   204009266.216                                                                    39177861.907   165774289.733                                  
C08  39509318.452   205735360.930                                                                    39509317.862   167176863.134                                  
C09  37485255.606   195195575.235    37485258.822   150937569.043                                    37485255.785   158612354.841                                  
C10                                  37218536.637   149863627.199                                    37218534.117   157483803.394                                  
C12  21537529.235   112151566.625                                                                    21537526.590    91132351.249                                  
C19  22164903.465   115418485.306                                    22164902.447    86979825.514    22164897.998    93786928.041    22164898.855   116477343.111  
C20  22733587.980   118379698.962                                    22733586.712    89211465.497    22733583.263    96193200.410    22733582.244   119465723.533  
C36  23313150.352   121397735.405                                    23313158.358    91485869.935    23313153.283    98645626.704    23313146.493   122511329.424  
> 2026 06 07 16 04 33.0000000  0 11                     
C01  38585800.761   200926373.756                                                                    38585797.223   163269126.317                                  
C02  36917213.143   192237592.549                                                                    36917195.417   156208721.770                                  
C03  36966613.254   192494826.890                                                                    36966599.817   156417754.855                                  
C06  39182792.846   204034965.529                                                                    39182796.795   165795172.542                                  
C08  39504110.168   205708240.801                                                                    39504110.311   167154825.839                                  
C09  37489866.403   195219583.373    37489869.441   150956133.643                                    37489866.225   158631863.385                                  
C10                                  37219318.549   149866775.696                                                                                                  
C12  21540365.263   112166332.804                                                                    21540361.528    91144349.967                                  
C19  22162674.430   115406878.019                                    22162673.251    86971078.212    22162668.944    93777496.172    22162669.766   116465629.341  
C20  22739501.984   118410493.534                                    22739500.250    89234672.361    22739496.212    96218223.486    22739496.248   119496800.630  
C36  23308580.564   121373938.969                                    23308588.659    91467936.914    23308584.746    98626290.222    23308576.222   122487314.684  
> 2026 06 07 16 04 48.0000000  0 11                     
C01  38585787.841   200926306.197                                                                    38585784.232   163269071.427                                  
C02  36917409.774   192238616.070                                                                    36917391.887   156209553.460                                  
C03  36966768.268   192495634.079                                                                    36966754.866   156418410.759                                  
C06  39187731.057   204060681.239                                                                    39187734.953   165816068.660                                  
C08  39498902.634   205681124.325                                                                    39498903.170   167132791.507                                  
C09  37494484.224   195243628.513    37494487.154   150974726.843                                    37494484.063   158651402.024                                  
C10                                  37220098.890   149869918.205                                    37220097.728   157490419.352                                  
C12  21543224.968   112181222.150                                                                    21543221.287    91156448.750                                  
C19  22160468.785   115395392.386                                    22160467.713    86962422.579    22160463.299    93768163.170    22160463.853   116454038.332  
C20  22745435.697   118441391.675                                    22745433.892    89257957.270    22745429.782    96243330.726    22745430.121   119527982.241  
C36  23304024.213   121350212.111                                    23304031.808    91450056.342    23304029.217    98607010.265    23304018.781   122463370.175  
> 2026 06 07 16 05 03.0000000  0 11                     
C01  38585777.763   200926253.593                                                                    38585774.118   163269028.672                                  
C02  36917609.388   192239655.014                                                                    36917591.269   156210397.683                                  
C03  36966926.194   192496456.420                                                                    36966912.739   156419078.986                                  
C06  39192674.630   204086421.362                                                                    39192677.650   165836984.617                                  
C08  39493697.406   205654019.590                                                                    39493697.620   167110766.722                                  
C09  37499110.514   195267718.523    37499113.551   150993354.771                                    37499110.674   158670977.132                                  
C10                                  37220879.123   149873060.782                                                                                                  
C12  21546109.546   112196242.567                                                                    21546106.384    91168654.074                                  
C19  22158288.139   115384036.624                                    22158287.120    86953864.817    22158282.796    93758935.682    22158283.296   116442578.380  
C20  22751390.852   118472401.286                                    22751389.226    89281326.197    22751385.259    96268528.528    22751385.152   119559276.346  
C36  23299482.533   121326562.856                                    23299490.467    91432234.234    23299487.715    98587793.346    23299477.280   122439503.983  
> 2026 06 07 16 05 18.0000000  0 11                     
C01  38585767.685   200926201.049                                                                    38585764.058   163268985.960                                  
C02  36917809.093   192240694.516                                                                    36917790.902   156211242.356                                  
C03  36967084.210   192497279.069                                                                    36967070.737   156419747.460                                  
C06  39197620.043   204112170.910                                                                    39197622.276   165857908.248                                  
C08  39488491.480   205626911.863                                                                    39488491.373   167088739.462                                  
C09  37503742.522   195291838.517    37503745.756   151012005.872                                    37503743.344   158690576.587                                  
C10                                  37221656.532   149876191.932                                                                                                  
C12  21549016.533   112211379.211                                                                    21549013.745    91180953.822                                  
C19  22156129.489   115372796.005                                    22156128.721    86945393.837    22156124.182    93749801.756    22156124.843   116431234.633  
C20  22757364.306   118503507.324                                    22757363.037    89304767.781    22757358.391    96293804.687    22757359.195   119590667.775  
C36  23294952.539   121302976.315                                    23294961.331    91414459.360    23294958.686    98568627.368    23294948.144   122415700.988  
> 2026 06 07 16 05 33.0000000  0 11                     
C01  38585756.785   200926144.458                                                                    38585753.229   163268940.003                                  
C02  36918008.064   192241730.427                                                                    36917989.838   156212084.124                                  
C03  36967241.475   192498097.915                                                                    36967228.109   156420412.835                                  
C06  39202566.439   204137925.683                                                                    39202567.868   165878836.098                                  
C08  39483284.072   205599797.090                                                                    39483283.893   167066706.502                                  
C09  37508379.640   195315984.347    37508382.839   151030676.928                                    37508380.677   158710197.019                                  
C10                                  37222430.475   149879308.563                                                                                                  
C12  21551944.729   112226627.844                                                                    21551941.710    91193344.612                                  
C19  22153992.140   115361666.570                                    22153991.622    86937006.650    22153986.958    93740758.169    22153987.726   116420003.094  
C20  22763354.896   118534705.475                                    22763354.520    89328278.827    22763349.338    96319155.742    22763350.965   119622152.182  
C36  23290433.821   121279448.325                                    23290443.327    91396728.623    23290440.361    98549508.963    23290429.300   122391957.139  
> 2026 06 07 16 05 48.0000000  0 11                     
C01  38585746.475   200926091.072                                                                    38585742.937   163268896.615                                  
C02  36918207.786   192242770.054                                                                    36918189.488   156212928.896                                  
C03  36967399.384   192498920.224                                                                    36967386.018   156421081.029                                  
C06  39207515.336   204163692.869                                                                    39207515.604   165899774.088                                  
C08  39478076.806   205572682.614                                                                    39478076.538   167044673.798                                  
C09  37513022.924   195340163.251    37513026.140   151049373.570                                    37513023.889   158729844.339                                  
C10                                  37223202.113   149882416.181                                                                                                  
C12  21554895.977   112241995.740                                                                    21554892.403    91205832.270                                  
C19  22151877.609   115350655.735                                    22151877.430    86928708.856    22151872.463    93731810.968    22151873.499   116408891.259  
C20  22769365.481   118566002.966                                    22769364.087    89351864.715    22769360.263    96344587.477    22769361.139   119653736.807  
C36  23285928.022   121255986.063                                    23285937.832    91379047.433    23285933.472    98530444.017    23285923.751   122368279.662  
> 2026 06 07 16 06 03.0000000  0 11                     
C01  38585735.235   200926032.765                                                                    38585731.840   163268849.243                                  
C02  36918406.651   192243805.221                                                                    36918388.174   156213770.045                                  
C03  36967556.381   192499737.822                                                                    36967543.069   156421745.406                                  
C06  39212465.037   204189464.280                                                                    39212464.376   165920715.508                                  
C08  39472868.254   205545560.325                                                                    39472867.790   167022634.732                                  
C09  37517670.317   195364366.899    37517674.106   151068089.346                                    37517671.515   158749511.774                                  
C10                                  37223970.106   149885508.479                                                                                                  
C12  21557868.561   112257474.640                                                                    21557864.987    91218410.116                                  
C19  22149784.289   115339755.502                                    22149784.324    86920494.410    22149778.428    93722953.631    22149780.089   116397891.027  
C20  22775393.560   118597391.422                                    22775392.059    89375519.129    22775388.450    96370093.152    22775388.557   119685413.203  
C36  23281433.319   121232581.412                                    23281443.004    91361409.661    23281437.929    98511425.880    23281430.049   122344660.263  
> 2026 06 07 16 06 18.0000000  0 12                     
C01  38585722.959   200925968.736                                                                    38585719.421   163268797.219                                  
C02  36918604.496   192244835.151                                                                    36918585.859   156214606.935                                  
C03  36967712.270   192500549.972                                                                    36967699.119   156422405.327                                  
C06  39217415.346   204215239.009                                                                    39217414.096   165941659.544                                  
C07                                                                                                  37097918.284   156973433.783                                  
C08  39467658.094   205518429.603                                                                    39467657.522   167000588.806                                  
C09  37522322.285   195388594.443    37522326.609   151086823.649                                    37522323.804   158769198.658                                  
C10                                  37224734.382   149888584.798                                                                                                  
C12  21560862.390   112273063.809                                                                    21560858.852    91231077.599                                  
C19  22147712.197   115328965.236                                    22147712.268    86912362.829    22147706.103    93714185.649    22147707.640   116387001.770  
C20  22781438.776   118628869.907                                    22781437.382    89399241.405    22781433.397    96395671.955    22781432.361   119717180.456  
C36  23276949.499   121209233.564                                    23276959.452    91343814.684    23276954.306    98492453.894    23276946.104   122321098.212  
> 2026 06 07 16 06 33.0000000  0 12                     
C01  38585710.897   200925906.268                                                                    38585707.341   163268746.440                                  
C02  36918802.700   192245867.113                                                                    36918784.098   156215445.484                                  
C03  36967868.481   192501363.854                                                                    36967855.419   156423066.678                                  
C06  39222367.621   204241024.244                                                                    39222365.709   165962612.179                                  
C07                                                                                                  37098616.659   156976390.368                                  
C08  39462447.505   205491297.747                                                                    39462447.129   166978541.993                                  
C09  37526980.668   195412853.110    37526985.135   151105581.969                                    37526982.491   158788910.821                                  
C10                                  37225496.103   149891650.814                                                                                                  
C12  21563878.592   112288770.361                                                                    21563874.715    91243840.436                                  
C19  22145662.709   115318292.356                                    22145662.495    86904319.702    22145656.526    93705513.052    22145657.741   116376230.962  
C20  22787502.414   118660445.495                                    22787501.217    89423036.863    22787497.554    96421329.679    22787495.839   119749045.714  
C36  23272477.972   121185949.752                                    23272488.408    91326267.945    23272482.332    98473533.917    23272474.649   122297600.739  
> 2026 06 07 16 06 48.0000000  0 12                     
C01  38585698.210   200925840.183                                                                    38585694.637   163268692.745                                  
C02  36919000.313   192246895.967                                                                    36918981.783   156216281.505                                  
C03  36968024.138   192502174.395                                                                    36968011.112   156423725.309                                  
C06  39227321.111   204266814.826                                                                    39227318.502   165983569.154                                  
C07                                                                                                  37099313.193   156979331.310                                  
C08  39457235.754   205464159.704                                                                    39457235.486   166956490.143                                  
C09  37531644.483   195437137.757    37531648.718   151124360.387                                    37531646.020   158808644.067                                  
C10                                  37226254.303   149894702.577                                                                                                  
C12  21566916.022   112304589.083                                                                    21566913.038    91256694.451                                  
C19  22143634.772   115307731.861                                    22143634.218    86896361.267    22143628.714    93696931.798    22143629.697   116365573.594  
C20  22793583.779   118692112.916                                    22793584.279    89446901.514    22793579.133    96447062.031    22793577.918   119781003.688  
C36  23268018.007   121162724.761                                    23268028.550    91308765.584    23268022.528    98454661.792    23268014.201   122274162.710  
> 2026 06 07 16 07 03.0000000  0 12                     
C01  38585686.220   200925777.887                                                                    38585682.682   163268642.106                                  
C02  36919198.713   192247929.052                                                                    36919180.058   156217120.955                                  
C03  36968180.546   192502988.941                                                                    36968167.412   156424387.194                                  
C06  39232277.120   204292617.941                                                                    39232273.725   166004536.326                                  
C07                                                                                                  37100005.725   156982267.0551                                 
C08  39452024.432   205437022.943                                                                    39452024.164   166934439.313                                  
C09  37536314.641   195461455.669    37536318.662   151143164.503                                    37536315.785   158828404.334                                  
C10                                  37227010.002   149897745.520                                                                                                  
C12  21569976.771   112320527.379                                                                    21569974.574    91269645.605                                  
C19  22141629.867   115297291.301                                    22141628.902    86888493.201    22141623.381    93688447.980    22141624.828   116355037.240  
C20  22799684.335   118723879.339                                    22799684.549    89470840.805    22799679.403    96472874.830    22799678.867   119813061.569  
C36  23263570.657   121139565.968                                    23263580.539    91291313.059    23263576.626    98435843.404    23263566.655   122250791.451  
> 2026 06 07 16 07 18.0000000  0 11                     
C01  38585673.015   200925709.272                                                                    38585669.513   163268586.360                                  
C02  36919396.005   192248956.263                                                                    36919377.385   156217955.655                                  
C03  36968335.756   192503797.351                                                                    36968322.694   156425044.091                                  
C06  39237233.576   204318423.559                                                                    39237229.359   166025505.455                                  
C07                                                                                                  37100694.576   156985180.041                                  
C08  39446811.663   205409877.365                                                                    39446811.591   166912381.355                                  
C09  37540989.249   195485796.570    37540993.002   151161986.416                                    37540989.750   158848183.277                                  
C12  21573058.338   112336574.975                                                                    21573055.926    91282685.608                                  
C19  22139646.048   115286960.643                                    22139644.833    86880707.954    22139639.544    93680053.467    22139640.938   116344611.802  
C20  22805801.902   118755734.529                                    22805800.901    89494846.951    22805795.898    96498759.744    22805796.059   119845208.965  
C36  23259133.868   121116463.202                                    23259143.178    91273902.777    23259140.569    98417070.540    23259129.884   122227476.719  
> 2026 06 07 16 07 33.0000000  0 11                     
C01  38585658.577   200925634.162                                                                    38585655.092   163268525.329                                  
C02  36919592.135   192249977.481                                                                    36919573.498   156218785.455                                  
C03  36968489.787   192504599.526                                                                    36968476.654   156425695.920                                  
C06  39242189.550   204344231.233                                                                                                                                  
C07                                                                                                  37101379.084   156988074.330                                  
C08  39441597.267   205382722.936                                                                    39441596.856   166890316.202                                  
C09  37545668.378   195510160.271    37545671.720   151180825.955                                    37545668.485   158867980.787                                  
C12  21576160.865   112352731.723                                                                    21576158.471    91295814.292                                  
C19  22137683.172   115276739.945                                    22137682.189    86873005.587    22137677.078    93671748.303    22137678.043   116334297.325  
C20  22811936.320   118787678.171                                    22811935.266    89518919.770    22811930.119    96524716.529    22811931.370   119877445.688  
C36  23254708.176   121093416.326                                    23254718.201    91256534.623    23254714.216    98398343.113    23254703.816   122204218.418  
> 2026 06 07 16 07 48.0000000  0 10                     
C01  38585644.818   200925562.802                                                                    38585641.512   163268467.358                                  
C02  36919789.052   192251002.924                                                                    36919770.468   156219618.711                                  
C03  36968644.497   192505405.680                                                                    36968631.507   156426351.002                                  
C07                                                                                                  37102061.306   156990958.801                                  
C08  39436382.944   205355569.996                                                                    39436382.282   166868252.229                                  
C09  37550353.725   195534556.902    37550356.799   151199690.924                                    37550353.725   158887804.991                                  
C12  21579286.604   112369007.795                                                                    21579283.584    91309039.914                                  
C19  22135743.311   115266639.535                                    22135742.542    86865393.894    22135737.539    93663540.900    22135738.289   116324104.272  
C20  22818089.607   118819720.267                                    22818088.642    89543066.815    22818083.925    96550753.346    22818085.068   119909781.778  
C36  23250295.171   121070435.460                                    23250304.856    91239216.218    23250300.013    98379669.343    23250289.989   122181026.751  
> 2026 06 07 16 08 03.0000000  0 10                     
C01  38585631.219   200925492.268                                                                    38585627.967   163268410.034                                  
C02  36919986.290   192252029.652                                                                    36919967.510   156220452.998                                  
C03  36968799.422   192506212.901                                                                    36968786.467   156427006.926                                  
C08  39431168.155   205328415.696                                                                    39431167.583   166846187.196                                  
C09  37555044.380   195558983.571    37555047.596   151218579.151                                    37555045.094   158907653.622                                  
C10                                  37229999.061   149909764.3611                                                                                                 
