     3.04           OBSERVATION DATA    M: Mixed            RINEX VERSION / TYPE
CONVBIN EX 2.5.0                        20260702 082859 UTC PGM / RUN BY / DATE 
format: RTCM 3                                              COMMENT             
log: C:\Users\Admin\Desktop\540423494727\2026-06-08\0.rtcm3 COMMENT             
0000                                                        MARKER NAME         
                                                            MARKER NUMBER       
                                                            MARKER TYPE         
                                                            OBSERVER / AGENCY   
                    NONE                                    REC # / TYPE / VERS 
NONE                NONE                                    ANT # / TYPE        
  -492860.3329  5551481.2314  3092889.6323                  APPROX POSITION XYZ 
        0.0000        0.0000        0.0000                  ANTENNA: DELTA H/E/N
C   10 C2I L2I C7I L7I C5P L5P C6I L6I C1P L1P              SYS / # / OBS TYPES 
  2026    06    07    16    00   18.0000000     GPS         TIME OF FIRST OBS   
  2026    06    07    17    00   03.0000000     GPS         TIME OF LAST OBS    
C L2I                                                       SYS / PHASE SHIFT   
C L7I                                                       SYS / PHASE SHIFT   
C L5P  0.00000                                              SYS / PHASE SHIFT   
C L6I                                                       SYS / PHASE SHIFT   
C L1P  0.00000                                              SYS / PHASE SHIFT   
  0                                                         GLONASS SLOT / FRQ #
 C1C    0.000 C1P    0.000 C2C    0.000 C2P    0.000        GLONASS COD/PHS/BIS 
                                                            END OF HEADER       
> 2026 06 07 16 00 18.0000000  0 12                     
C01  38586179.798   200928460.432                                                                    38586176.922   163270739.287                                  
C02  36913760.615   192219615.896                                                                    36913753.235   156194176.152                                  
C03  36964011.453   192481272.894                                                                    36964000.213   156406755.585                                  
C06  39099304.750   203600382.451                                                                    39099302.784   165441957.132                                  
C07  37079991.419   193085224.910                                                                    37079989.524   156897568.524                                  
C08  39592758.891   206169850.360                                                                    39592759.963   167529894.677                                  
C09  37412247.889   194815503.861    37412246.584   150643540.557                                    37412243.546   158303437.851                                  
C10  37205312.219   193737833.445    37205308.717   149810644.782                                    37205306.144   157428113.152                                  
C12  21495007.697   111930111.448                                                                    21495003.569    90952399.088                                  
C19  22203169.371   115617771.580                                    22203162.259    87129993.633    22203163.653    93948878.398    22203162.580   116678416.461  
C20  22641479.546   117900223.982                                    22641477.849    88850053.560    22641472.649    95803466.095    22641472.345   118981871.327  
C36  23387611.482   121785184.022                                    23387623.133    91778189.982    23387613.055    98960645.457    23387603.942   122902916.186  
> 2026 06 07 16 00 33.0000000  0 12                     
C01  38586167.522   200928396.373                                                                    38586164.503   163270687.225                                  
C02  36913956.067   192220634.587                                                                    36913948.758   156195003.917                                  
C03  36964166.467   192482079.484                                                                    36964155.102   156407410.973                                  
C06  39104210.815   203625929.871                                                                    39104208.957   165462716.492                                  
C07                                                                                                  37080760.072   156900833.454                                  
C08  39587564.974   206142801.858                                                                    39587565.367   167507915.592                                  
C09  37416765.428   194839033.139    37416765.499   150661734.925                                    37416762.372   158322557.336                                  
C10  37206140.449   193742147.795    37206137.232   149813980.833                                    37206133.837   157431618.899                                  
C12  21497488.060   111943026.237                                                                    21497483.557    90962893.374                                  
C19  22200594.462   115604362.734                                    22200589.298    87119888.686    22200600.377    93938002.5881   22200587.565   116664884.616  
C20  22647095.637   117929465.290                                    22647095.351    88872089.903    22647086.595    95827227.024    22647088.525   119011380.898  
C36  23382849.566   121760388.851                                    23382866.113    91759504.292    23382854.802    98940497.402    23382843.277   122877893.540  
> 2026 06 07 16 00 48.0000000  0 12                     
C01  38586158.302   200928348.125                                                                    38586155.193   163270647.967                                  
C02  36914154.734   192221669.539                                                                    36914147.551   156195844.928                                  
C03  36964324.536   192482902.113                                                                    36964313.153   156408079.440                                  
C06  39109121.670   203651503.859                                                                    39109120.329   165483497.461                                  
C07                                                                                                  37081531.532   156904098.394                                  
C08  39582372.986   206115764.639                                                                    39582372.647   167485945.663                                  
C09  37421291.901   194862609.450    37421293.331   150679965.616                                    37421289.936   158341715.029                                  
C10  37206968.892   193746463.661    37206966.158   149817318.132                                    37206961.870   157435125.870                                  
C12  21499994.208   111956073.740                                                                    21499990.509    90973495.499                                  
C19  22198044.052   115591081.850                                    22198041.658    87109880.196    22198032.366    93927131.203    22198037.173   116651481.887  
C20  22652733.904   117958821.506                                    22652732.724    88894212.808    22652726.470    95851081.303    22652727.864   119041006.399  
C36  23378103.536   121735672.490                                    23378140.132    91740877.906    23378110.416    98920413.329    23378097.407   122852950.500  
> 2026 06 07 16 01 03.0000000  0 12                     
C01  38586150.261   200928306.064                                                                    38586147.152   163270613.846                                  
C02  36914354.599   192222711.297                                                                    36914347.523   156196691.379                                  
C03  36964483.838   192483731.243                                                                    36964472.259   156408753.139                                  
C06  39114035.776   203677094.797                                                                    39114035.025   165504292.235                                  
C07  37082312.444   193097329.2271                                                                   37082302.491   156907355.714                                  
C08  39577181.338   206088729.248                                                                    39577180.105   167463977.151                                  
C09  37425826.398   194886223.077    37425828.185   150698225.165                                    37425824.486   158360903.004                                  
C10  37207795.763   193750771.452    37207793.512   149820649.171                                    37207788.687   157438626.300                                  
C12  21502524.247   111969244.265                                                                    21502519.673    90984197.632                                  
C19  22195516.193   115577919.531                                    22195514.228    87099961.015    22195509.206    93916435.807    22195509.868   116638198.813  
C20  22658391.790   117988282.827                                    22658389.807    88916414.928    22658385.286    95875021.013    22658384.160   119070737.884  
C36  23373371.229   121711025.343                                    23373409.201    91722303.625    23373376.072    98900385.527    23373364.082   122828077.302  
> 2026 06 07 16 01 18.0000000  0 12                     
C01  38586139.361   200928248.920                                                                    38586136.484   163270567.419                                  
C02  36914551.534   192223738.404                                                                    36914544.779   156197525.989                                  
C03  36964640.246   192484545.498                                                                    36964628.667   156409414.792                                  
C06  39118949.185   203702681.291                                                                    39118948.435   165525083.362                                  
C07  37083076.130   193101306.946                                                                    37083068.018   156910587.994                                  
C08  39571985.384   206061674.399                                                                    39571983.918   167441992.848                                  
C09  37430363.861   194909852.635    37430365.934   150716497.079                                    37430362.182   158380103.975                                  
C10  37208617.042   193755049.854    37208615.308   149823957.512                                    37208610.412   157442102.822                                  
C12  21505071.923   111982516.465                                                                    21505068.153    90994982.408                                  
C19  22193006.721   115564854.637                                    22193004.613    87090115.203    22193003.219    93905819.541    22193000.664   116625014.022  
C20  22664064.973   118017827.793                                    22664064.615    88938680.119    22664057.271    95899028.707    22664058.879   119100553.935  
C36  23368647.303   121686426.179                                    23368678.556    91703765.474    23368647.839    98880396.814    23368640.262   122803252.458  
> 2026 06 07 16 01 33.0000000  0 12                     
C01  38586129.068   200928194.882                                                                    38586125.959   163270523.521                                  
C02  36914749.362   192224769.119                                                                    36914742.554   156198363.522                                  
C03  36964797.315   192485363.134                                                                    36964785.718   156410079.203                                  
C06  39123865.365   203728281.449                                                                    39123864.418   165545885.616                                  
C07  37083837.279   193105272.093                                                                                                                                  
C08  39566788.840   206034618.273                                                                    39566787.785   167420007.575                                  
C09  37434907.668   194933516.237    37434910.152   150734795.268                                    37434906.542   158399332.595                                  
C10  37209436.265   193759316.986    37209434.943   149827257.118                                    37209430.100   157445570.228                                  
C12  21507644.384   111995908.545                                                                    21507639.112    91005864.598                                  
C19  22190519.353   115551905.525                                    22190518.102    87080356.650    22190520.926    93895297.341    22190513.581   116611946.066  
C20  22669757.168   118047474.435                                    22669757.900    88961021.981    22669749.270    95923119.055    22669753.469   119130472.702  
C36  23363935.277   121661893.109                                    23363960.276    91685277.245    23363936.474    98860461.716    23363929.184   122778494.279  
> 2026 06 07 16 01 48.0000000  0 12                     
C01  38586115.702   200928125.177                                                                    38586112.432   163270466.797                                  
C02  36914944.402   192225784.638                                                                    36914937.469   156199188.727                                  
C03  36964951.417   192486165.345                                                                    36964939.820   156410731.043                                  
C06  39128781.043   203753876.379                                                                    39128779.310   165566683.635                                  
C07  37084592.477   193109205.840                                                                                                                                  
C08  39561588.722   206007542.346                                                                    39561588.686   167398006.168                                  
C09  37439454.620   194957195.036    37439457.193   150753105.229                                    37439453.976   158418573.561                                  
C10  37210249.895   193763554.057    37210248.769   149830533.479                                                                                                  
C12  21510236.035   112009401.829                                                                    21510229.567    91016828.916                                  
C19  22188050.730   115539053.561                                    22188050.998    87070671.330    22188063.202    93884854.063    22188045.494   116598976.183  
C20  22675465.552   118077203.911                                    22675467.071    88983426.241    22675459.370    95947276.680    22675462.086   119160474.958  
C36  23359232.937   121637407.294                                    23359249.680    91666824.732    23359237.046    98840565.037    23359227.469   122753783.817  
> 2026 06 07 16 02 03.0000000  0 12                     
C01  38586103.587   200928061.959                                                                    38586100.246   163270415.474                                  
C02  36915140.765   192226807.202                                                                    36915133.885   156200019.630                                  
C03  36965106.824   192486974.304                                                                    36965095.102   156411388.401                                  
C06  39133700.421   203779488.293                                                                    39133697.562   165587495.411                                  
C07  37085345.978   193113130.349                                                                                                                                  
C08  39556389.318   205980468.712                                                                    39556390.748   167376006.647                                  
C09  37444009.362   194980911.179    37444011.328   150771444.057                                    37444008.719   158437844.872                                  
C10  37211062.024   193767783.254    37211061.006   149833803.784                                    37211057.664   157452160.6541                                 
C12  21512850.577   112023018.305                                                                    21512845.735    91027893.363                                  
C19  22185605.622   115526321.153                                    22185606.033    87061076.109    22185597.224    93874498.4701   22185600.976   116586126.967  
C20  22681195.558   118107038.276                                    22681196.505    89005909.521    22681189.465    95971519.545    22681190.305   119190583.026  
C36  23354544.230   121612990.957                                    23354557.364    91648424.518    23354549.037    98820724.829    23354539.495   122729143.497  
> 2026 06 07 16 02 18.0000000  0 12                     
C01  38586090.954   200927996.159                                                                    38586087.487   163270361.928                                  
C02  36915336.788   192227827.623                                                                    36915329.694   156200848.810                                  
C03  36965261.730   192487780.900                                                                    36965250.008   156412043.840                                  
C06  39138621.157   203805107.898                                                                    39138617.422   165608313.455                                  
C07  37086095.727   193117036.498                                                                                                                                  
C08  39551189.397   205953388.487                                                                    39551191.970   167354001.731                                  
C09  37448568.018   195004655.574    37448570.859   150789804.604                                    37448569.054   158457139.015                                  
C10  37211870.812   193771995.365    37211869.936   149837060.900                                    37211867.739   157455588.5181                                 
C12  21515487.545   112036748.732                                                                    21515483.560    91039050.508                                  
C19  22183182.011   115513699.267                                    22183182.332    87051564.172    22183175.167    93864242.156    22183176.954   116573389.289  
C20  22686944.363   118136968.237                                    22686944.791    89028464.813    22686936.732    95995840.033    22686937.554   119220787.503  
C36  23349867.496   121588634.880                                    23349878.860    91630069.773    23349873.410    98800933.605    23349862.385   122704564.035  
> 2026 06 07 16 02 33.0000000  0 12                     
C01  38586078.946   200927933.322                                                                    38586075.408   163270310.835                                  
C02  36915533.562   192228851.540                                                                    36915526.253   156201680.800                                  
C03  36965417.298   192488590.714                                                                    36965405.523   156412701.876                                  
C06  39143543.966   203830740.742                                                                    39143540.088   165629142.198                                  
C07  37086842.688   193120929.897                                                                                                                                  
C08  39545989.261   205926307.279                                                                    39545992.370   167331996.045                                  
C09  37453131.695   195028433.274    37453136.788   150808191.201                                    37453135.823   158476460.538                                  
C10  37212677.134   193776196.042    37212676.562   149840309.095                                                                                                  
C12  21518147.027   112050598.728                                                                    21518142.846    91050304.835                                  
C19  22180780.718   115501193.723                                    22180781.111    87042139.927    22180775.035    93854080.356    22180774.910   116560769.025  
C20  22692711.893   118166999.187                                    22692711.643    89051096.243    22692703.817    96020242.603    22692705.085   119251094.006  
C36  23345202.609   121564344.778                                    23345214.634    91611764.676    23345208.202    98781195.933    23345197.105   122680051.059  
> 2026 06 07 16 02 48.0000000  0 12                     
C01  38586071.959   200927896.815                                                                    38586068.617   163270281.220                                  
C02  36915735.392   192229902.278                                                                    36915727.977   156202534.611                                  
C03  36965577.994   192489427.132                                                                    36965566.129   156413381.508                                  
C06  39148473.529   203856410.015                                                                    39148469.991   165650000.590                                  
C07  37087591.489   193124833.766                                                                                                                                  
C08  39540793.092   205899248.484                                                                    39540796.005   167310008.577                                  
C09                                  37457713.527   150826621.803                                    37457713.187   158495828.303                                  
C10  37213485.689   193780408.464    37213485.403   149843566.454                                                                                                  
C12  21520834.832   112064591.652                                                                    21520828.935    91061675.217                                  
C19  22178406.050   115488827.968                                    22178406.639    87032821.033    22178400.957    93844032.163    22178400.492   116548289.863  
C20  22698503.011   118197154.378                                    22698502.011    89073821.260    22698495.471    96044746.130    22698496.579   119281525.855  
C36  23340554.340   121540143.869                                    23340566.062    91593526.798    23340557.574    98761530.759    23340548.353   122655628.129  
> 2026 06 07 16 03 03.0000000  0 12                     
C01  38586059.397   200927831.260                                                                    38586055.805   163270227.927                                  
C02  36915931.737   192230924.415                                                                    36915924.179   156203365.202                                  
C03  36965733.080   192490234.698                                                                    36965721.179   156414037.734                                  
C06  39153399.375   203882060.341                                                                    39153396.051   165670843.545                                  
C07  37088331.571   193128692.868                                                                    37088317.079   156932809.4921                                 
C08  39535590.866   205872156.790                                                                    39535593.439   167287994.401                                  
C09  37462264.142   195075836.6101   37462290.677   150845053.513                                    37462290.159   158515197.281                                  
C10  37214286.096   193784577.287    37214285.846   149846790.088                                                                                                  
C12  21523539.255   112078672.102                                                                    21523532.483    91073116.671                                  
C19  22176047.839   115476546.846                                    22176047.964    87023565.893    22176042.389    93834052.707    22176042.228   116535896.053  
C20  22704307.299   118227378.260                                    22704305.727    89096598.047    22704299.365    96069305.439    22704301.259   119312026.947  
C36  23335913.040   121515976.756                                    23335923.904    91575314.369    23335919.204    98741893.034    23335907.947   122631239.300  
> 2026 06 07 16 03 18.0000000  0 12                     
C01  38586042.582   200927743.811                                                                    38586039.044   163270156.851                                  
C02  36916124.062   192231925.232                                                                    36916116.253   156204178.448                                  
C03  36965884.001   192491020.669                                                                    36965872.172   156414676.387                                  
C06  39158322.898   203907698.803                                                                    39158319.521   165691676.875                                  
C07  37089064.415   193132514.189                                                                    37089053.747   156935914.585                                  
C08  39530384.297   205845039.473                                                                    39530385.423   167265959.412                                  
C09  37466865.022   195099681.567    37466869.793   150863491.915                                    37466868.774   158534573.205                                  
C10  37215080.035   193788709.762    37215079.249   149849985.562                                                                                                  
C12  21526261.636   112092847.190                                                                    21526255.686    91084635.086                                  
C19  22173707.194   115464357.677                                    22173706.211    87014380.018    22173700.886    93824147.978    22173702.065   116523595.045  
C20  22710126.043   118257677.845                                    22710123.630    89119431.889    22710117.322    96093926.298    22710121.164   119342604.592  
C36  23331279.816   121491850.612                                    23331290.949    91557132.804    23331288.108    98722288.589    23331276.850   122606891.770  
> 2026 06 07 16 03 33.0000000  0 12                     
C01  38586031.897   200927688.223                                                                    38586028.323   163270111.663                                  
C02  36916322.729   192232958.363                                                                    36916314.635   156205017.959                                  
C03  36966041.106   192491838.724                                                                    36966029.241   156415341.122                                  
C06  39163254.391   203933379.015                                                                    39163250.925   165712544.134                                  
C07  37089800.386   193136351.639                                                                    37089793.936   156939032.840                                  
C08  39525183.160   205817950.373                                                                    39525182.481   167243947.316                                  
C09  37471456.503   195123588.786    37471460.988   150881978.475                                    37471459.880   158553999.774                                  
C10  37215877.780   193792859.463    37215876.011   149853194.401                                                                                                  
C12  21529012.233   112107170.553                                                                    21529006.747    91096273.977                                  
C19  22171394.263   115452314.324                                    22171392.637    87005304.046    22171386.955    93814361.744    22171389.957   116511441.161  
C20  22715969.570   118288106.718                                    22715967.462    89142363.178    22715961.637    96118652.203    22715966.193   119373312.699  
C36  23326664.677   121467819.121                                    23326676.327    91539022.569    23326672.164    98702761.100    23326660.781   122582639.804  
> 2026 06 07 16 03 48.0000000  0 12                     
C01  38586020.889   200927630.661                                                                    38586017.190   163270064.872                                  
C02  36916521.076   192233990.099                                                                    36916512.802   156205856.291                                  
C03  36966197.889   192492655.049                                                                    36966186.006   156416004.460                                  
C06  39168187.439   203959067.133                                                                    39168183.829   165733417.831                                  
C07  37090532.927   193140171.200                                                                    37090530.890   156942136.471                                  
C08  39519980.576   205790855.743                                                                    39519977.896   167221930.780                                  
C09  37476053.220   195147524.434    37476057.812   150900486.991                                    37476057.133   158573449.434                                  
C10  37216672.844   193796992.564    37216669.681   149856390.456                                                                                                  
C12  21531785.058   112121608.386                                                                    21531779.483    91108005.923                                  
C19  22169102.775   115440383.149                                    22169101.560    86996312.606    22169095.610    93804666.671    22169098.773   116499400.488  
C20  22721831.092   118318630.934                                    22721830.128    89165366.320    22721825.392    96143455.612    22721826.983   119404116.928  
C36  23322060.669   121443848.432                                    23322073.267    91520958.164    23322070.050    98683283.039    23322056.988   122558449.250  
> 2026 06 07 16 04 03.0000000  0 12                     
C01  38586009.507   200927571.226                                                                    38586006.004   163270016.536                                  
C02  36916719.172   192235020.383                                                                    36916710.577   156206693.477                                  
C03  36966354.332   192493469.792                                                                    36966342.431   156416666.508                                  
C06  39173122.202   203984763.148                                                                    39173118.467   165754297.937                                  
C07  37091262.001   193143973.103                                                                    37091263.020   156945225.800                                  
C08  39514776.366   205763755.800                                                                    39514772.668   167199909.878                                  
C09  37480655.244   195171488.450    37480660.176   150919017.502                                    37480660.068   158592922.153                                  
C10  37217464.835   193801109.198    37217460.296   149859573.678                                                                                                  
C12  21534579.809   112136160.730                                                                    21534574.252    91119830.890                                  
C19  22166832.641   115428564.395                                    22166832.426    86987405.935    22166825.583    93795062.977    22166829.442   116487473.317  
C20  22727711.252   118349250.415                                    22727710.698    89188441.268    22727706.249    96168336.437    22727704.801   119435017.289  
C36  23317468.884   121419938.646                                    23317481.446    91502939.655    23317480.106    98663854.382    23317465.775   122534319.915  
> 2026 06 07 16 04 18.0000000  0 12                     
C01  38585998.624   200927514.057                                                                    38585994.783   163269970.129                                  
C02  36916917.839   192236053.419                                                                    36916908.941   156207532.912                                  
C03  36966511.311   192494286.978                                                                    36966499.410   156417330.545                                  
C06  39178059.288   204010471.095                                                                    39178055.768   165775187.754                                  
C07  37091988.252   193147761.325                                                                    37091991.003   156948304.090                                  
C08  39509571.442   205736654.667                                                                    39509567.761   167177888.009                                  
C09  37485263.808   195195485.033    37485268.811   150937573.180                                    37485268.650   158612421.368                                  
C10  37218254.306   193805213.451    37218248.802   149862747.398                                                                                                  
C12  21537396.915   112150831.633                                                                    21537391.536    91131752.236                                  
C19  22164585.147   115416862.310                                    22164584.807    86978587.212    22164578.267    93785554.123    22164582.163   116475663.914  
C20  22733611.049   118379969.129                                    22733609.245    89211590.997    22733605.546    96193297.918    22733604.438   119466017.903  
C36  23312888.678   121396093.944                                    23312899.042    91484970.160    23312901.026    98644478.564    23312889.697   122510255.994  
> 2026 06 07 16 04 33.0000000  0 12                     
C01  38585990.601   200927472.031                                                                    38585986.706   163269935.899                                  
C02  36917119.581   192237102.063                                                                    36917110.235   156208385.028                                  
C03  36966671.257   192495119.554                                                                    36966659.267   156418007.086                                  
C06  39183001.073   204036203.766                                                                    39182997.982   165796097.655                                  
C07  37092714.485   193151548.880                                                                    37092718.362   156951381.782                                  
C08  39504368.911   205709565.332                                                                    39504365.463   167155875.767                                  
C09  37489881.074   195219526.767    37489886.059   150956163.779                                    37489884.666   158631957.233                                  
C10  37219043.491   193809318.041    37219037.470   149865921.236                                    37219035.951   157485916.713                                  
C12  21540239.733   112165633.944                                                                    21540234.730    91143780.291                                  
C19  22162363.116   115405290.039                                    22162362.437    86969866.269    22162355.897    93776150.674    22162360.150   116463985.469  
C20  22739532.468   118410799.819                                    22739530.681    89234825.093    22739524.963    96218350.343    22739523.677   119497131.290  
C36  23308324.126   121372326.843                                    23308333.721    91467059.319    23308329.290    98625166.175    23308331.917   122486270.728  
> 2026 06 07 16 04 48.0000000  0 12                     
C01  38585980.827   200927420.906                                                                    38585976.699   163269894.429                                  
C02  36917319.624   192238142.152                                                                    36917309.993   156209230.186                                  
C03  36966829.416   192495943.276                                                                    36966817.479   156418676.411                                  
C06  39187942.948   204061936.940                                                                    39187940.179   165817007.940                                  
C07  37093436.393   193155311.403                                                                    37093440.646   156954439.161                                  
C08  39499163.844   205682463.665                                                                    39499160.806   167133853.447                                  
C09  37494503.022   195243589.563    37494507.418   150974770.682                                    37494502.611   158651510.271                                  
C10  37219827.906   193813398.970    37219821.830   149869076.916                                    37219819.793   157489232.705                                  
C12  21543103.030   112180543.441                                                                    21543098.527    91155895.467                                  
C19  22160161.259   115393823.422                                    22160160.312    86961224.987    22160154.058    93766833.130    22160158.061   116452413.671  
C20  22745470.452   118441718.131                                    22745469.862    89258125.190    22745460.660    96243473.941    22745462.178   119528333.224  
C36  23303770.581   121348613.448                                    23303781.516    91449188.849    23303769.830    98605897.295    23303777.067   122462339.573  
> 2026 06 07 16 05 03.0000000  0 12                     
C01  38585968.247   200927355.252                                                                    38585964.262   163269841.068                                  
C02  36917516.898   192239168.168                                                                    36917506.910   156210063.925                                  
C03  36966984.822   192496752.681                                                                    36966972.886   156419334.123                                  
C06  39192883.519   204087665.022                                                                    39192881.196   165837914.122                                  
C07  37094152.923   193159043.525                                                                    37094156.872   156957471.816                                  
C08  39493954.952   205655344.292                                                                    39493952.826   167111816.761                                  
C09  37499128.097   195267667.799    37499131.581   150993389.497                                    37499123.165   158671075.732                                  
C10  37220606.513   193817450.476    37220600.544   149872209.791                                    37220598.204   157492524.909                                  
C12  21545985.392   112195554.557                                                                    21545980.139    91168093.220                                  
C19  22157978.504   115382457.219                                    22157977.111    86952659.358    22157971.214    93757597.145    22157974.984   116440943.174  
C20  22751423.588   118472718.396                                    22751422.731    89281487.105    22751413.492    96268664.148    22751416.816   119559617.866  
C36  23299225.880   121324948.228                                    23299238.657    91431354.671    23299224.362    98586667.437    23299230.544   122438457.110  
> 2026 06 07 16 05 18.0000000  0 12                     
C01  38585955.864   200927290.545                                                                    38585951.700   163269788.486                                  
C02  36917714.494   192240195.589                                                                    36917704.237   156210898.765                                  
C03  36967140.444   192497563.254                                                                    36967128.525   156419992.776                                  
C06  39197825.751   204113403.372                                                                    39197824.143   165858828.654                                  
C07  37094867.058   193162760.698                                                                    37094870.364   156960492.345                                  
C08  39488745.614   205628222.817                                                                    39488744.488   167089778.332                                  
C09  37503758.086   195291776.814    37503761.570   151012032.119                                    37503752.296   158690666.229                                  
C10  37221382.332   193821488.156    37221376.632   149875331.958                                    37221373.666   157495805.845                                  
C12  21548890.216   112210682.695                                                                    21548884.677    91180386.102                                  
C19  22155817.728   115371207.033                                    22155815.834    86944181.164    22155810.545    93748455.407    22155813.815   116429589.769  
C20  22757395.398   118503815.876                                    22757394.040    89304922.290    22757386.678    96293933.398    22757390.395   119591000.744  
C36  23294693.617   121301346.471                                    23294706.054    91413568.352    23294693.564    98567489.185    23294696.244   122414638.861  
> 2026 06 07 16 05 33.0000000  0 12                     
C01  38585942.587   200927221.404                                                                    38585938.370   163269732.329                                  
C02  36917911.286   192241219.139                                                                    36917900.689   156211730.469                                  
C03  36967295.297   192498369.649                                                                    36967283.378   156420648.064                                  
C06  39202768.841   204139146.549                                                                    39202768.251   165879747.105                                  
C07  37095577.799   193166457.465                                                                    37095579.622   156963496.317                                  
C08  39483535.489   205601093.930                                                                    39483534.774   167067733.877                                  
C09  37508392.864   195315911.147    37508396.473   151030694.448                                    37508392.006   158710277.517                                  
C10                                  37222149.038   149878439.337                                    37222145.179   157499071.115                                  
C12  21551817.073   112225922.588                                                                    21551812.338    91192769.728                                  
C19  22153678.145   115360067.688                                    22153676.001    86935786.483    22153671.284    93739403.751    22153673.982   116418348.200  
C20  22763384.916   118535005.257                                    22763382.879    89328426.685    22763377.268    96319277.285    22763379.573   119622476.283  
C36  23290171.950   121277803.117                                    23290183.744    91395825.891    23290177.793    98548358.224    23290174.559   122390879.407  
> 2026 06 07 16 05 48.0000000  0 12                     
C01  38585929.793   200927154.990                                                                    38585926.005   163269678.370                                  
C02  36918108.738   192242245.800                                                                    36918097.945   156212564.708                                  
C03  36967450.722   192499179.016                                                                    36967438.821   156421305.729                                  
C06  39207714.844   204164901.639                                                                    39207714.683   165900675.251                                  
C07  37096286.288   193170141.050                                                                    37096285.609   156966489.570                                  
C08  39478325.883   205573964.782                                                                    39478325.472   167045689.271                                  
C09  37513036.451   195340078.187    37513037.666   151049381.957                                    37513037.684   158729915.162                                  
C10                                  37222918.925   149881537.262                                    37222914.226   157502326.580                                  
C12  21554766.409   112241281.202                                                                    21554762.049    91205249.818                                  
C19  22151561.452   115349046.405                                    22151558.968    86927480.822    22151554.090    93730448.046    22151556.896   116407225.769  
C20  22769392.678   118566293.365                                    22769390.587    89352005.502    22769385.852    96344701.419    22769387.353   119654051.468  
C36  23285662.863   121254324.847                                    23285672.798    91378132.634    23285671.226    98529280.235    23285665.919   122367185.846  
> 2026 06 07 16 06 03.0000000  0 12                     
C01  38585917.142   200927089.077                                                                    38585913.085   163269624.788                                  
C02  36918306.370   192243273.474                                                                    36918295.076   156213399.794                                  
C03  36967606.254   192499989.103                                                                    36967594.388   156421963.994                                  
C06  39212663.241   204190666.420                                                                    39212662.865   165921611.263                                  
C07  37096991.614   193173809.262                                                                    37096988.791   156969470.217                                  
C08  39473116.312   205546833.251                                                                    39473115.972   167023642.690                                  
C09  37517685.202   195364275.461    37517684.541   151068092.824                                    37517684.595   158749577.406                                  
C10  37223680.914   193833457.1221   37223685.899   149884624.103                                    37223680.449   157505570.401                                  
C12  21557737.027   112256756.197                                                                    21557733.364    91217824.535                                  
C19  22149467.078   115338141.142                                    22149464.540    86919262.594    22149459.894    93721586.629    22149461.306   116396220.419  
C20  22775419.703   118597677.910                                    22775417.826    89375656.993    22775411.572    96370203.918    22775413.466   119685723.935  
C36  23281166.052   121230909.702                                    23281174.040    91360486.900    23281173.039    98510253.488    23281168.393   122343555.778  
> 2026 06 07 16 06 18.0000000  0 12                     
C01  38585907.778   200927040.401                                                                    38585903.758   163269585.219                                  
C02  36918507.396   192244318.864                                                                    36918495.674   156214249.252                                  
C03  36967765.198   192500816.719                                                                    36967753.262   156422636.499                                  
C06  39217616.855   204216457.456                                                                    39217615.837   165942568.590                                  
C07  37097696.868   193177478.733                                                                    37097692.276   156972452.171                                  
C08  39467909.404   205519716.298                                                                    39467908.796   167001607.920                                  
C09  37522342.173   195388519.699    37522340.386   151086839.951                                    37522340.208   158769277.814                                  
C10  37224448.996   193837451.482    37224453.177   149887712.768                                    37224447.227   157508816.074                                  
C12  21560734.680   112272364.458                                                                    21560732.215    91230507.537                                  
C19  22147398.238   115327368.785                                    22147396.505    86911144.547    22147391.769    93712833.258    22147392.252   116385349.327  
C20  22781468.724   118629175.473                                    22781465.972    89399393.643    22781459.683    96395798.233    22781461.755   119717510.432  
C36  23276684.519   121207574.274                                    23276692.649    91342901.274    23276689.451    98491291.593    23276683.465   122320006.383  
> 2026 06 07 16 06 33.0000000  0 12                     
C01  38585896.646   200926982.298                                                                    38585892.625   163269538.104                                  
C02  36918706.761   192245355.336                                                                    36918694.681   156215091.451                                  
C03  36967922.339   192501635.071                                                                    36967910.402   156423301.494                                  
C06  39222570.470   204242248.041                                                                    39222568.254   165963525.537                                  
C07  37098396.923   193181122.872                                                                    37098391.616   156975413.264                                  
C08  39462699.762   205492587.193                                                                    39462698.296   166979563.366                                  
C09  37527002.379   195412783.983    37527000.145   151105602.634                                    37526999.770   158788994.499                                  
C10  37225212.003   193841421.375    37225215.595   149890782.604                                    37225209.412   157512041.943                                  
C12  21563752.973   112288079.184                                                                    21563750.543    91243276.973                                  
C19  22145350.376   115316702.854                                    22145349.143    86903106.694    22145343.818    93704166.357    22145343.926   116374585.579  
C20  22787533.989   118660759.130                                    22787531.469    89423195.159    22787525.179    96421462.504    22787527.806   119749383.850  
C36  23272213.493   121184291.889                                    23272222.535    91325355.661    23272219.568    98472372.777    23272212.296   122296510.392  
> 2026 06 07 16 06 48.0000000  0 12                     
C01  38585884.084   200926916.853                                                                    38585879.903   163269484.863                                  
C02  36918904.732   192246384.955                                                                    36918892.223   156215928.103                                  
C03  36968078.157   192502446.351                                                                    36968066.149   156423960.699                                  
C06  39227524.031   204268040.158                                                                    39227520.583   165984483.733                                  
C07  37099092.100   193184743.638                                                                    37099086.560   156978355.501                                  
C08  39457487.689   205465448.187                                                                    39457484.723   166957510.689                                  
C09  37531666.265   195437070.515    37531664.264   151124382.480                                    37531663.567   158808729.307                                  
C10  37225970.722   193845369.006    37225973.527   149893835.186                                    37225967.398   157515249.735                                  
C12  21566790.457   112303902.242                                                                    21566788.491    91256134.521                                  
C19  22143323.368   115306145.599                                    22143322.778    86895150.716    22143316.846    93695587.734    22143316.238   116363931.465  
C20  22793615.925   118692430.832                                    22793615.103    89447063.094    22793607.759    96447198.339    22793610.779   119781346.171  
C36  23267753.581   121161064.612                                    23267763.624    91307851.573    23267760.157    98453498.745    23267753.760   122273069.954  
> 2026 06 07 16 07 03.0000000  0 12                     
C01  38585874.006   200926864.167                                                                    38585869.753   163269442.054                                  
C02  36919105.258   192247427.760                                                                    36919092.410   156216775.459                                  
C03  36968236.494   192503270.593                                                                    36968224.325   156424630.483                                  
C06  39232481.059   204293853.834                                                                    39232476.931   166005459.475                                  
C07  37099786.150   193188361.191                                                                    37099780.933   156981295.078                                  
C08  39452277.261   205438319.399                                                                    39452272.794   166935466.372                                  
C09  37536337.424   195461399.308    37536336.567   151143195.006                                    37536335.119   158828498.414                                  
C10  37226729.065   193849314.396    37226730.960   149896886.092                                    37226725.063   157518455.716                                  
C12  21569854.279   112319853.846                                                                    21569852.403    91269096.542                                  
C19  22141321.037   115295717.272                                    22141320.340    86887291.882    22141314.461    93687113.882    22141313.371   116353407.471  
C20  22799719.126   118724210.592                                    22799718.054    89471012.424    22799711.317    96473021.952    22799714.033   119813417.520  
C36  23263307.447   121137912.539                                    23263317.114    91290404.151    23263313.469    98434685.803    23263306.571   122249705.468  
> 2026 06 07 16 07 18.0000000  0 12                     
C01  38585863.767   200926810.864                                                                    38585859.603   163269398.741                                  
C02  36919305.784   192248470.383                                                                    36919292.400   156217622.682                                  
C03  36968394.778   192504094.429                                                                    36968382.537   156425299.914                                  
C06  39237439.177   204319675.581                                                                    39237435.014   166026441.772                                  
C07  37100476.824   193191962.035                                                                    37100472.535   156984221.038                                  
C08  39447066.600   205411187.473                                                                    39447061.382   166913419.514                                  
C09  37541013.730   195485756.742    37541014.516   151162029.742                                    37541011.854   158848290.829                                  
C10  37227484.389   193853244.223    37227485.372   149899924.853                                    37227479.529   157521648.923                                  
