     3.04           OBSERVATION DATA    M: Mixed            RINEX VERSION / TYPE
CONVBIN EX 2.5.0                        20260627 164937 UTC PGM / RUN BY / DATE 
format: RTCM 3                                              COMMENT             
log: C:\Users\jinyu\Desktop\540423494727\2026-06-08\1.rtcm3 COMMENT             
ROVER                                                       MARKER NAME         
                                                            MARKER NUMBER       
                                                            MARKER TYPE         
                                                            OBSERVER / AGENCY   
                    NONE                                    REC # / TYPE / VERS 
NONE                NONE                                    ANT # / TYPE        
  -492860.3329  5551481.2314  3092889.6323                  APPROX POSITION XYZ 
        0.0000        0.0000        0.0000                  ANTENNA: DELTA H/E/N
C    6 C2I L2I S2I C7I L7I S7I                              SYS / # / OBS TYPES 
  2026    06    07    17    00   18.0000000     GPS         TIME OF FIRST OBS   
  2026    06    07    18    00   03.0000000     GPS         TIME OF LAST OBS    
C L2I                                                       SYS / PHASE SHIFT   
C L7I                                                       SYS / PHASE SHIFT   
  0                                                         GLONASS SLOT / FRQ #
 C1C    0.000 C1P    0.000 C2C    0.000 C2P    0.000        GLONASS COD/PHS/BIS 
                                                            END OF HEADER       
> 2026 06 07 17 00 18.0000000  0 13                     
C01  38582162.038   200907540.102          40.000                                                  
C02  36961861.077   192470049.907          41.000                                                  
C03  37001066.892   192674235.163          42.000                                                  
C07  37175104.261   193580527.609          33.000                                                  
C08  38355126.523   199725211.635          45.000                                                  
C09  38634669.126   201180806.800          33.000    38634677.613   155565788.528          38.000  
C10                                                  37314548.809   150250203.694          38.000  
C12  22691289.912   118159482.595          40.000                                                  
C19  22249106.018   115856981.636          50.000                                                  
C20  24451758.438   127326786.261          48.000                                                  
C22  23574002.064   122756002.764          30.000                                                  
C36  22570957.356   117532851.185          39.000                                                  
C39  26358757.259   137256812.472          39.000                                                  
> 2026 06 07 17 00 33.0000000  0 13                     
C01  38582143.365   200907443.180          40.000                                                  
C02  36962066.231   192471118.371          41.000                                                  
C03  37001221.138   192675039.673          42.000                                                  
C07  37175127.455   193580652.579          32.000                                                  
C08  38350156.844   199699334.625          46.000                                                  
C09  38640199.392   201209577.223          33.000    38640201.518   155588035.552          37.000  
C10  37314599.557   194306910.883          29.000    37314601.540   150250418.126          38.000  
C12  22698517.682   118197114.978          44.000                                                  
C19  22252162.390   115872896.664          51.000                                                  
C20  24460829.540   127374023.863          46.000                                                  
C22                                                                                                
C36  22568800.869   117521624.054          39.000                                                  
C39  26352785.592   137225715.495          40.000                                                  
> 2026 06 07 17 00 48.0000000  0 13                     
C01  38582125.978   200907352.833          40.000                                                  
C02  36962272.690   192472193.630          40.000                                                  
C03  37001376.688   192675850.828          41.000                                                  
C07  37175149.487   193580769.085          32.000                                                  
C08  38345191.722   199673478.658          46.000                                                  
C09  38645734.536   201238365.921          31.000    38645728.979   155610296.685          37.000  
C10  37314652.682   194307176.898          31.000    37314652.056   150250623.841          38.000  
C12  22705762.141   118234834.295          43.000                                                  
C19  22255243.224   115888939.442          51.000                                                  
C20  24469911.221   127421313.685          48.000                                                  
C22                                                                                                
C36  22566655.443   117510450.544          36.000                                                  
C39  26346821.234   137194656.725          37.000                                                  
> 2026 06 07 17 01 03.0000000  0 12                     
C01  38582106.179   200907249.898          40.000                                                  
C02  36962476.754   192473256.482          41.000                                                  
C03  37001529.736   192676649.334          42.000                                                  
C07  37175166.606   193580857.696          31.000                                                  
C08  38340226.975   199647624.626          46.000                                                  
C09  38651269.126   201267153.610          31.000    38651256.082   155632557.029          37.000  
C10  37314698.426   194307412.489          32.000    37314696.818   150250805.941          37.000  
C12  22713016.982   118272621.031          37.000                                                  
C19  22258344.982   115905090.662          51.000                                                  
C20  24478999.192   127468636.238          47.000                                                  
C36                                                                                                
C39  26340859.181   137163617.031          35.000                                                  
> 2026 06 07 17 01 18.0000000  0 12                     
C01  38582082.807   200907128.408          39.000                                                  
C02  36962677.280   192474300.927          41.000                                                  
C03  37001679.228   192677429.312          41.000                                                  
C07  37175177.131   193580912.601          30.000                                                  
C08  38335261.334   199621766.589          46.000                                                  
C09  38656802.269   201295934.170          31.000    38656782.041   155654811.963          38.000  
C10  37314737.041   194307611.665          32.000    37314734.736   150250959.954          37.000  
C12  22720284.600   118310468.883          42.000                                                  
C19  22261466.325   115921344.230          50.000                                                  
C20  24488091.719   127515985.227          46.000                                                  
C36  22562382.870   117488191.7901         38.000                                                  
C39  26334900.004   137132590.276          36.000                                                  
> 2026 06 07 17 01 33.0000000  0 12                     
C01  38582064.205   200907031.862          40.000                                                  
C02  36962882.577   192475370.490          41.000                                                  
C03  37001833.491   192678234.195          41.000                                                  
C07                                                                                                
C08  38330303.216   199595948.136          46.000                                                  
C09  38662300.800   201324741.9921         30.000    38662315.024   155677095.061          38.000  
C10  37314776.889   194307817.916          31.000    37314774.137   150251119.481          37.000  
C12  22727574.357   118348421.427          46.000                                                  
C19  22264615.580   115937743.539          50.000                                                  
C20  24497197.720   127563403.882          46.000                                                  
C36  22560263.854   117477152.616          37.000                                                  
C39  26328952.121   137101620.025          32.000                                                  
> 2026 06 07 17 01 48.0000000  0 12                     
C01  38582040.725   200906909.593          40.000                                                  
C02  36963082.996   192476414.528          40.000                                                  
C03  37001982.841   192679013.411          41.000                                                  
C08  38325342.918   199570118.724          46.000                                                  
C09  38667835.212   201353544.662          30.000    38667845.558   155699367.092          38.000  
C10  37314807.588   194307980.609          30.000    37314805.301   150251245.216          38.000  
C12  22734873.621   118386427.589          46.000                                                  
C19  22267783.043   115954237.885          50.000                                                  
C20  24506307.723   127610841.332          48.000                                                  
C22                                                                                                
C36  22558146.661   117466134.517          32.000                                                  
C39  26323005.114   137070655.581          34.000                                                  
> 2026 06 07 17 02 03.0000000  0 12                     
C01  38582013.171   200906766.170          40.000                                                  
C02  36963279.430   192477437.543          41.000                                                  
C03  37002128.152   192679771.415          41.000                                                  
C08  38320381.548   199544282.929          46.000                                                  
C09  38673365.495   201382337.231          34.000    38673374.216   155721631.371          38.000  
C10  37314830.568   194308104.253          29.000    37314828.977   150251340.880          38.000  
C12  22742183.588   118424491.593          45.000                                                  
C19  22270969.644   115970831.601          50.000                                                  
C20  24515422.568   127658301.826          50.000                                                  
C22  23534315.821   122549440.6261         30.000                                                  
C36  22556033.720   117455141.785          35.000                                                  
C39  26317060.251   137039701.448          30.000                                                  
> 2026 06 07 17 02 18.0000000  0 12                     
C01  38581987.422   200906631.970          39.000                                                  
C02  36963477.562   192478469.968          40.000                                                  
C03  37002275.232   192680538.653          40.000                                                  
C08  38315424.664   199518471.233          46.000                                                  
C09  38678900.193   201411150.346          36.000    38678906.787   155743911.515          38.000  
C10  37314851.135   194308220.2331         29.000    37314851.063   150251429.834          39.000  
C12  22749510.817   118462643.668          46.000                                                  
C19  22274181.493   115987555.042          50.000                                                  
C20  24524547.564   127705815.472          50.000                                                  
C22  23528717.206   122520289.541          30.000                                                  
C36  22553931.751   117444204.690          39.000                                                  
C39  26311123.518   137008858.9931         33.000                                                  
> 2026 06 07 17 02 33.0000000  0 12                     
C01  38581963.191   200906505.747          39.000                                                  
C02  36963677.284   192479510.546          41.000                                                  
C03  37002423.741   192681313.848          40.000                                                  
C08  38310471.889   199492682.483          46.000                                                  
C09  38684438.071   201439982.457          36.000    38684442.932   155766206.327          37.000  
C10  37314873.257   194308325.386          32.000    37314871.345   150251511.141          39.000  
C12  22756854.360   118500882.295          44.000                                                  
C19  22277418.109   116004406.811          49.000                                                  
C20  24533682.083   127753380.712          50.000                                                  
C22  23523138.926   122491244.979          28.000                                                  
C36  22551841.933   117433321.925          41.000                                                  
C39  26305196.667   136977984.952          33.000                                                  
> 2026 06 07 17 02 48.0000000  0 12                     
C01  38581941.713   200906394.074          39.000                                                  
C02  36963879.830   192480565.785          40.000                                                  
C03  37002575.127   192682103.616          40.000                                                  
C08  38305524.725   199466923.281          46.000                                                  
C09  38689980.792   201468840.136          36.000    38689983.758   155788520.900          36.000  
C10  37314893.234   194308427.243          35.000    37314891.072   150251589.923          40.000  
C12  22764214.217   118539213.669          39.000                                                  
C19  22280680.171   116021393.327          47.000                                                  
C20  24542827.324   127801003.891          49.000                                                  
C22  23517582.714   122462229.8761         28.000                                                  
C36  22549764.427   117422499.923          42.000                                                  
C39  26299276.624   136947156.981          34.000                                                  
> 2026 06 07 17 03 03.0000000  0 13                     
C01  38581920.109   200906281.482          39.000                                                  
C02  36964082.286   192481620.283          40.000                                                  
C03  37002726.281   192682892.416          40.000                                                  
C08  38300580.473   199441178.255          46.000                                                  
C09  38695525.371   201497707.734          36.000    38695526.604   155810843.137          36.000  
C10  37314909.906   194308510.309          37.000    37314907.190   150251654.180          40.000  
C12  22771589.263   118577622.166          40.000                                                  
C19  22283964.408   116038498.997          47.000                                                  
C20  24551980.499   127848669.165          47.000                                                  
C22  23512046.873   122433398.1141         28.000                                                  
C27  25387805.638   132200982.306          28.000                                                  
C36  22547695.802   117411723.172          43.000                                                  
C39  26293362.388   136916359.434          32.000                                                  
> 2026 06 07 17 03 18.0000000  0 13                     
C01  38581899.685   200906175.081          39.000                                                  
C02  36964285.903   192482681.113          40.000                                                  
C03  37002878.615   192683687.357          39.000                                                  
C08  38295640.600   199415454.584          47.000                                                  
C09  38701073.417   201526592.354          36.000    38701073.042   155833178.589          38.000  
C10  37314924.541   194308581.730          37.000    37314921.110   150251709.389          41.000  
C12  22778980.624   118616114.644          37.000                                                  
C19  22287273.698   116055730.958          48.000                                                  
C20  24561143.734   127896383.429          48.000                                                  
C22                                                                                                
C27  25384261.961   132182483.171          31.000                                                  
C36  22545636.594   117400998.691          42.000                                                  
C39  26287454.425   136885599.598          32.000                                                  
> 2026 06 07 17 03 33.0000000  0 14                     
C01  38581878.617   200906065.516          39.000                                                  
C02  36964488.985   192483738.952          40.000                                                  
C03  37003030.359   192684479.132          40.000                                                  
C07                                                                                                
C08  38290703.353   199389742.980          48.000                                                  
C09  38706622.624   201555484.560          34.000    38706620.944   155855519.912          38.000  
C10  37314935.030   194308632.133          37.000    37314931.009   150251748.352          41.000  
C12  22786385.565   118654681.513          37.000                                                  
C19  22290605.341   116073079.590          46.000                                                  
C20  24570315.081   127944137.134          49.000                                                  
C22                                                                                                
C27  25380728.808   132164068.559          30.000                                                  
C36  22543585.176   117390316.904          42.000                                                  
C39  26281553.091   136854867.852          33.000                                                  
> 2026 06 07 17 03 48.0000000  0 13                     
C01  38581862.642   200905982.473          39.000                                                  
C02  36964697.194   192484823.446          40.000                                                  
C03  37003187.141   192685297.408          40.000                                                  
C07                                                                                                
C08  38285774.308   199364073.166          48.000                                                  
C09  38712178.211   201584413.881          32.000    38712175.798   155877889.817          37.000  
C10  37314946.824   194308691.225          36.000    37314942.642   150251794.050          41.000  
C12  22793810.841   118693352.119          37.000                                                  
C19  22293965.039   116090574.477          44.000                                                  
C20  24579498.955   127991959.596          47.000                                                  
C22                                                                                                
C36  22541548.090   117379707.466          42.000                                                  
C39  26275663.193   136824193.876          34.000                                                  
> 2026 06 07 17 04 03.0000000  0 13                     
C01  38581839.895   200905864.025          39.000                                                  
C02  36964898.596   192485872.701          41.000                                                  
C03  37003337.223   192686080.264          39.000                                                  
C07                                                                                                
C08  38280841.332   199338383.370          47.000                                                  
C09  38717729.223   201613318.169          32.000    38717725.988   155900240.448          34.000  
C10  37314947.914   194308697.090          34.000    37314944.125   150251798.570          42.000  
C12  22801245.980   118732064.405          40.000                                                  
C19  22297340.801   116108153.585          44.000                                                  
C20  24588683.525   128039788.636          45.000                                                  
C22                                                                                                
C36  22539513.147   117369108.560          39.000                                                  
C39  26269772.151   136793515.918          31.000                                                  
> 2026 06 07 17 04 18.0000000  0 13                     
C01  38581814.664   200905732.663          40.000                                                  
C02  36965097.550   192486909.127          40.000                                                  
C03  37003484.696   192686850.140          40.000                                                  
C07  37175095.809   193580504.6201         30.000                                                  
C08  38275908.391   199312696.122          46.000                                                  
C09  38723280.842   201642220.008          34.000    38723275.714   155922589.157          32.000  
C10  37314942.624   194308672.167          32.000    37314939.640   150251779.303          42.000  
C12  22808694.843   118770840.563          41.000                                                  
C19  22300736.916   116125839.271          43.000                                                  
C20  24597873.028   128087646.294          43.000                                                  
C22  23484660.648   122290781.916          33.000                                                  
C36  22537483.048   117358542.425          40.000                                                  
C39                                                                                                
> 2026 06 07 17 04 33.0000000  0 14                     
C01  38581793.382   200905622.008          40.000                                                  
C02  36965300.506   192487966.488          40.000                                                  
C03  37003636.226   192687640.737          39.000                                                  
C07  37175070.917   193580375.047          29.000                                                  
C08  38270981.866   199287045.176          46.000                                                  
C09  38728839.484   201671152.990          36.000    38728831.765   155944961.890          32.000  
C10  37314937.514   194308650.155          29.000    37314935.691   150251762.250          43.000  
C12                                                                                                
C19  22304159.871   116143665.071          44.000                                                  
C20  24607075.557   128135566.225          46.000                                                  
C22  23479238.829   122262550.771          34.000                                                  
C27  25366726.553   132091198.2901         30.000                                                  
C36  22535466.385   117348042.520          44.000                                                  
C39  26258027.110   136732462.9051         33.000                                                  
> 2026 06 07 17 04 48.0000000  0 14                     
C01  38581772.047   200905511.004          40.000                                                  
C02  36965503.463   192489023.629          40.000                                                  
C03  37003787.684   192688430.971          39.000                                                  
C07                                                                                                
C08  38266058.146   199261409.471          46.000                                                  
C09  38734400.056   201700095.803          37.000    38734390.853   155967342.240          35.000  
C10                                                  37314928.204   150251731.143          43.000  
C12  22823649.018   118848752.7181         41.000                                                  
C19  22307605.912   116161609.822          45.000                                                  
C20  24616285.912   128183526.934          45.000                                                  
C22  23473835.844   122234420.006          34.000                                                  
C27  25363259.265   132073145.244          31.000                                                  
C36  22533458.747   117337587.726          46.000                                                  
C39  26252151.079   136701886.058          33.000                                                  
> 2026 06 07 17 05 03.0000000  0 14                     
C01  38581742.455   200905357.032          39.000                                                  
C02  36965698.235   192490037.892          40.000                                                  
C03  37003930.939   192689178.242          39.000                                                  
C07                                                                                                
C08  38261129.530   199235746.418          46.000                                                  
C09  38739953.623   201729005.845          37.000    38739944.367   155989697.316          37.000  
C10                                                  37314908.977   150251653.037          42.000  
C12  22831134.065   118887735.020          46.000                                                  
C19  22311066.534   116179630.661          45.000                                                  
C20  24625496.500   128231485.501          47.000                                                  
C22  23468443.527   122206347.224          33.000                                                  
C27  25359800.662   132055122.454          29.000                                                  
C36  22531451.663   117327135.313          46.000                                                  
C39  26246272.152   136671297.729          29.000                                                  
> 2026 06 07 17 05 18.0000000  0 13                     
C01  38581716.313   200905220.919          39.000                                                  
C02  36965896.528   192491070.206          40.000                                                  
C03  37004077.644   192689943.373          38.000                                                  
C07                                                                                                
C08  38256207.561   199210116.999          46.000                                                  
C09  38745511.640   201757943.811          36.000    38745503.938   156012073.989          38.000  
C10                                                  37314889.571   150251574.948          41.000  
C12  22838637.304   118926810.833          47.000                                                  
C19  22314553.709   116197788.445          46.000                                                  
C20  24634718.274   128279502.595          48.000                                                  
C22  23463074.064   122178393.533          32.000                                                  
C36  22529456.461   117316746.101          45.000                                                  
C39  26240393.136   136640553.0771         32.000                                                  
> 2026 06 07 17 05 33.0000000  0 13                     
C01  38581697.015   200905120.644          39.000                                                  
C02  36966101.628   192492138.530          40.000                                                  
C03  37004231.282   192690744.240          38.000                                                  
C07                                                                                                
C08  38251295.599   199184539.251          46.000                                                  
C09  38751076.661   201786927.528          35.000    38751072.426   156034486.064          36.000  
C10                                                  37314873.453   150251510.824          41.000  
C12  22846161.646   118965997.990          47.000                                                  
C19  22318070.530   116216100.901          47.000                                                  
C20  24643953.807   128327595.835          47.000                                                  
C22  23457730.797   122150577.258          29.000                                                  
C36  22527477.395   117306437.865          45.000                                                  
C39  26234543.247   136610080.544          29.000                                                  
> 2026 06 07 17 05 48.0000000  0 13                     
C01  38581674.911   200905005.941          39.000                                                  
C02  36966303.995   192493192.562          40.000                                                  
C03  37004382.025   192691530.705          38.000                                                  
C07                                                                                                
C08  38246383.994   199158962.969          46.000                                                  
C09  38756639.788   201815906.819          34.000    38756637.787   156056894.632          33.000  
C10                                                  37314851.135   150251421.730          41.000  
C12  22853697.727   119005245.890          48.000                                                  
C19  22321607.774   116234517.712          47.000                                                  
C20  24653193.772   128375714.611          47.000                                                  
C22  23452404.345   122122848.050          30.000                                                  
C36  22525503.726   117296160.282          40.000                                                  
C39  26228693.269   136579697.1601         27.000                                                  
> 2026 06 07 17 06 03.0000000  0 13                     
C01  38581650.823   200904880.587          39.000                                                  
C02  36966504.342   192494235.984          40.000                                                  
C03  37004530.803   192692306.507          38.000                                                  
C07                                                                                                
C08  38241473.462   199133391.956          46.000                                                  
C09  38762202.540   201844885.197          32.000    38762200.879   156079302.554          32.000  
C10                                                  37314823.206   150251310.622          40.000  
C12  22861246.693   119044558.096          49.000                                                  
C19  22325165.300   116253042.445          46.000                                                  
C20  24662439.955   128423862.470          48.000                                                  
C22  23447096.834   122095210.108          34.000                                                  
C36  22523535.578   117285917.075          37.000                                                  
C39  26222849.455   136549272.933          32.000                                                  
> 2026 06 07 17 06 18.0000000  0 13                     
C01  38581625.985   200904751.119          39.000                                                  
C02  36966703.939   192495275.553          40.000                                                  
C03  37004678.847   192693078.151          37.000                                                  
C07  37174794.430   193578901.4961         29.000                                                  
C08  38236565.324   199107832.937          46.000                                                  
C09  38767766.543   201873869.149          33.000    38767765.846   156101714.749          34.000  
C10                                                  37314791.024   150251182.582          39.000  
C12  22868808.238   119083940.827          46.000                                                  
C19  22328744.734   116271681.578          46.000                                                  
C20  24671693.482   128472045.749          50.000                                                  
C22  23441808.604   122067670.158          35.000                                                  
C36  22521575.543   117275714.725          39.000                                                  
C39                                                                                                
> 2026 06 07 17 06 33.0000000  0 13                     
C01  38581602.720   200904630.115          39.000                                                  
C02  36966905.162   192496323.654          40.000                                                  
C03  37004828.536   192693858.236          38.000                                                  
C07  37174748.185   193578642.908          34.000                                                  
C08  38231661.921   199082298.497          46.000                                                  
C09  38773334.834   201902871.126          32.000    38773334.888   156124140.888          35.000  
C10  37314764.685   194307761.4911         29.000    37314756.947   150251047.285          38.000  
C12  22876386.348   119123406.452          46.000                                                  
C19  22332348.505   116290447.469          45.000                                                  
C20  24680956.194   128520276.669          50.000                                                  
C22  23436541.585   122040240.916          36.000                                                  
C36  22519627.498   117265565.398          43.000                                                  
C39                                                                                                
> 2026 06 07 17 06 48.0000000  0 13                     
C01  38581580.544   200904514.799          40.000                                                  
C02  36967107.547   192497377.605          40.000                                                  
C03  37004979.315   192694643.942          38.000                                                  
C07  37174697.008   193578375.369          36.000                                                  
C08  38226762.824   199056785.927          47.000                                                  
C09  38778906.825   201931888.274          33.000    38778907.575   156146578.893          38.000  
C10  37314725.998   194307551.483          29.000    37314720.620   150250902.702          37.000  
C12  22883980.611   119162951.925          47.000                                                  
C19  22335975.612   116309337.211          43.000                                                  
C20  24690226.965   128568552.148          48.000                                                  
C22  23431295.222   122012919.971          36.000                                                  
C36  22517688.888   117255466.443          44.000                                                  
C39                                                                                                
> 2026 06 07 17 07 03.0000000  0 13                     
C01  38581558.351   200904399.468          40.000                                                  
C02  36967309.914   192498431.648          39.000                                                  
C03  37005130.147   192695429.619          38.000                                                  
C07  37174642.811   193578093.083          36.000                                                  
C08  38221866.855   199031289.591          46.000                                                  
C09  38784482.067   201960914.772          36.000    38784482.407   156169024.021          38.000  
C10  37314690.528   194307346.724          30.000    37314680.843   150250744.272          37.000  
C12  22891589.223   119202571.267          46.000                                                  
C19  22339625.896   116328345.006          45.000                                                  
C20  24699505.115   128616866.224          49.000                                                  
C22  23426068.443   121985701.783          35.000                                                  
C36  22515758.586   117245412.075          44.000                                                  
C39  26199532.792   136427857.0621         29.000                                                  
> 2026 06 07 17 07 18.0000000  0 13                     
C01  38581532.477   200904264.498          40.000                                                  
C02  36967508.492   192499466.207          39.000                                                  
C03  37005277.174   192696195.649          38.000                                                  
C07  37174581.860   193577776.499          35.000                                                  
C08  38216969.760   199005790.048          44.000                                                  
C09  38790056.327   201989931.097          36.000    38790055.397   156191461.279          39.000  
C10  37314644.998   194307104.413          30.000    37314633.919   150250556.902          36.000  
C12  22899207.752   119242244.639          44.000                                                  
C19  22343295.676   116347451.200          46.000                                                  
C20  24708787.179   128665199.030          49.000                                                  
C22  23420857.550   121958566.886          34.000                                                  
C36  22513832.949   117235382.592          42.000                                                  
C39  26193717.765   136397567.332          29.000                                                  
> 2026 06 07 17 07 33.0000000  0 14                     
C01  38581508.532   200904139.548          39.000                                                  
C02  36967709.018   192500510.845          40.000                                                  
C03  37005426.023   192696971.570          38.000                                                  
C07  37174520.194   193577455.275          33.000                                                  
C08  38212076.989   198980316.864          44.000                                                  
C09  38795633.177   202018966.630          35.000    38795632.016   156213913.379          39.000  
C10  37314597.824   194306854.464          30.000    37314585.780   150250363.491          37.000  
C12  22906842.435   119282001.306          44.000                                                  
C19  22346989.488   116366685.132          44.000                                                  
C20  24718078.517   128713579.883          49.000                                                  
C22  23415667.510   121931545.281          32.000                                                  
C27  25326046.256   131879332.2551         29.000                                                  
C36  22511917.229   117225407.481          40.000                                                  
C39                                                                                                
> 2026 06 07 17 07 48.0000000  0 13                     
C01  38581484.320   200904013.720          39.000                                                  
C02  36967909.473   192501554.805          39.000                                                  
C03  37005574.711   192697746.645          37.000                                                  
C07  37174455.723   193577118.555          29.000                                                  
C08  38207187.220   198954859.282          44.000                                                  
C09  38801208.598   202048010.363          32.000    38801210.081   156236371.867          38.000  
C10  37314546.790   194306585.672          30.000    37314534.121   150250155.691          37.000  
C12  22914491.163   119321830.240          41.000                                                  
C19  22350704.601   116386035.771          42.000                                                  
C20  24727376.913   128761997.662          49.000                                                  
C22  23410496.429   121904626.149          30.000                                                  
C36  22510008.317   117215475.813          38.000                                                  
C39                                                                                                
> 2026 06 07 17 08 03.0000000  0 12                     
C01  38581463.770   200903907.135          39.000                                                  
C02  36968113.644   192502618.118          39.000                                                  
C03  37005727.080   192698540.955          37.000                                                  
C08  38202304.653   198929437.522          43.000                                                  
C09  38806788.987   202077082.432          32.000    38806793.401   156258852.276          37.000  
C10  37314495.881   194306318.469          28.000    37314482.926   150249949.059          37.000  
C12  22922157.207   119361751.295          40.000                                                  
C19  22354446.625   116405523.258          42.000                                                  
C20  24736685.477   128810472.239          47.000                                                  
C22  23405348.989   121877829.926          27.000                                                  
C36  22508112.485   117205607.557          42.000                                                  
C39                                                                                                
> 2026 06 07 17 08 18.0000000  0 13                     
C01  38581442.041   200903794.317          39.000                                                  
C02  36968316.637   192503675.326          40.000                                                  
C03  37005878.306   192699328.947          36.000                                                  
C07  37174332.355   193576516.6491         29.000                                                  
C08  38197424.301   198904026.145          43.000                                                  
C09  38812370.787   202106157.203          34.000    38812377.041   156281334.760          35.000  
C10                                                  37314426.924   150249723.852          36.000  
C12  22929835.329   119401738.567          41.000                                                  
C19  22358210.574   116425121.825          41.000                                                  
C20  24745999.598   128858977.693          45.000                                                  
C22                                                                                                
C36  22506225.338   117195776.989          44.000                                                  
C39  26170534.316   136276827.1511         31.000                                                  
> 2026 06 07 17 08 33.0000000  0 13                     
C01  38581415.381   200903656.064          39.000                                                  
C02  36968514.804   192504707.224          39.000                                                  
C03  37006024.617   192700091.498          37.000                                                  
C07  37174257.734   193576123.704          30.000                                                  
C08  38192542.252   198878606.095          43.000                                                  
C09  38817949.943   202135215.472          35.000    38817957.662   156303804.407          35.000  
C10                                                  37314362.292   150249465.207          35.000  
C12  22937523.351   119441772.746          42.000                                                  
C19  22361991.999   116444812.123          41.000                                                  
C20  24755316.525   128907494.709          46.000                                                  
C22                                                                                                
C36  22504341.496   117185965.022          43.000                                                  
C39  26164747.594   136246688.875          29.000                                                  
> 2026 06 07 17 08 48.0000000  0 13                     
C01  38581389.471   200903521.693          39.000                                                  
C02  36968713.776   192505743.138          39.000                                                  
C03  37006171.643   192700857.874          37.000                                                  
C07  37174176.680   193575691.0051         29.000                                                  
C08  38187664.491   198853206.651          44.000                                                  
C09  38823531.457   202164286.366          35.000    38823541.214   156326283.901          35.000  
C10                                                  37314294.354   150249195.861          32.000  
C12  22945227.438   119481882.952          46.000                                                  
C19  22365797.368   116464623.466          43.000                                                  
C20  24764641.582   128956052.337          47.000                                                  
C22  23390023.800   121797976.2191         31.000                                                  
C36  22502466.374   117176200.847          43.000                                                  
C39  26158963.624   136216585.186          31.000                                                  
> 2026 06 07 17 09 03.0000000  0 13                     
C01  38581365.437   200903397.098          39.000                                                  
C02  36968914.605   192506788.956          39.000                                                  
C03  37006320.618   192701634.013          37.000                                                  
C07                                                                                                
C08  38182792.269   198827833.858          45.000                                                  
C09  38829116.581   202193375.702          35.000    38829129.197   156348777.679          35.000  
C10                                                  37314224.004   150248920.364          28.000  
C12  22952946.391   119522074.700          42.000                                                  
C19  22369626.342   116484561.538          45.000                                                  
C20  24773974.894   129004656.086          45.000                                                  
C22  23384954.555   121771578.785          36.000                                                  
C36  22500601.206   117166490.225          42.000                                                  
C39  26153186.390   136186522.021          32.000                                                  
> 2026 06 07 17 09 18.0000000  0 13                     
C01  38581343.458   200903282.982          39.000                                                  
C02  36969117.490   192507845.385          39.000                                                  
C03  37006471.664   192702420.594          36.000                                                  
C07                                                                                                
C08  38177925.427   198802488.491          45.000                                                  
C09  38834705.386   202222484.142          35.000    38834721.361   156371286.243          35.000  
C10                                                                                                
C12  22960678.371   119562348.253          41.000                                                  
C19  22373479.171   116504626.858          45.000                                                  
C20  24783317.337   129053306.405          45.000                                                  
C22  23379907.271   121745296.545          38.000                                                  
C36  22498745.865   117156833.826          40.000                                                  
C39  26147417.519   136156500.014          30.000                                                  
> 2026 06 07 17 09 33.0000000  0 13                     
C01  38581321.211   200903167.421          39.000                                                  
C02  36969320.036   192508900.475          39.000                                                  
C03  37006622.282   192703205.620          36.000                                                  
C07                                                                                                
C08  38173061.550   198777158.654          46.000                                                  
C09  38840296.103   202251599.572          34.000    38840315.259   156393800.126          35.000  
C10                                                  37314077.210   150248327.9391         28.000  
C12  22968426.022   119602691.735          45.000                                                  
C19  22377354.677   116524807.365          46.000                                                  
C20  24792666.428   129101991.103          43.000                                                  
C22  23374879.786   121719117.755          38.000                                                  
C36  22496898.994   117147219.561          43.000                                                  
C39  26141655.920   136126507.385          33.000                                                  
> 2026 06 07 17 09 48.0000000  0 13                     
C01  38581299.089   200903052.410          39.000                                                  
C02  36969522.778   192509956.217          39.000                                                  
C03  37006773.061   192703991.210          36.000                                                  
C07                                                                                                
C08  38168200.801   198751846.473          45.000                                                  
C09  38845889.715   202280723.920          37.000    38845910.657   156416321.100          34.000  
C10                                                  37314005.144   150248018.668          33.000  
C12  22976187.253   119643106.710          45.000                                                  
C19  22381252.590   116545104.931          45.000                                                  
C20  24802022.702   129150711.887          44.000                                                  
C22  23369872.474   121693044.631          36.000                                                  
C36  22495062.452   117137649.274          41.000                                                  
C39  26135901.166   136096545.980          34.000                                                  
> 2026 06 07 17 10 03.0000000  0 13                     
C01  38581275.824   200902931.418          39.000                                                  
C02  36969724.340   192511006.092          39.000                                                  
C03  37006922.732   192704770.760          35.000                                                  
C07                                                                                                
C08  38163341.749   198726545.452          45.000                                                  
C09  38851484.578   202309850.652          39.000    38851505.770   156438843.881          32.000  
C10                                                  37313924.430   150247691.115          35.000  
C12  22983960.671   119683586.401          45.000                                                  
C19  22385171.713   116565512.830          46.000                                                  
C20  24811385.248   129199462.007          45.000                                                  
C22  23364884.176   121667070.970          35.000                                                  
C36  22493232.807   117128116.485          38.000                                                  
C39  26130151.611   136066609.273          36.000                                                  
> 2026 06 07 17 10 18.0000000  0 13                     
C01  38581251.593   200902805.439          39.000                                                  
C02  36969925.027   192512051.090          39.000                                                  
C03  37007071.402   192705545.225          36.000                                                  
C07                                                                                                
C08  38158485.127   198701256.562          47.000                                                  
C09  38857080.226   202338980.609          39.000    38857100.275   156461369.075          31.000  
C10                                                  37313839.444   150247345.889          37.000  
C12  22991747.384   119724131.455          47.000                                                  
C19  22389112.404   116586031.913          46.000                                                  
C20  24820752.529   129248242.045          43.000                                                  
C22  23359914.979   121641197.804          34.000                                                  
C36                                                                                                
C39  26124408.078   136036698.219          37.000                                                  
> 2026 06 07 17 10 33.0000000  0 13                     
C01  38581223.914   200902661.385          39.000                                                  
C02  36970122.248   192513078.129          39.000                                                  
C03  37007216.695   192706301.597          36.000                                                  
C07                                                                                                
C08  38153628.809   198675966.899          47.000                                                  
C09  38862673.731   202368100.555          39.000    38862691.082   156483886.549          33.000  
C10                                                  37313747.544   150246973.098          38.000  
C12  22999544.336   119764728.713          47.000                                                  
C19  22393071.715   116606648.959          45.000                                                  
C20  24830123.134   129297038.733          43.000                                                  
C22  23354962.955   121615412.371          34.000                                                  
C36  22489611.989   117109355.7781         35.000                                                  
C39  26118666.511   136006799.740          34.000                                                  
> 2026 06 07 17 10 48.0000000  0 14                     
C01  38581196.968   200902521.117          39.000                                                  
C02  36970320.272   192514109.091          38.000                                                  
C03  37007362.739   192707061.712          36.000                                                  
C07  37173465.332   193571993.5991         30.000                                                  
C08  38148776.369   198650698.389          45.000                                                  
C09  38868269.326   202397232.429          38.000    38868282.817   156506413.164          36.000  
C10                                                  37313652.767   150246589.439          39.000  
C12  23007355.028   119805399.607          47.000                                                  
C19  22397053.934   116627385.656          46.000                                                  
C20  24839501.995   129345873.591          46.000                                                  
C22  23350032.766   121589736.728          31.000                                                  
C30  25248277.820   131474393.737          37.000                                                  
C36  22487796.532   117099933.042          36.000                                                  
C39  26112930.662   135976935.489          33.000                                                  
> 2026 06 07 17 11 03.0000000  0 14                     
C01  38581170.915   200902385.516          38.000                                                  
C02  36970519.208   192515144.804          39.000                                                  
