     3.04           OBSERVATION DATA    M: Mixed            RINEX VERSION / TYPE
CONVBIN EX 2.5.0                        20260619 115038 UTC PGM / RUN BY / DATE 
format: RTCM 3                                              COMMENT             
log: base_0608.rtcm3                                        COMMENT             
0000                                                        MARKER NAME         
                                                            MARKER NUMBER       
                                                            MARKER TYPE         
                                                            OBSERVER / AGENCY   
                    NONE                                    REC # / TYPE / VERS 
NONE                NONE                                    ANT # / TYPE        
  -493099.6505  5551400.7556  3092551.4870                  APPROX POSITION XYZ 
        0.0000        0.0000        0.0000                  ANTENNA: DELTA H/E/N
C   10 C2I L2I C7I L7I C5P L5P C6I L6I C1P L1P              SYS / # / OBS TYPES 
  2026    06    07    17    00   18.0000000     GPS         TIME OF FIRST OBS   
  2026    06    07    18    00   03.0000000     GPS         TIME OF LAST OBS    
C L2I                                                       SYS / PHASE SHIFT   
C L7I                                                       SYS / PHASE SHIFT   
C L5P  0.00000                                              SYS / PHASE SHIFT   
C L6I                                                       SYS / PHASE SHIFT   
C L1P  0.00000                                              SYS / PHASE SHIFT   
  0                                                         GLONASS SLOT / FRQ #
 C1C    0.000 C1P    0.000 C2C    0.000 C2P    0.000        GLONASS COD/PHS/BIS 
                                                            END OF HEADER       
> 2026 06 07 17 00 18.0000000  0 12                     
C01  38581984.884   200906514.345                                                                    38581981.275   163252991.114                                  
C02  36961954.657   192470585.510                                                                    36961938.146   156398048.729                                  
C03  37001014.536   192673992.224                                                                    37001000.706   156563345.422                                  
C07                                                                                                  37175285.131   157300787.975                                  
C08  38354962.611   199724374.987                                                                    38354960.645   162292453.349                                  
C09  38634601.599   201180515.654    38634606.763   155565501.153                                    38634606.030   163475606.389                                  
C12  22691269.881   118159375.662                                                                    22691266.843    96014184.904                                  
C19  22249296.770   115857942.736                                    22249296.699    87311002.060    22249291.320    94144022.896    22249291.320   116920832.275  
C20  24451595.580   127325787.560                                    24451597.260    95953266.958    24451593.168   103462624.051    24451590.791   128493886.618  
C22  23574426.685   122758220.702                                    23574418.269    92511071.836    23574416.286    99751068.779                                  
C36  22571319.204   117534853.005                                    22571325.976    88574793.256    22571322.206    95506723.948    22571314.630   118613007.540  
C39  26358965.075   137258089.527                                    26358961.948   103438245.473    26358961.055   111533387.058    26358966.701   138517456.460  
> 2026 06 07 17 00 33.0000000  0 12                     
C01  38581961.637   200906393.379                                                                    38581958.045   163252892.836                                  
C02  36962155.272   192471629.822                                                                    36962138.672   156398897.336                                  
C03  37001164.368   192674772.615                                                                    37001150.555   156563979.567                                  
C07  37175312.917   193581609.050                                                                    37175304.054   157300868.991                                  
C08  38349989.269   199698476.050                                                                    38349987.053   162271408.400                                  
C09  38640122.180   201209260.523    38640126.986   155587728.498                                    38640125.968   163498963.990                                  
C12  22698491.540   118196980.302                                                                    22698487.591    96044741.721                                  
C19  22252347.942   115873830.149                                    22252346.977    87322974.857    22252342.152    94156932.706    22252342.849   116936865.447  
C20  24460662.161   127372998.085                                    24460662.983    95988844.979    24460660.231   103500986.448    24460656.497   128541530.249  
C22                                                                  23568692.176    92488597.477    23568689.675    99726835.401                                  
C36  22569158.661   117523603.215                                    22569165.379    88566315.400    22569162.127    95497582.596    22569154.479   118601654.511  
C39  26352990.157   137226971.815                                    26352985.100   103414795.104    26352983.724   111508101.424    26352990.907   138486053.246  
> 2026 06 07 17 00 48.0000000  0 12                     
C01  38581939.551   200906278.286                                                                    38581935.941   163252799.339                                  
C02  36962357.031   192472680.193                                                                    36962340.342   156399750.868                                  
C03  37001315.343   192675558.871                                                                    37001301.548   156564618.481                                  
C07  37175329.375   193581697.3881                                                                   37175320.387   157300942.424                                  
C08  38345019.893   199672597.426                                                                    38345017.195   162250379.969                                  
C09  38645646.227   201238023.054    38645650.677   155609969.528                                    38645649.497   163522335.891                                  
C12  22705729.638   118234671.117                                                                    22705726.939    96075368.570                                  
C19  22255423.272   115889844.564                                    22255422.432    87335043.377    22255417.214    94169945.721    22255418.519   116953026.775  
C20  24469738.446   127420260.077                                    24469739.053    96024461.789    24469735.944   103539390.674    24469732.620   128589225.831  
C22                                                                  23562984.935    92466200.564    23562982.577    99702685.691                                  
C36  22567008.427   117512406.308                                    22567014.914    88557877.414    22567012.305    95488484.211    22567004.300   118590354.895  
C39  26347022.403   137195891.609                                    26347015.506   103391373.060    26347013.487   111482846.339    26347018.937   138454687.972  
> 2026 06 07 17 01 03.0000000  0 12                     
C01  38581918.394   200906168.201                                                                    38581914.802   163252709.896                                  
C02  36962559.773   192473735.749                                                                    36962543.048   156400608.617                                  
C03  37001467.284   192676350.131                                                                    37001453.489   156565261.470                                  
C07                                                                                                  37175336.147   157301007.676                                  
C08  38340053.949   199646738.325                                                                    38340051.001   162229367.383                                  
C09  38651173.527   201266802.154    38651177.565   155632223.351                                    38651176.011   163545721.250                                  
C12  22712983.907   118272447.024                                                                    22712981.548    96106064.582                                  
C19  22258522.743   115905985.006                                    22258522.350    87347206.890    22258517.365    94183061.158    22258517.972   116969315.317  
C20  24478824.540   127467572.394                                    24478824.951    96060116.494    24478821.216   103577835.762    24478820.823   128636972.218  
C22                                                                  23557297.243    92443880.742    23557294.349    99678619.100                                  
C36  22564868.183   117501261.372                                    22564874.562    88549478.566    22564871.453    95479428.054    22564863.930   118579107.694  
C39  26341061.387   137164847.984                                    26341054.221   103367978.496    26341052.756   111457620.848    26341059.939   138423359.554  
> 2026 06 07 17 01 18.0000000  0 12                     
C01  38581895.915   200906051.288                                                                    38581892.287   163252614.885                                  
C02  36962761.247   192474784.647                                                                    36962744.485   156401460.949                                  
C03  37001617.902   192677134.569                                                                    37001604.125   156565898.896                                  
C07                                                                                                  37175348.227   157301055.000                                  
C08  38335089.094   199620887.000                                                                    38335086.486   162208361.097                                  
C09  38656701.631   201295585.877    38656705.223   155654480.756                                    38656703.346   163569110.411                                  
C12  22720251.918   118310295.885                                                                    22720248.612    96136819.861                                  
C19  22261644.337   115922239.562                                    22261644.462    87359456.394    22261639.047    94196269.315    22261639.298   116985718.986  
C20  24487917.603   127514922.891                                    24487918.193    96095799.998    24487913.994   103616311.919    24487915.727   128684757.190  
C22  23551630.762   122639517.0871                                   23551626.670    92421629.315    23551624.454    99654626.276                                  
C36  22562735.569   117490156.426                                    22562741.894    88541109.876    22562739.107    95470404.414    22562731.566   118567900.880  
C39  26335105.194   137133829.042                                    26335098.422   103344602.581    26335096.492   111432415.514    26335103.014   138392056.029  
> 2026 06 07 17 01 33.0000000  0 12                     
C01  38581873.811   200905936.129                                                                    38581870.147   163252521.323                                  
C02  36962963.095   192475835.469                                                                    36962946.245   156402314.851                                  
C03  37001768.877   192677920.760                                                                    37001755.046   156566537.769                                  
C07                                                                                                  37175357.393   157301091.470                                  
C08  38330127.474   199595052.022                                                                    38330125.348   162187368.130                                  
C09  38662231.897   201324382.891    38662235.596   155676748.448                                    38662233.755   163592510.335                                  
C12  22727535.564   118348226.071                                                                    22727533.187    96167641.236                                  
C19  22264789.517   115938616.684                                    22264788.981    87371798.238    22264783.156    94209577.052    22264783.960   117002246.325  
C20  24497019.726   127562319.897                                    24497019.994    96131518.566    24497015.795   103654825.838    24497016.099   128732588.975  
C22  23545978.754   122610089.822                                    23545975.216    92399452.770                                                                  
C36  22560612.032   117479100.003                                    22560617.875    88532777.750    22560615.624    95461420.178    22560608.172   118556743.013  
C39  26329154.881   137102843.415                                    26329147.430   103321251.774    26329145.554   111407237.198    26329149.967   138360786.197  
> 2026 06 07 17 01 48.0000000  0 12                     
C01  38581852.886   200905827.207                                                                    38581849.241   163252432.840                                  
C02  36963166.212   192476892.732                                                                    36963149.272   156403173.992                                  
C03  37001921.014   192678713.204                                                                    37001907.219   156567181.713                                  
C07                                                                                                  37175363.933   157301120.719                                  
C08  38325170.143   199569238.056                                                                    38325168.302   162166392.208                                  
C09  38667765.236   201353197.538    38667769.185   155699029.790                                    38667767.023   163615924.629                                  
C12  22734836.150   118386241.853                                                                    22734835.292    96198532.147                                  
C19  22267958.856   115955120.751                                    22267958.052    87384235.763    22267952.816    94222987.946    22267953.013   117018901.811  
C20  24506131.641   127609767.643                                    24506131.445    96167275.362    24506127.746   103693380.974    24506125.888   128780472.002  
C22  23540347.296   122580766.695                                    23540343.329    92377354.853                                                                  
C36  22558498.770   117468096.503                                    22558504.863    88524485.494    22558501.611    95452478.941    22558495.250   118545638.537  
C39  26323212.073   137071895.568                                    26323202.585   103297929.426    26323201.691   111382089.602    26323206.927   138329554.420  
> 2026 06 07 17 02 03.0000000  0 12                     
C01  38581830.317   200905709.526                                                                    38581826.708   163252337.218                                  
C02  36963367.650   192477941.382                                                                    36963350.585   156404026.121                                  
C03  37002071.435   192679496.854                                                                    37002057.694   156567818.514                                  
C07  37175370.956   193581910.030                                                                    37175365.417   157301130.499                                  
C08  38320213.955   199543430.123                                                                    38320212.275   162145421.217                                  
C09  38673299.255   201382014.555    38673303.311   155721312.933                                    38673301.131   163639340.797                                  
C12  22742150.423   118424327.924                                                                    22742148.868    96229480.176                                  
C19  22271149.585   115971736.610                                    22271149.656    87396757.555    22271144.295    94236489.700    22271143.402   117035670.118  
C20  24515250.043   127657250.815                                    24515250.204    96203058.821    24515246.844   103731964.943    24515243.271   128828390.799  
C22  23534732.920   122551533.035                                    23534728.685    92355324.307    23534725.701    99583103.3411                                 
C36  22556393.120   117457130.712                                    22556399.642    88516221.673    22556395.979    95443568.391    22556389.475   118534572.172  
C39  26317273.357   137040970.475                                    26317264.315   103274624.256    26317261.796   111356960.468    26317268.282   138298345.545  
> 2026 06 07 17 02 18.0000000  0 12                     
C01  38581805.515   200905580.424                                                                    38581801.870   163252232.338                                  
C02  36963566.889   192478978.764                                                                    36963549.735   156404869.117                                  
C03  37002219.730   192680269.068                                                                    37002206.007   156568446.027                                  
C07  37175368.847   193581895.544                                                                    37175362.182   157301118.836                                  
C08  38315258.124   199517625.673                                                                    38315256.534   162124453.000                                  
C09  38678833.202   201410831.427    38678837.348   155743595.982                                    38678835.275   163662756.880                                  
C12  22749477.795   118462481.414                                                                    22749474.167    96260482.972                                  
C19  22274361.416   115988461.537                                    22274361.524    87409361.532    22274355.984    94250080.063    22274355.127   117052548.473  
C20  24524374.538   127704766.481                                    24524375.699    96238866.808    24524371.143   103770575.285    24524367.319   128876342.351  
C22  23529135.306   122522386.411                                    23529131.053    92333359.306    23529129.498    99559419.467    23529129.784   123646388.704  
C36  22554294.135   117446199.966                                    22554300.622    88507984.263    22554297.798    95434686.297    22554290.401   118523541.169  
C39  26311336.821   137010065.547                                    26311330.334   103251334.146    26311326.064   111331847.633    26311333.926   138267157.057  
> 2026 06 07 17 02 33.0000000  0 13                     
C01  38581782.482   200905460.711                                                                    38581778.730   163252135.061                                  
C02  36963767.970   192480025.719                                                                    36963750.815   156405719.879                                  
C03  37002369.794   192681050.689                                                                    37002356.089   156569081.172                                  
C07  37175364.684   193581875.489                                                                    37175358.144   157301102.561                                  
C08  38310307.047   199491845.516                                                                    38310304.992   162103504.583                                  
C09  38684371.098   201439668.705    38684375.315   155765894.815                                    38684373.368   163686189.561                                  
C10                                                                                                  37315132.322   157892535.480                                  
C12  22756821.767   118500722.819                                                                    22756817.567    96291557.215                                  
C19  22277598.122   116005316.182                                    22277597.925    87422063.274    22277593.530    94263775.855    22277592.118   117069557.777  
C20  24533509.558   127752335.148                                    24533511.380    96274714.742    24533505.216   103809228.719    24533502.750   128924347.474  
C22  23523558.562   122493347.854                                    23523554.077    92311475.746    23523554.113    99535823.235    23523554.202   123617083.791  
C36  22552205.639   117435324.969                                    22552212.322    88499788.846    22552209.946    95425849.491    22552202.066   118512566.376  
C39  26305407.825   136979201.380                                    26305403.465   103228074.871    26305398.015   111306768.028    26305407.522   138236009.744  
> 2026 06 07 17 02 48.0000000  0 12                     
C01  38581760.128   200905344.258                                                                    38581756.393   163252040.447                                  
C02  36963969.675   192481076.087                                                                    36963952.485   156406573.406                                  
C03  37002520.484   192681835.549                                                                    37002506.760   156569718.964                                  
C07  37175358.001   193581843.582                                                                    37175352.426   157301076.556                                  
C08  38305360.044   199466083.619                                                                    38305357.024   162082571.014                                  
C09  38689911.728   201468520.261    38689915.945   155788204.715                                    38689913.801   163709633.827                                  
C12  22764181.392   118539045.774                                                                    22764178.372    96322697.711                                  
C19  22280858.790   116022294.349                                    22280856.931    87434858.064    22280853.358    94277571.995    22280852.553   117086691.684  
C20  24542653.798   127799950.463                                    24542655.156    96310597.828    24542648.741   103847920.032    24542648.384   128972399.680  
C22  23518001.368   122464411.446                                    23517997.294    92289669.187    23517996.793    99512310.045    23517997.204   123587881.962  
C36  22550126.614   117424499.475                                    22550133.154    88491630.728    22550130.903    95417052.902    22550122.915   118501641.554  
C39  26299487.479   136948371.889                                    26299483.387   103204841.711    26299477.025   111281716.671    26299488.086   138204897.364  
> 2026 06 07 17 03 03.0000000  0 13                     
C01  38581737.470   200905226.301                                                                    38581733.771   163251944.624                                  
C02  36964171.148   192482125.078                                                                    36964153.923   156407425.832                                  
C03  37002670.870   192682618.894                                                                    37002657.164   156570355.524                                  
C07  37175348.566   193581795.185                                                                    37175342.651   157301037.244                                  
C08  38300415.685   199440335.336                                                                    38300412.004   162061648.482                                  
C09  38695454.181   201497381.182    38695458.362   155810521.819                                    38695456.379   163733085.671                                  
C10                                                                                                  37315164.468   157892677.936                                  
C12  22771555.669   118577445.271                                                                    22771553.239    96353900.429                                  
C19  22284141.973   116039391.087                                    22284139.828    87447742.233    22284136.058    94291464.490    22284135.844   117103945.261  
C20  24551806.169   127847607.369                                    24551806.240    96346512.188    24551801.094   103886645.120    24551799.360   129020493.755  
C22  23512463.043   122435572.685                                    23512459.255    92267936.217    23512458.147    99488876.201    23512459.058   123558778.619  
C36  22548056.363   117413718.618                                    22548062.206    88483506.269    22548059.472    95408292.611    22548052.074   118490761.793  
C39  26293573.297   136917572.199                                    26293569.294   103181631.082    26293564.040   111256689.563    26293573.976   138173815.149  
> 2026 06 07 17 03 18.0000000  0 13                     
C01  38581714.544   200905107.001                                                                    38581710.863   163251847.680                                  
C02  36964372.389   192483172.855                                                                    36964355.128   156408277.261                                  
C03  37002821.005   192683400.866                                                                    37002807.317   156570990.969                                  
C07  37175336.594   193581730.382                                                                                                                                  
C08  38295473.667   199414600.877                                                                    38295470.004   162040737.197                                  
C09  38700998.492   201526251.554    38701002.477   155832846.222                                    38701000.118   163756545.223                                  
C10                                                                                                  37315174.761   157892724.706                                  
C12  22778944.493   118615921.182                                                                    22778941.830    96385165.241                                  
C19  22287447.903   116056606.482                                    22287447.009    87460715.835    22287442.881    94305453.403    22287442.131   117121318.601  
C20  24560966.259   127895305.707                                    24560965.865    96382457.826    24560961.684   103925403.917    24560960.898   129068629.722  
C22  23506943.641   122406831.956                                    23506939.978    92246277.116    23506938.656    99465522.005    23506939.478   123529774.170  
C36  22545994.421   117402982.477                                    22546000.961    88475415.481    22545997.280    95399568.659    22545989.918   118479927.143  
C39  26287664.082   136886802.642                                    26287660.723   103158443.119    26287658.668   111231686.837    26287663.099   138142763.379  
> 2026 06 07 17 03 33.0000000  0 13                     
C01  38581690.993   200904984.392                                                                    38581687.294   163251748.081                                  
C02  36964573.040   192484217.536                                                                    36964555.690   156409126.181                                  
C03  37002970.533   192684179.509                                                                    37002956.845   156571623.695                                  
C07  37175321.084   193581647.249                                                                                                                                  
C08  38290533.740   199388878.365                                                                    38290530.399   162019835.606                                  
C09  38706544.000   201555129.390    38706548.092   155855176.390                                    38706545.859   163780010.837                                  
C10                                                                                                  37315180.890   157892754.290                                  
C12  22786347.361   118654471.353                                                                    22786345.574    96416490.383                                  
C19  22290776.348   116073938.455                                    22290775.579    87473777.285    22290771.469    94319537.066    22290770.862   117138809.595  
C20  24570133.568   127943043.280                                    24570133.711    96418433.028    24570128.993   103964194.570    24570128.940   129116805.283  
C22  23501442.805   122378187.510                                    23501439.357    92224690.533    23501437.677    99442246.022    23501438.356   123500866.954  
C36  22543940.698   117392288.972                                    22543947.989    88467356.831    22543944.862    95390879.322    22543936.445   118469135.510  
C39  26281759.085   136856061.221                                    26281757.602   103135276.292    26281755.582   111206706.886    26281758.727   138111739.806  
> 2026 06 07 17 03 48.0000000  0 12                     
C01  38581667.477   200904862.155                                                                    38581663.796   163251648.773                                  
C02  36964773.799   192485262.723                                                                    36964756.377   156409975.511                                  
C03  37003120.133   192684958.492                                                                    37003106.445   156572256.708                                  
C07  37175302.410   193581549.589                                                                                                                                  
C08  38285596.511   199363171.536                                                                    38285593.813   161998946.734                                  
C09  38712091.278   201584018.118    38712095.852   155877515.001                                    38712093.547   163803485.312                                  
C12  22793765.400   118693099.177                                                                    22793763.756    96447878.628                                  
C19  22294127.897   116091390.569                                    22294126.575    87486929.258    22294122.501    94333718.340    22294122.197   117156421.782  
C20  24579309.472   127990823.507                                    24579309.972    96454440.374    24579304.129   104003019.897    24579303.861   129165023.861  
C22  23495961.250   122349643.288                                    23495958.016    92203179.510    23495956.032    99419051.511    23495956.801   123472060.859  
C36  22541896.107   117381641.719                                    22541902.504    88459333.040    22541900.645    95382227.564    22541891.693   118458390.578  
C39  26275861.307   136825351.388                                    26275859.788   103112133.324    26275856.786   111181752.730    26275860.377   138080748.257  
> 2026 06 07 17 04 03.0000000  0 12                     
C01  38581645.713   200904748.947                                                                    38581641.996   163251556.801                                  
C02  36964976.309   192486317.084                                                                    36964958.833   156410832.280                                  
C03  37003271.465   192685746.449                                                                    37003257.742   156572897.004                                  
C08  38280663.857   199337489.097                                                                    38280661.748   161978077.720                                  
C09  38717642.325   201612926.335    38717647.525   155899868.688                                    38717644.952   163826975.620                                  
C10                                                                                                  37315184.928   157892757.8371                                 
C12  22801200.021   118731813.016                                                                    22801198.234    96479336.795                                  
C19  22297504.035   116108971.305                                    22297503.034    87500178.183    22297498.210    94348004.131    22297499.103   117174163.829  
C20  24588495.257   128038654.745                                    24588496.008    96490486.148    24588489.504   104041886.651    24588489.575   129213293.903  
C22  23490500.709   122321208.137                                    23490497.314    92181750.632    23490494.669    99395945.631    23490495.724   123443364.811  
C36  22539861.897   117371049.204                                    22539867.133    88451350.531    22539865.775    95373620.294    22539857.448   118447700.910  
C39  26269972.248   136794681.925                                    26269969.729   103089020.772    26269965.262   111156831.353    26269970.980   138049797.400  
> 2026 06 07 17 04 18.0000000  0 11                     
C01  38581622.358   200904627.483                                                                    38581618.623   163251458.130                                  
C02  36965177.228   192487363.309                                                                    36965159.716   156411682.459                                  
C03  37003421.226   192686526.177                                                                    37003407.449   156573530.604                                  
C08  38275732.775   199311813.889                                                                    38275730.916   161957214.544                                  
C09  38723194.052   201641836.735    38723199.520   155922224.063                                    38723197.144   163850467.716                                  
C12  22808647.991   118770595.388                                                                    22808646.954    96510850.618                                  
C19  22300901.151   116126663.267                                    22300901.204    87513510.959    22300895.969    94362380.329    22300896.916   117192018.135  
C20  24597687.297   128086519.413                                    24597688.566    96526557.152    24597681.526   104080780.589    24597680.972   129261597.668  
C22  23485058.198   122292865.102                                    23485054.267    92160391.118    23485050.639    99372914.513    23485051.658   123414761.654  
C36  22537834.835   117360494.124                                    22537840.732    88443396.207    22537838.016    95365043.437    22537830.690   118437048.995  
C39  26264087.372   136764035.510                                    26264084.620   103065925.588    26264080.706   111131928.661    26264085.013   138018869.866  
> 2026 06 07 17 04 33.0000000  0 12                     
C01  38581599.396   200904508.032                                                                    38581595.626   163251361.097                                  
C02  36965378.594   192488411.718                                                                    36965361.029   156412534.398                                  
C03  37003571.343   192687307.861                                                                    37003557.566   156574165.810                                  
C08  38270805.195   199286156.218                                                                    38270803.497   161936365.643                                  
C09  38728748.191   201670759.560    38728753.874   155944589.019                                    38728751.032   163873969.850                                  
C10  37315182.284   194309958.283                                                                                                                                  
C12  22816111.042   118809456.273                                                                    22816110.095    96542428.256                                  
C19  22304322.282   116144476.668                                    22304322.211    87526935.215    22304316.904    94376855.172    22304318.262   117209994.974  
C20  24606887.664   128134427.539                                    24606889.326    96562660.857    24606882.018   104119709.834    24606882.965   129309945.323  
C22  23479635.235   122264624.524                                    23479630.929    92139108.938    23479626.265    99349966.752                                  
C36  22535816.994   117349986.624                                    22535823.569    88435477.733    22535820.156    95356505.241    22535812.741   118426445.078  
C39  26258208.695   136733422.380                                    26258204.853   103042855.453    26258202.155   111107052.997    26258206.051   137987975.876  
> 2026 06 07 17 04 48.0000000  0 12                     
C01  38581577.042   200904391.646                                                                    38581573.236   163251266.533                                  
C02  36965580.550   192489463.351                                                                    36965562.949   156413388.955                                  
C03  37003722.033   192688092.617                                                                    37003708.256   156574803.505                                  
C08  38265881.404   199260517.230                                                                    38265879.885   161915531.919                                  
C09  38734304.886   201699695.609    38734310.800   155966964.222                                    38734307.888   163897482.794                                  
C10  37315171.562   194309911.541                                                                                                                                  
C12  22823589.407   118848396.484                                                                    22823587.048    96574070.332                                  
C19  22307766.929   116162412.394                                    22307766.286    87540451.651    22307761.783    94391429.414    22307763.177   117228095.250  
C20  24616096.322   128182379.839                                    24616098.663    96598797.900    24616090.961   104158675.016    24616091.533   129358337.576  
C22  23474231.946   122236487.760                                    23474227.265    92117904.917    23474222.011    99327103.342    23474236.038   123357948.2791 
C36  22533808.623   117339527.616                                    22533815.556    88427595.805    22533812.321    95348006.474    22533804.406   118415890.137  
C39  26252337.310   136702843.503                                    26252329.447   103019811.185    26252327.106   111082205.249    26252335.719   137957116.401  
> 2026 06 07 17 05 03.0000000  0 12                     
C01  38581555.742   200904280.793                                                                    38581551.936   163251176.484                                  
C02  36965783.631   192490520.640                                                                    36965765.959   156414248.115                                  
C03  37003873.830   192688882.897                                                                    37003859.999   156575445.691                                  
C08  38260961.758   199234899.451                                                                    38260960.471   161894715.435                                  
C09  38739865.100   201728647.399    38739870.854   155989351.593                                    38739867.512   163921008.513                                  
C10  37315160.287   194309852.635                                                                                                                                  
C12  22831083.121   118887418.172                                                                    22831079.922    96605778.626                                  
C19  22311235.360   116180472.758                                    22311234.824    87554062.026    22311230.000    94406104.958    22311231.411   117246321.303  
C20  24625314.022   128230378.530                                    24625316.809    96634969.909    24625308.858   104197677.870    24625307.625   129406776.607  
C22  23468849.028   122208457.374                                    23468844.132    92096781.203    23468838.879    99304326.440    23468848.725   123329660.778  
C36  22531809.901   117329119.504                                    22531816.673    88419752.225    22531813.618    95339549.044    22531805.720   118405386.552  
C39  26246472.982   136672301.329                                    26246462.439   102996794.592    26246462.082   111057387.339    26246471.177   137926294.049  
> 2026 06 07 17 05 18.0000000  0 12                     
C01  38581530.725   200904150.559                                                                    38581526.901   163251070.668                                  
C02  36965982.996   192491558.688                                                                    36965965.288   156415091.631                                  
C03  37004021.911   192689653.753                                                                    37004007.991   156576072.091                                  
C08  38256041.594   199209278.017                                                                    38256040.200   161873895.975                                  
C09  38745423.564   201757589.889    38745429.246   156011731.758                                    38745425.511   163944526.631                                  
C10  37315140.792   194309736.5861                                                                                                                                 
C12  22838587.485   118926496.171                                                                    22838584.394    96637532.690                                  
C19  22314723.126   116198632.757                                    22314722.304    87567747.484    22314716.461    94420861.433    22314718.533   117264647.887  
C20  24634535.635   128278398.433                                    24634538.387    96671157.872    24634531.364   104236697.948    24634529.291   129455237.048  
C22  23463481.889   122180508.931                                    23463476.456    92075719.101    23463471.900    99281616.046    23463481.442   123301455.854  
C36  22529815.932   117318737.291                                    22529822.401    88411928.168    22529819.202    95331112.636    22529811.930   118394909.062  
C39  26240609.923   136641771.073                                    26240600.310   102973786.892    26240602.186   111032579.010    26240607.297   137895483.664  
> 2026 06 07 17 05 33.0000000  0 11                     
C01  38581506.995   200904026.938                                                                    38581503.153   163250970.247                                  
C02  36966183.665   192492603.515                                                                    36966165.885   156415940.664                                  
C03  37004171.224   192690431.218                                                                    37004157.286   156576703.874                                  
C08  38251125.969   199183679.051                                                                    38251123.914   161853094.773                                  
C09  38750985.082   201786548.974    38750990.836   156034124.773                                    38750986.780   163968058.248                                  
C12  22846107.824   118965656.332                                                                    22846104.197    96669353.486                                  
C19  22318234.818   116216918.253                                    22318233.406    87581527.511    22318228.420    94435719.896    22318229.868   117283101.131  
C20  24643766.397   128326465.267                                    24643768.523    96707381.229    24643762.573   104275756.170    24643759.464   129503744.845  
C22  23458135.227   122152668.551                                    23458129.902    92054738.460    23458125.989    99258993.435    23458135.263   123273359.963  
C36  22527831.917   117308406.877                                    22527838.654    88404143.137    22527834.937    95322718.350    22527828.111   118384483.848  
C39  26234753.012   136611278.644                                    26234745.310   102950807.701    26234747.579   111007801.398    26234749.277   137864711.515  
> 2026 06 07 17 05 48.0000000  0 12                     
C01  38581482.926   200903901.770                                                                    38581479.138   163250868.547                                  
C02  36966384.048   192493646.922                                                                    36966366.215   156416788.539                                  
C03  37004320.252   192691207.099                                                                    37004306.278   156577334.369                                  
C08  38246213.077   199158094.391                                                                    38246210.308   161832305.210                                  
C09  38756548.210   201815516.387    38756553.856   156056524.268                                    38756550.461   163991596.703                                  
C10                                  37315093.814   150252432.444                                                                                                  
C12  22853642.137   119004890.098                                                                    22853639.617    96701234.116                                  
C19  22321769.096   116235320.940                                    22321767.488    87595395.864    22321762.127    94450673.592    22321764.289   117301672.659  
C20  24653005.057   128374570.612                                    24653005.611    96743633.583    24653000.590   104314845.684    24652999.482   129552291.535  
C22  23452803.736   122124904.3361                                   23452802.413    92033833.239    23452799.572    99236452.130    23452808.292   123245365.070  
C36  22525856.568   117298119.931                                    22525863.823    88396390.874    22525859.731    95314359.395    22525852.083   118374102.558  
C39  26228902.854   136580815.733                                    26228894.778   102927850.819    26228895.403   110983047.862    26228898.584   137833969.144  
> 2026 06 07 17 06 03.0000000  0 11                     
C01  38581458.034   200903772.133                                                                    38581454.264   163250763.216                                  
C02  36966583.609   192494686.014                                                                    36966565.722   156417632.903                                  
C03  37004468.422   192691978.516                                                                    37004454.412   156577961.234                                  
C08  38241302.152   199132521.302                                                                    38241299.114   161811524.994                                  
C09  38762112.302   201844489.240    38762117.841   156078927.898                                    38762115.197   164015139.514                                  
C12  22861190.030   119044194.348                                                                    22861189.029    96733171.996                                  
C19  22325325.174   116253837.761                                    22325322.923    87609350.209    22325318.366    94465720.011    22325320.207   117320359.350  
C20  24662250.204   128422711.228                                    24662249.239    96779912.492    24662245.343   104353963.838    24662245.897   129600873.817  
C22  23447496.028   122097272.335                                    23447493.580    92013001.419    23447491.525    99213989.986    23447499.245   123217468.586  
C36  22523888.867   117287873.522                                    22523896.014    88388669.159    22523892.494    95306033.348    22523884.257   118363762.158  
C39  26223057.968   136550379.430                                    26223050.303   102904913.942    26223048.015   110958315.937    26223054.001   137803253.601  
> 2026 06 07 17 06 18.0000000  0 12                     
C01  38581434.554   200903650.068                                                                    38581430.802   163250664.046                                  
C02  36966784.636   192495732.815                                                                    36966766.731   156418483.526                                  
C03  37004618.039   192692757.456                                                                    37004603.940   156578594.225                                  
C08  38236395.657   199106971.791                                                                    38236392.870   161790763.971                                  
C09  38767679.914   201873479.237    38767685.060   156101344.846                                    38767683.220   164038696.269                                  
C10                                  37315035.579   150252187.189                                                                                                  
C12  22868753.594   119083580.824                                                                    22868752.844    96765176.741                                  
C19  22328905.144   116272480.604                                    22328903.768    87623399.543    22328899.444    94480868.863    22328900.498   117339173.252  
C20  24671503.731   128470898.866                                    24671502.784    96816226.902    24671499.121   104393120.231    24671498.799   129649503.529  
C22  23442204.350   122069691.1581                                   23442205.993    91992252.246    23442204.189    99191616.953    23442211.283   123189682.696  
C36  22521930.958   117277679.558                                    22521937.087    88380986.961    22521934.585    95297749.915    22521926.812   118353474.645  
C39  26217220.302   136519981.865                                    26217214.083   102882006.270    26217211.117   110933615.456    26217215.852   137772577.223  
> 2026 06 07 17 06 33.0000000  0 12                     
C01  38581410.735   200903526.267                                                                    38581407.000   163250563.455                                  
C02  36966985.359   192496778.008                                                                    36966967.436   156419332.857                                  
C03  37004767.281   192693534.625                                                                    37004753.218   156579225.752                                  
C08  38231491.879   199081436.686                                                                    38231489.413   161770014.635                                  
C09  38773248.938   201902477.126    38773253.691   156123767.875                                    38773252.065   164062259.436                                  
C10                                  37315001.646   150252048.991                                                                                                  
C12  22876331.865   119123040.050                                                                    22876329.703    96797240.561                                  
C19  22332507.449   116291240.035                                    22332507.128    87637536.748    22332502.446    94496112.460    22332503.232   117358104.808  
C20  24680764.138   128519123.991                                    24680764.245    96852569.499    24680759.581   104432307.065    24680759.134   129698171.080  
C22  23436939.903   122042258.476                                    23436937.973    91971578.901    23436936.419    99169325.657    23436941.869   123161998.329  
C36  22519981.698   117267528.580                                    22519988.166    88373337.187    22519984.503    95289501.459    22519977.391   118343230.565  
C39  26211386.923   136489613.709                                    26211382.349   102859120.659    26211379.686   110908938.811    26211385.387   137741930.337  
> 2026 06 07 17 06 48.0000000  0 12                     
C01  38581388.667   200903411.424                                                                    38581384.878   163250470.167                                  
C02  36967187.850   192497832.296                                                                    36967169.892   156420189.574                                  
C03  37004918.257   192694320.732                                                                    37004904.176   156579864.555                                  
C08  38226593.033   199055926.756                                                                    38226590.764   161749285.788                                  
C09  38778821.375   201931493.474    38778825.717   156146205.165                                    38778824.091   164085837.605                                  
C10                                  37314965.586   150251903.951                                                                                                  
C12  22883925.699   119162582.385                                                                    22883922.822    96829371.917                                  
C19  22336134.522   116310126.660                                    22336132.860    87651769.790    22336128.768    94511459.383    22336129.429   117377164.658  
C20  24690033.389   128567396.905                                    24690034.658    96888948.190    24690029.226   104471532.799    24690030.387   129746886.906  
C22  23431693.790   122014937.194                                    23431691.449    91950989.551    23431689.841    99147124.950    23431694.076   123134426.487  
C36  22518042.784   117257431.244                                    22518049.699    88365727.821    22518045.911    95281296.586    22518038.048   118333040.625  
C39  26205562.247   136459285.430                                    26205557.977   102836265.204    26205554.135   110884294.673    26205563.016   137711323.861  
> 2026 06 07 17 07 03.0000000  0 12                     
C01  38581364.097   200903283.645                                                                    38581360.326   163250366.347                                  
C02  36967387.858   192498873.772                                                                    36967369.882   156421035.880                                  
C03  37005066.748   192695093.871                                                                    37005052.632   156580492.807                                  
C08  38221694.508   199030420.159                                                                    38221692.954   161728559.629                                  
C09  38784392.829   201960506.254    38784397.046   156168639.691                                    38784395.206   164109412.837                                  
C10                                  37314923.630   150251735.152                                                                                                  
C12  22891530.863   119202185.627                                                                    22891528.486    96861552.790                                  
C19  22339781.786   116329118.409                                    22339779.552    87666082.026    22339775.728    94526891.716    22339776.586   117396330.635  
C20  24699308.431   128615695.570                                    24699310.164    96925346.268    24699304.285   104510779.393    24699306.162   129795628.707  
C22  23426465.028   121987705.782                                    23426462.205    91930467.886    23426460.418    99124997.232    23426464.170   123106945.283  
C36  22516109.623   117247365.562                                    22516116.592    88358142.305    22516113.412    95273117.412    22516105.138   118322882.562  
C39  26199741.645   136428975.243                                    26199737.053   102813423.399    26199733.872   110859665.199    26199741.717   137680735.625  
> 2026 06 07 17 07 18.0000000  0 13                     
C01  38581341.975   200903168.585                                                                    38581338.222   163250272.884                                  
C02  36967590.350   192499928.098                                                                    36967572.338   156421892.632                                  
C03  37005217.652   192695879.658                                                                    37005203.553   156581131.357                                  
C07  37174742.127   193578621.0381                                                                                                                                 
C08  38216801.237   199004942.627                                                                    38216800.969   161707857.076                                  
C09  38789968.322   201989541.054    38789972.485   156191091.272                                    38789970.484   164133006.057                                  
C10                                  37314880.601   150251562.347                                                                                                  
