% program   : rtklib_java
% inp file  : rover_0608.obs
% inp file  : base_0608.obs
% inp file  : rover_0608.nav
%
% (x/y/z-ecef=WGS84,Q=1:fix,2:float,3:sbas,4:dgps,5:single,6:ppp,ns=# of satellites)
%  GPST                      x-ecef(m)      y-ecef(m)      z-ecef(m)   Q  ns   sdx(m)   sdy(m)   sdz(m)  sdxy(m)  sdyz(m)  sdzx(m) age(s)  ratio
2026/06/07 17:00:18.000   -492867.5015   5551484.1618   3092902.3996  2 10
2026/06/07 17:00:18.000   -492867.6478   5551484.2610   3092901.7951  2 10
2026/06/07 17:00:18.000   -492870.6078   5551491.8650   3092906.5389  2 10
2026/06/07 17:00:18.000   -492869.9403   5551486.8087   3092903.6351  2  8
2026/06/07 17:00:18.000   -492874.9246   5551461.0354   3092913.5365  2  9
2026/06/07 17:00:18.000   -492873.2720   5551470.0751   3092913.4855  2  9
2026/06/07 17:00:18.000   -492871.7882   5551475.5554   3092912.5425  2  9
2026/06/07 17:00:18.000   -492870.4417   5551479.5241   3092910.7982  2  9
2026/06/07 17:00:18.000   -492868.9886   5551481.8360   3092909.0546  2 10
2026/06/07 17:00:18.000   -492867.5660   5551483.1842   3092907.5037  2 10
2026/06/07 17:00:18.000   -492866.4233   5551483.8580   3092906.0999  2  9
2026/06/07 17:00:18.000   -492865.5084   5551484.1741   3092904.7496  2 10
2026/06/07 17:00:18.000   -492864.7172   5551483.9302   3092903.7100  2  9
2026/06/07 17:00:18.000   -492864.0962   5551483.6867   3092902.9162  2  9
2026/06/07 17:00:18.000   -492863.6542   5551483.3530   3092902.2602  2  9
2026/06/07 17:00:18.000   -492863.2353   5551483.2660   3092901.6145  2  9
2026/06/07 17:00:18.000   -492863.1265   5551483.2938   3092901.0483  2  9
2026/06/07 17:00:18.000   -492862.9963   5551483.2864   3092900.5416  2 10
2026/06/07 17:00:18.000   -492862.8361   5551483.1310   3092900.1122  2  9
2026/06/07 17:00:18.000   -492862.7031   5551483.0307   3092899.7279  2 10
2026/06/07 17:00:18.000   -492862.5498   5551482.9891   3092899.3701  2 10
2026/06/07 17:00:18.000   -492862.4196   5551482.9483   3092899.0643  2 10
2026/06/07 17:00:18.000   -492867.5728   5551477.6050   3092900.6500  2 10
2026/06/07 17:00:18.000   -492868.4273   5551472.9088   3092900.7370  2 10
2026/06/07 17:00:18.000   -492868.0388   5551472.7674   3092899.8208  2  9
2026/06/07 17:00:18.000   -492868.0969   5551473.8747   3092899.6338  2 10
2026/06/07 17:00:18.000   -492868.0328   5551474.8907   3092899.3908  2 10
2026/06/07 17:00:18.000   -492867.9322   5551475.8194   3092899.1268  2 10
2026/06/07 17:00:18.000   -492867.7203   5551476.5932   3092898.9044  2 10
2026/06/07 17:00:18.000   -492867.5514   5551477.2535   3092898.7225  2 10
2026/06/07 17:00:18.000   -492867.3483   5551477.8475   3092898.5186  2 10
2026/06/07 17:00:18.000   -492867.1727   5551478.2976   3092898.4018  2  9
2026/06/07 17:00:18.000   -492866.4607   5551478.1767   3092898.7125  2  9
2026/06/07 17:00:18.000   -492865.8648   5551478.3205   3092897.9290  2 10
2026/06/07 17:00:18.000   -492866.1881   5551478.9960   3092897.4069  2 10
2026/06/07 17:00:18.000   -492866.4306   5551479.4231   3092897.7235  2 10
2026/06/07 17:00:18.000   -492866.3897   5551479.6400   3092897.5697  2 10
2026/06/07 17:00:18.000   -492866.3308   5551479.8324   3092897.4316  2 10
2026/06/07 17:00:18.000   -492866.2559   5551479.9736   3092897.2978  2 10
2026/06/07 17:00:18.000   -492866.1800   5551480.1544   3092897.1780  2 10
2026/06/07 17:00:18.000   -492866.1785   5551480.2383   3092897.1300  2  9
2026/06/07 17:00:18.000   -492866.3860   5551480.3898   3092897.0600  2  9
2026/06/07 17:00:18.000   -492866.5722   5551480.5103   3092896.9895  2 10
2026/06/07 17:00:18.000   -492866.6599   5551480.6320   3092896.9267  2  9
2026/06/07 17:00:18.000   -492866.7137   5551480.7137   3092896.8539  2  9
2026/06/07 17:00:18.000   -492867.0812   5551482.6534   3092896.4548  2 10
2026/06/07 17:00:18.000   -492866.8653   5551482.9295   3092896.0013  2  9
2026/06/07 17:00:18.000   -492866.5941   5551483.1371   3092895.8671  2  9
2026/06/07 17:00:18.000   -492866.3814   5551483.3041   3092895.7494  2 10
2026/06/07 17:00:18.000   -492866.4881   5551483.5561   3092895.8243  2  9
2026/06/07 17:00:18.000   -492866.4689   5551483.5962   3092895.6975  2  9
2026/06/07 17:00:18.000   -492866.4585   5551483.6198   3092895.5951  2 10
2026/06/07 17:00:18.000   -492866.4559   5551483.6906   3092895.5003  2  9
2026/06/07 17:00:18.000   -492866.4918   5551483.7594   3092895.4275  2  9
2026/06/07 17:00:18.000   -492866.5027   5551483.8187   3092895.3654  2  9
2026/06/07 17:00:18.000   -492866.5080   5551483.8157   3092895.2817  2 10
2026/06/07 17:00:18.000   -492866.5253   5551483.8832   3092895.2364  2  9
2026/06/07 17:00:18.000   -492866.5290   5551483.9526   3092895.2129  2 10
2026/06/07 17:00:18.000   -492866.4544   5551483.9330   3092895.1744  2  9
2026/06/07 17:00:18.000   -492866.3820   5551483.9709   3092895.1543  2  9
2026/06/07 17:00:18.000   -492866.2897   5551484.0007   3092895.1225  2  9
2026/06/07 17:00:18.000   -492866.2555   5551484.0313   3092895.0804  2  9
2026/06/07 17:00:18.000   -492866.2257   5551484.0876   3092895.0621  2 10
2026/06/07 17:00:18.000   -492866.1849   5551484.1093   3092895.0327  2 10
2026/06/07 17:00:18.000   -492866.1467   5551484.1390   3092895.0277  2 10
2026/06/07 17:00:18.000   -492866.0833   5551484.1385   3092894.9984  2 10
2026/06/07 17:00:18.000   -492866.0319   5551484.1576   3092894.9952  2 10
2026/06/07 17:00:18.000   -492865.9535   5551484.1597   3092894.9975  2  9
2026/06/07 17:00:18.000   -492865.8898   5551484.1302   3092894.9850  2  9
2026/06/07 17:00:18.000   -492865.8453   5551484.1493   3092894.9906  2 10
2026/06/07 17:00:18.000   -492865.7878   5551484.1301   3092894.9641  2 10
2026/06/07 17:00:18.000   -492865.7291   5551484.1413   3092894.9552  2 10
2026/06/07 17:00:18.000   -492865.6920   5551484.1713   3092894.9337  2 10
2026/06/07 17:00:18.000   -492865.6403   5551484.1714   3092894.9249  2 10
2026/06/07 17:00:18.000   -492865.6088   5551484.1950   3092894.9360  2 10
2026/06/07 17:00:18.000   -492865.5637   5551484.2022   3092894.9209  2 10
2026/06/07 17:00:18.000   -492865.4921   5551484.2166   3092894.9069  2 11
2026/06/07 17:00:18.000   -492865.6936   5551484.1159   3092895.2418  2 11
2026/06/07 17:00:18.000   -492865.4824   5551484.1196   3092895.1164  2 11
2026/06/07 17:00:18.000   -492865.3835   5551484.1393   3092895.0964  2 10
2026/06/07 17:00:18.000   -492866.6311   5551483.4182   3092896.4179  2 10
2026/06/07 17:00:18.000   -492866.7952   5551484.7005   3092897.2176  2 12
2026/06/07 17:00:18.000   -492866.3649   5551484.4554   3092896.8617  2 12
2026/06/07 17:00:18.000   -492865.9501   5551484.2232   3092896.5764  2 12
2026/06/07 17:00:18.000   -492864.9389   5551484.1154   3092895.3074  2 11
2026/06/07 17:00:18.000   -492864.8974   5551483.9761   3092895.2002  2 11
2026/06/07 17:00:18.000   -492864.8778   5551483.9055   3092895.1463  2 11
2026/06/07 17:00:18.000   -492864.8668   5551483.8246   3092895.0984  2 11
2026/06/07 17:00:18.000   -492864.8848   5551483.7817   3092895.0874  2 11
2026/06/07 17:00:18.000   -492864.8835   5551483.6939   3092895.0733  2 12
2026/06/07 17:00:18.000   -492864.8899   5551483.6130   3092895.0699  2 12
2026/06/07 17:00:18.000   -492864.8856   5551483.6154   3092895.0593  2 13
2026/06/07 17:00:18.000   -492864.9093   5551483.5971   3092895.0711  2 13
2026/06/07 17:00:18.000   -492864.9533   5551483.5642   3092895.0752  2 12
2026/06/07 17:00:18.000   -492864.9741   5551483.5081   3092895.0576  2 13
2026/06/07 17:00:18.000   -492865.0049   5551483.4763   3092895.0579  2 13
2026/06/07 17:00:18.000   -492865.0406   5551483.4717   3092895.0593  2 13
2026/06/07 17:00:18.000   -492865.1060   5551483.5928   3092895.1232  2 11
2026/06/07 17:00:18.000   -492865.1373   5551483.5789   3092895.1324  2 11
2026/06/07 17:00:18.000   -492865.1802   5551483.6776   3092895.1400  2 10
2026/06/07 17:00:18.000   -492867.6741   5551490.4203   3092895.2424  2 11
2026/06/07 17:00:18.000   -492868.8331   5551490.3167   3092893.2737  2 12
2026/06/07 17:00:18.000   -492871.0799   5551492.9507   3092892.6529  2 12
2026/06/07 17:00:18.000   -492873.2983   5551495.3209   3092891.9778  2 12
2026/06/07 17:00:18.000   -492875.4838   5551497.5204   3092891.3052  2 12
2026/06/07 17:00:18.000   -492877.5823   5551499.5388   3092890.6373  2 12
2026/06/07 17:00:18.000   -492880.1228   5551502.4644   3092890.4016  2 11
2026/06/07 17:00:18.000   -492882.1957   5551504.2548   3092889.6051  2 10
2026/06/07 17:00:18.000   -492884.2578   5551505.9223   3092889.0016  2 10
2026/06/07 17:00:18.000   -492886.2051   5551507.4749   3092888.4502  2 10
2026/06/07 17:00:18.000   -492888.4156   5551509.3516   3092888.5343  2  9
2026/06/07 17:00:18.000   -492889.6648   5551509.9867   3092887.3500  2  9
2026/06/07 17:00:18.000   -492889.5110   5551507.4436   3092887.1487  2  5
2026/06/07 17:00:18.000   -492865.1965   5551487.1357   3092897.8494  2  7
2026/06/07 17:00:18.000   -492867.8949   5551485.4459   3092898.7620  2 13
2026/06/07 17:00:18.000   -492867.8088   5551486.7622   3092900.5791  2 11
2026/06/07 17:00:18.000   -492867.5568   5551485.6391   3092900.7505  2 11
2026/06/07 17:00:18.000   -492864.2926   5551498.4657   3092904.6529  4  0
2026/06/07 17:00:18.000   -492859.6854   5551484.4737   3092890.4598  2 12
2026/06/07 17:00:18.000   -492859.7213   5551483.3094   3092890.9154  2 12
2026/06/07 17:00:18.000   -492860.4443   5551483.9881   3092892.8834  2 11
2026/06/07 17:00:18.000   -492861.4607   5551485.1880   3092895.3978  2 11
2026/06/07 17:00:18.000   -492861.7324   5551485.1308   3092895.8909  2 10
2026/06/07 17:00:18.000   -492861.7452   5551484.2011   3092895.3650  2 10
2026/06/07 17:00:18.000   -492861.8592   5551484.3567   3092895.4362  2 10
2026/06/07 17:00:18.000   -492861.9470   5551484.4506   3092895.4457  2  9
2026/06/07 17:00:18.000   -492862.0115   5551484.4043   3092895.1880  2  9
2026/06/07 17:00:18.000   -492862.1005   5551484.2148   3092895.1860  2  9
2026/06/07 17:00:18.000   -492862.0545   5551483.8713   3092895.1512  2  9
2026/06/07 17:00:18.000   -492862.2021   5551483.6629   3092895.2471  2  9
2026/06/07 17:00:18.000   -492862.1964   5551484.1790   3092895.3107  2 10
2026/06/07 17:00:18.000   -492862.2341   5551484.1546   3092895.4177  2 10
2026/06/07 17:00:18.000   -492862.1836   5551483.9371   3092895.4731  2 10
2026/06/07 17:00:18.000   -492853.1417   5551452.4479   3092871.3123  4  1
2026/06/07 17:00:18.000   -492860.8773   5551476.3651   3092890.6103  2 10
2026/06/07 17:00:18.000   -492863.2226   5551482.1001   3092894.5452  2 11
2026/06/07 17:00:18.000   -492864.2041   5551481.8835   3092895.7737  2 11
2026/06/07 17:00:18.000   -492864.4852   5551482.5970   3092896.3012  2 10
2026/06/07 17:00:18.000   -492864.5571   5551482.9243   3092896.3320  2  9
2026/06/07 17:00:18.000   -492864.4384   5551483.5253   3092896.2176  2  9
2026/06/07 17:00:18.000   -492864.2901   5551484.0024   3092896.0209  2  9
2026/06/07 17:00:18.000   -492864.1560   5551483.8433   3092895.8696  2  9
2026/06/07 17:00:18.000   -492864.1093   5551483.4158   3092895.9315  2  9
2026/06/07 17:00:18.000   -492864.1061   5551483.1351   3092895.9807  2  9
2026/06/07 17:00:18.000   -492864.1546   5551482.7021   3092895.9886  2  9
2026/06/07 17:00:18.000   -492864.3384   5551482.2627   3092896.0687  2  9
2026/06/07 17:00:18.000   -492864.0322   5551483.7772   3092893.4751  4  3
2026/06/07 17:00:18.000   -492863.9652   5551485.2266   3092893.4942  2 11
2026/06/07 17:00:18.000   -492864.0042   5551485.2574   3092894.7609  2 11
2026/06/07 17:00:18.000   -492863.8730   5551484.8902   3092895.0241  2 12
2026/06/07 17:00:18.000   -492863.7865   5551484.3140   3092895.4343  2 10
2026/06/07 17:00:18.000   -492863.7447   5551483.8373   3092895.6131  2 10
2026/06/07 17:00:18.000   -492863.9357   5551483.8544   3092896.2328  2 10
2026/06/07 17:00:18.000   -492864.2845   5551484.2015   3092896.6104  2 10
2026/06/07 17:00:18.000   -492864.5638   5551484.0346   3092896.6288  2 10
2026/06/07 17:00:18.000   -492864.6863   5551483.9200   3092896.6068  2 10
2026/06/07 17:00:18.000   -492864.7067   5551483.1021   3092896.9042  2  9
2026/06/07 17:00:18.000   -492864.4890   5551482.8197   3092896.8909  2 10
2026/06/07 17:00:18.000   -492864.4189   5551482.6415   3092897.0927  2 11
2026/06/07 17:00:18.000   -492864.4123   5551482.4646   3092897.1709  2  9
2026/06/07 17:00:18.000   -492864.3841   5551482.1967   3092897.2196  2  9
2026/06/07 17:00:18.000   -492862.8061   5551480.4514   3092896.5634  2 11
2026/06/07 17:00:18.000   -492862.3495   5551479.6845   3092896.3818  2 11
2026/06/07 17:00:18.000   -492862.4393   5551479.8687   3092896.3851  2 10
2026/06/07 17:00:18.000   -492862.6071   5551480.2117   3092896.4974  2 11
2026/06/07 17:00:18.000   -492862.7102   5551480.4629   3092896.5783  2 12
2026/06/07 17:00:18.000   -492862.7906   5551480.6377   3092896.6247  2 12
2026/06/07 17:00:18.000   -492862.8075   5551480.8152   3092896.7091  2 11
2026/06/07 17:00:18.000   -492862.8343   5551480.9637   3092896.8190  2 11
2026/06/07 17:00:18.000   -492862.8696   5551481.0386   3092897.0102  2 11
2026/06/07 17:00:18.000   -492862.9216   5551481.1815   3092897.2051  2 11
2026/06/07 17:00:18.000   -492862.9179   5551481.1059   3092897.2115  2  9
2026/06/07 17:00:18.000   -492862.9068   5551481.0978   3092897.2090  2 10
2026/06/07 17:00:18.000   -492862.8739   5551481.0051   3092897.2352  2 12
2026/06/07 17:00:18.000   -492862.8904   5551480.9288   3092897.2619  2 12
2026/06/07 17:00:18.000   -492862.9156   5551480.9559   3092897.2175  2 11
2026/06/07 17:00:18.000   -492864.2642   5551476.7043   3092900.9438  2 11
2026/06/07 17:00:18.000   -492865.8191   5551473.1055   3092903.2862  2 10
2026/06/07 17:00:18.000   -492864.1650   5551466.5572   3092904.7649  2 11
2026/06/07 17:00:18.000   -492863.1896   5551463.2609   3092907.0021  2 12
2026/06/07 17:00:18.000   -492864.7492   5551464.1788   3092909.1709  2 10
2026/06/07 17:00:18.000   -492866.9619   5551465.2968   3092910.2993  2 10
2026/06/07 17:00:18.000   -492868.3186   5551464.7373   3092910.3848  2 10
2026/06/07 17:00:18.000   -492869.4179   5551464.3618   3092910.3857  2 12
2026/06/07 17:00:18.000   -492870.3377   5551464.0803   3092910.3187  2 12
2026/06/07 17:00:18.000   -492871.1067   5551463.9201   3092910.1979  2 12
2026/06/07 17:00:18.000   -492871.8033   5551463.8270   3092910.0242  2 12
2026/06/07 17:00:18.000   -492872.4267   5551463.8019   3092909.8032  2 12
2026/06/07 17:00:18.000   -492872.1145   5551462.5364   3092909.4282  2 11
2026/06/07 17:00:18.000   -492872.0458   5551462.1700   3092909.4123  2 10
2026/06/07 17:00:18.000   -492873.5409   5551460.3932   3092910.2936  2 10
2026/06/07 17:00:18.000   -492873.9352   5551457.4795   3092910.5536  2  9
2026/06/07 17:00:18.000   -492873.8855   5551453.9643   3092910.1501  2 10
2026/06/07 17:00:18.000   -492873.8586   5551451.1407   3092909.8864  2 11
2026/06/07 17:00:18.000   -492875.5762   5551448.0117   3092910.1057  2 11
2026/06/07 17:00:18.000   -492877.1327   5551447.5118   3092909.4838  2 10
2026/06/07 17:00:18.000   -492875.1619   5551446.2984   3092906.5812  2  9
2026/06/07 17:00:18.000   -492877.6720   5551446.1281   3092907.0687  2 10
2026/06/07 17:00:18.000   -492878.4444   5551446.5913   3092905.5374  2 10
2026/06/07 17:00:18.000   -492879.1598   5551447.1372   3092904.2120  2 10
2026/06/07 17:00:18.000   -492879.7776   5551447.7789   3092903.1087  2 10
2026/06/07 17:00:18.000   -492880.2432   5551448.2989   3092902.0872  2 10
2026/06/07 17:00:18.000   -492880.6234   5551448.8189   3092901.1750  2 11
2026/06/07 17:00:18.000   -492878.8400   5551448.4951   3092899.4561  2  8
2026/06/07 17:00:18.000   -492878.2860   5551448.2487   3092899.4598  2  9
2026/06/07 17:00:18.000   -492877.3961   5551447.2943   3092898.9857  2  8
2026/06/07 17:00:18.000   -492876.8294   5551447.0787   3092899.1837  2  9
2026/06/07 17:00:18.000   -492876.3451   5551447.0450   3092899.4792  2  9
2026/06/07 17:00:18.000   -492875.8710   5551446.9872   3092899.7347  2 11
2026/06/07 17:00:18.000   -492875.3520   5551446.8290   3092899.9405  2 10
2026/06/07 17:00:18.000   -492874.5398   5551446.7958   3092899.6405  2 12
2026/06/07 17:00:18.000   -492874.8237   5551447.5372   3092899.5982  2  9
2026/06/07 17:00:18.000   -492876.7314   5551451.9800   3092899.3000  2 12
2026/06/07 17:00:18.000   -492877.8714   5551451.8880   3092898.6143  2 12
2026/06/07 17:00:18.000   -492877.8855   5551450.3650   3092897.7695  2 11
2026/06/07 17:00:18.000   -492877.9528   5551449.4950   3092897.3793  2 11
2026/06/07 17:00:18.000   -492878.2664   5551449.6086   3092897.2625  2 11
2026/06/07 17:00:18.000   -492878.0440   5551448.3647   3092896.8757  2 12
2026/06/07 17:00:18.000   -492878.4047   5551449.1588   3092896.9662  2 12
2026/06/07 17:00:18.000   -492878.3862   5551451.8570   3092897.0939  2 11
2026/06/07 17:00:18.000   -492877.9136   5551453.4539   3092896.7247  2 10
2026/06/07 17:00:18.000   -492877.7384   5551454.2170   3092896.1844  2 10
2026/06/07 17:00:18.000   -492878.0824   5551451.5059   3092895.9170  2 10
2026/06/07 17:00:18.000   -492877.8551   5551453.8739   3092895.6741  2 11
2026/06/07 17:00:18.000   -492878.0093   5551452.9366   3092895.3451  2 10
2026/06/07 17:00:18.000   -492878.4888   5551450.9711   3092895.4279  2  7
2026/06/07 17:00:18.000   -492878.6712   5551452.0991   3092895.5250  2  9
2026/06/07 17:00:18.000   -492878.8910   5551451.2190   3092896.0562  2  6
2026/06/07 17:00:18.000   -492878.9811   5551453.2778   3092895.8746  2  5
2026/06/07 17:00:18.000   -492869.8582   5551509.3463   3092916.7938  2  6
2026/06/07 17:00:18.000   -492861.3552   5551484.6833   3092902.4670  2  7
2026/06/07 17:00:18.000   -492860.8329   5551482.5847   3092901.1427  2  8
2026/06/07 17:00:18.000   -492864.6802   5551500.4997   3092894.6281  2  7
2026/06/07 17:00:18.000   -492869.2365   5551487.6132   3092893.8692  2  9
2026/06/07 17:00:18.000   -492868.7574   5551488.1780   3092894.3418  2 10
2026/06/07 17:00:18.000   -492868.8694   5551492.0303   3092895.3253  2  9
2026/06/07 17:00:18.000   -492868.8821   5551488.7813   3092895.9463  2  9
2026/06/07 17:00:18.000   -492868.2303   5551487.0629   3092895.3065  2 11
2026/06/07 17:00:18.000   -492867.7076   5551485.6931   3092894.9054  2 10
2026/06/07 17:00:18.000   -492867.4347   5551485.5198   3092894.9394  2  9
