% program   : rnx2rtkp ver.EX 2.5.0
% inp file  : rover_0608.obs
% inp file  : base_0608.obs
% inp file  : base_0608.nav
% inp file  : rover_0608.nav
% obs start : 2026/06/07 17:00:18.0 GPST (week2422  61218.0s)
% obs end   : 2026/06/07 18:00:03.0 GPST (week2422  64803.0s)
% ref pos   :   -493099.3671   5551412.6391   3092558.0152
%
% (x/y/z-ecef=WGS84,Q=1:fix,2:float,3:sbas,4:dgps,5:single,6:ppp,ns=# of satellites)
%  GPST                      x-ecef(m)      y-ecef(m)      z-ecef(m)   Q  ns   sdx(m)   sdy(m)   sdz(m)  sdxy(m)  sdyz(m)  sdzx(m) age(s)  ratio
2026/06/07 17:00:18.000   -492867.5990   5551484.5322   3092902.6159   2  10   2.2699   4.4585   3.1955  -1.8559   3.0407  -2.2454   0.00    0.0
2026/06/07 17:00:33.000   -492867.6767   5551484.4203   3092901.8473   2  10   1.4002   3.1945   1.7511  -1.3338   1.9303  -1.1366   0.00    0.0
2026/06/07 17:00:48.000   -492867.8752   5551484.0086   3092901.2899   2  10   5.8249   1.9196   0.0000  -2.5750  -0.4612  -1.5947   0.00    0.0
2026/06/07 17:01:03.000   -492868.1269   5551482.7783   3092900.5324   2   8   1.0016   1.9727   0.8986  -0.8313   0.8382  -0.5646   0.00    0.0
2026/06/07 17:01:18.000   -492868.0807   5551481.2963   3092899.5332   2   9   0.8853   1.6625   0.7121  -0.6495   0.5172  -0.4480   0.00    0.0
2026/06/07 17:01:33.000   -492867.2545   5551480.6584   3092898.1978   2   9   0.8024   1.4504   0.5834  -0.5291   0.2680  -0.3632   0.00    0.0
2026/06/07 17:01:48.000   -492866.7943   5551480.7898   3092897.6441   2   9   0.7388   1.2864   0.4906  -0.4474  -0.1303  -0.3014   0.00    0.0
2026/06/07 17:02:03.000   -492866.2625   5551480.8750   3092897.3778   2  10   0.6762   1.1032   0.4173  -0.3339  -0.1951  -0.2666   0.00    0.0
2026/06/07 17:02:18.000   -492865.7554   5551481.2972   3092897.1925   2  10   0.6281   0.9631   0.3583  -0.2731  -0.2046  -0.2332   0.00    0.0
2026/06/07 17:02:33.000   -492865.3180   5551481.7424   3092897.0854   2  10   0.5872   0.8439   0.3095  -0.2452  -0.1902  -0.2017   0.00    0.0
2026/06/07 17:02:48.000   -492865.0425   5551481.9254   3092896.9720   2  10   0.5538   0.7550   0.2730  -0.2157  -0.1863  -0.1801   0.00    0.0
2026/06/07 17:03:03.000   -492864.8352   5551482.0876   3092896.7039   2  10   0.5248   0.6817   0.2427  -0.1987  -0.1785  -0.1605   0.00    0.0
2026/06/07 17:03:18.000   -492864.8042   5551481.9913   3092896.5716   2   9   0.5039   0.6274   0.2179  -0.2071  -0.1733  -0.1391   0.00    0.0
2026/06/07 17:03:33.000   -492864.8264   5551481.9161   3092896.5563   2   9   0.4856   0.5786   0.1966  -0.2135  -0.1653  -0.1208   0.00    0.0
2026/06/07 17:03:48.000   -492864.9054   5551481.8203   3092896.5555   2   9   0.4686   0.5349   0.1787  -0.2181  -0.1565  -0.1030   0.00    0.0
2026/06/07 17:04:03.000   -492864.9160   5551481.9946   3092896.4629   2   9   0.4536   0.4959   0.1631  -0.2212  -0.1474  -0.0872   0.00    0.0
2026/06/07 17:04:18.000   -492865.0708   5551482.1800   3092896.3886   2   9   0.4364   0.4572   0.1493  -0.2154  -0.1366  -0.0761   0.00    0.0
2026/06/07 17:04:33.000   -492865.2186   5551482.1304   3092896.2813   2  10   0.4203   0.4264   0.1376  -0.2102  -0.1230  -0.0624   0.00    0.0
2026/06/07 17:04:48.000   -492865.2815   5551481.9812   3092896.2042   2  10   0.4063   0.3999   0.1274  -0.2046  -0.1124  -0.0507   0.00    0.0
2026/06/07 17:05:03.000   -492865.3420   5551481.9511   3092896.1313   2  10   0.3935   0.3756   0.1183  -0.2004  -0.1030  -0.0377   0.00    0.0
2026/06/07 17:05:18.000   -492865.3408   5551482.0079   3092896.0446   2  10   0.3816   0.3530   0.1101  -0.1973  -0.0944  -0.0211   0.00    0.0
2026/06/07 17:05:33.000   -492865.3502   5551482.0572   3092895.9825   2  10   0.3705   0.3321   0.1027  -0.1949  -0.0866   0.0197   0.00    0.0
2026/06/07 17:05:48.000   -492865.4630   5551482.0232   3092895.9078   2  10   0.3603   0.3137   0.0964  -0.1914  -0.0809   0.0302   0.00    0.0
2026/06/07 17:06:03.000   -492864.7492   5551482.0410   3092895.5827   2  10   0.3511   0.2982   0.0908  -0.1879  -0.0768   0.0367   0.00    0.0
2026/06/07 17:06:18.000   -492865.1429   5551483.3359   3092895.2358   2  10   0.3423   0.2837   0.0856  -0.1848  -0.0727   0.0412   0.00    0.0
2026/06/07 17:06:33.000   -492865.2029   5551484.8287   3092894.9982   2  10   0.3344   0.2756   0.0824  -0.1805  -0.0751   0.0429   0.00    0.0
2026/06/07 17:06:48.000   -492865.3719   5551484.0098   3092895.2410   2  10   0.3271   0.2593   0.0777  -0.1783  -0.0684   0.0450   0.00    0.0
2026/06/07 17:07:03.000   -492865.6769   5551484.0624   3092895.3597   2  10   0.3196   0.2480   0.0735  -0.1759  -0.0653   0.0477   0.00    0.0
2026/06/07 17:07:18.000   -492865.8862   5551484.0757   3092895.4364   2  10   0.3139   0.2384   0.0698  -0.1758  -0.0631   0.0510   0.00    0.0
2026/06/07 17:07:33.000   -492866.0780   5551484.1138   3092895.5293   2  10   0.3087   0.2294   0.0666  -0.1753  -0.0611   0.0534   0.00    0.0
2026/06/07 17:07:48.000   -492866.1703   5551484.1567   3092895.5456   2  10   0.3036   0.2212   0.0636  -0.1746  -0.0595   0.0551   0.00    0.0
2026/06/07 17:08:03.000   -492866.1787   5551484.1065   3092895.6455   2  10   0.2976   0.2130   0.0610  -0.1720  -0.0579   0.0560   0.00    0.0
2026/06/07 17:08:18.000   -492866.2130   5551484.0154   3092895.9533   2  10   0.2931   0.2061   0.0582  -0.1712  -0.0566   0.0570   0.00    0.0
2026/06/07 17:08:33.000   -492866.0220   5551483.7888   3092895.6654   2  10   0.2896   0.1996   0.0570  -0.1705  -0.0550   0.0559   0.00    0.0
2026/06/07 17:08:48.000   -492865.9162   5551483.7256   3092895.5124   2  11   0.2844   0.1933   0.0553  -0.1677  -0.0539   0.0554   0.00    0.0
2026/06/07 17:09:03.000   -492865.9558   5551483.7086   3092895.5264   2  10   0.2798   0.1872   0.0533  -0.1651  -0.0528   0.0554   0.00    0.0
2026/06/07 17:09:18.000   -492865.9783   5551483.6908   3092895.4870   2  10   0.2754   0.1816   0.0509  -0.1627  -0.0521   0.0556   0.00    0.0
2026/06/07 17:09:33.000   -492865.9856   5551483.6823   3092895.4715   2  10   0.2712   0.1763   0.0489  -0.1605  -0.0512   0.0556   0.00    0.0
2026/06/07 17:09:48.000   -492865.9895   5551483.6054   3092895.4418   2  10   0.2670   0.1714   0.0473  -0.1584  -0.0502   0.0556   0.00    0.0
2026/06/07 17:10:03.000   -492865.9860   5551483.6031   3092895.4290   2  10   0.2631   0.1668   0.0456  -0.1566  -0.0492   0.0555   0.00    0.0
2026/06/07 17:10:18.000   -492866.0296   5551483.5503   3092895.4393   2   9   0.2602   0.1633   0.0449  -0.1549  -0.0496   0.0549   0.00    0.0
2026/06/07 17:10:33.000   -492866.2720   5551483.5939   3092895.4455   2  10   0.2567   0.1598   0.0438  -0.1526  -0.0493   0.0543   0.00    0.0
2026/06/07 17:10:48.000   -492866.4489   5551483.5891   3092895.4397   2  10   0.2534   0.1565   0.0426  -0.1505  -0.0490   0.0536   0.00    0.0
2026/06/07 17:11:03.000   -492866.5776   5551483.6220   3092895.4429   2   9   0.2511   0.1546   0.0417  -0.1494  -0.0492   0.0535   0.00    0.0
2026/06/07 17:11:18.000   -492866.6824   5551483.5904   3092895.4243   2   9   0.2488   0.1518   0.0408  -0.1482  -0.0490   0.0532   0.00    0.0
2026/06/07 17:11:33.000   -492866.7233   5551483.5465   3092895.4372   2  10   0.2457   0.1488   0.0400  -0.1463  -0.0486   0.0526   0.00    0.0
2026/06/07 17:11:48.000   -492866.6837   5551483.5196   3092895.4307   2   9   0.2434   0.1464   0.0397  -0.1448  -0.0491   0.0521   0.00    0.0
2026/06/07 17:12:03.000   -492866.6270   5551483.4733   3092895.4588   2  10   0.2405   0.1438   0.0391  -0.1428  -0.0490   0.0513   0.00    0.0
2026/06/07 17:12:18.000   -492866.6007   5551483.4156   3092895.4741   2  10   0.2377   0.1414   0.0383  -0.1410  -0.0487   0.0506   0.00    0.0
2026/06/07 17:12:33.000   -492866.5442   5551483.3539   3092895.4801   2   9   0.2352   0.1394   0.0388  -0.1395  -0.0475   0.0491   0.00    0.0
2026/06/07 17:12:48.000   -492866.4778   5551483.2780   3092895.4691   2  10   0.2326   0.1371   0.0382  -0.1379  -0.0471   0.0485   0.00    0.0
2026/06/07 17:13:03.000   -492866.4217   5551483.2050   3092895.4850   2  10   0.2300   0.1349   0.0376  -0.1363  -0.0468   0.0480   0.00    0.0
2026/06/07 17:13:18.000   -492866.3800   5551483.1513   3092895.4962   2   9   0.2275   0.1326   0.0359  -0.1347  -0.0469   0.0479   0.00    0.0
2026/06/07 17:13:33.000   -492866.3514   5551483.1089   3092895.5198   2   9   0.2250   0.1307   0.0364  -0.1334  -0.0459   0.0470   0.00    0.0
2026/06/07 17:13:48.000   -492866.2958   5551483.0614   3092895.5337   2   9   0.2225   0.1284   0.0347  -0.1320  -0.0462   0.0471   0.00    0.0
2026/06/07 17:14:03.000   -492866.2307   5551482.9661   3092895.5234   2  10   0.2200   0.1265   0.0339  -0.1308  -0.0457   0.0469   0.00    0.0
2026/06/07 17:14:18.000   -492866.1714   5551482.9543   3092895.5328   2  10   0.2176   0.1245   0.0332  -0.1297  -0.0453   0.0467   0.00    0.0
2026/06/07 17:14:33.000   -492866.0836   5551482.9674   3092895.5384   2  10   0.2153   0.1228   0.0342  -0.1288  -0.0439   0.0458   0.00    0.0
2026/06/07 17:14:48.000   -492866.0750   5551482.9931   3092895.5682   2   9   0.2140   0.1213   0.0332  -0.1286  -0.0438   0.0456   0.00    0.0
2026/06/07 17:15:03.000   -492866.0426   5551482.9582   3092895.6040   2   9   0.2126   0.1197   0.0325  -0.1279  -0.0437   0.0455   0.00    0.0
2026/06/07 17:15:18.000   -492865.9949   5551482.9093   3092895.6169   2   9   0.2112   0.1182   0.0319  -0.1271  -0.0435   0.0453   0.00    0.0
2026/06/07 17:15:33.000   -492866.0300   5551482.8861   3092895.6166   2  10   0.2092   0.1165   0.0314  -0.1260  -0.0431   0.0450   0.00    0.0
2026/06/07 17:15:48.000   -492866.0601   5551482.8774   3092895.6314   2  10   0.2073   0.1146   0.0309  -0.1248  -0.0428   0.0447   0.00    0.0
2026/06/07 17:16:03.000   -492866.0874   5551482.8526   3092895.6352   2  10   0.2054   0.1130   0.0304  -0.1237  -0.0424   0.0444   0.00    0.0
2026/06/07 17:16:18.000   -492866.1175   5551482.8353   3092895.6553   2  10   0.2035   0.1115   0.0300  -0.1226  -0.0420   0.0442   0.00    0.0
2026/06/07 17:16:33.000   -492866.1239   5551482.7997   3092895.6526   2  10   0.2017   0.1101   0.0296  -0.1217  -0.0416   0.0439   0.00    0.0
2026/06/07 17:16:48.000   -492866.1400   5551482.7824   3092895.6686   2  10   0.1999   0.1087   0.0292  -0.1207  -0.0411   0.0437   0.00    0.0
2026/06/07 17:17:03.000   -492866.1355   5551482.7715   3092895.6931   2   9   0.1987   0.1080   0.0289  -0.1205  -0.0406   0.0436   0.00    0.0
2026/06/07 17:17:18.000   -492866.1506   5551482.7154   3092895.6955   2  10   0.1969   0.1067   0.0285  -0.1196  -0.0402   0.0433   0.00    0.0
2026/06/07 17:17:33.000   -492866.1804   5551482.7189   3092895.7175   2  10   0.1953   0.1051   0.0281  -0.1186  -0.0399   0.0431   0.00    0.0
2026/06/07 17:17:48.000   -492866.1917   5551482.6727   3092895.7012   2  10   0.1935   0.1039   0.0277  -0.1177  -0.0395   0.0429   0.00    0.0
2026/06/07 17:18:03.000   -492866.1978   5551482.6714   3092895.7037   2  10   0.1919   0.1027   0.0275  -0.1169  -0.0391   0.0428   0.00    0.0
2026/06/07 17:18:18.000   -492866.2025   5551482.6650   3092895.6661   2  10   0.1905   0.1020   0.0286  -0.1164  -0.0375   0.0417   0.00    0.0
2026/06/07 17:18:33.000   -492866.2103   5551482.6673   3092895.6717   2  10   0.1888   0.1007   0.0275  -0.1155  -0.0378   0.0419   0.00    0.0
2026/06/07 17:18:48.000   -492866.2328   5551482.6874   3092895.6893   2  10   0.1871   0.0996   0.0269  -0.1147  -0.0377   0.0419   0.00    0.0
2026/06/07 17:19:03.000   -492866.2310   5551482.6965   3092895.6783   2  10   0.1855   0.0985   0.0264  -0.1140  -0.0374   0.0418   0.00    0.0
2026/06/07 17:19:18.000   -492866.1807   5551482.7004   3092895.6527   2  11   0.1838   0.0979   0.0273  -0.1134  -0.0361   0.0413   0.00    0.0
2026/06/07 17:19:33.000   -492866.4084   5551482.6122   3092895.9927   2  11   0.1821   0.0967   0.0259  -0.1126  -0.0363   0.0417   0.00    0.0
2026/06/07 17:19:48.000   -492866.2202   5551482.6308   3092895.8714   2  11   0.1804   0.0956   0.0252  -0.1118  -0.0361   0.0418   0.00    0.0
2026/06/07 17:20:03.000   -492865.9486   5551482.6115   3092895.6184   2  10   0.1788   0.0951   0.0264  -0.1113  -0.0350   0.0411   0.00    0.0
2026/06/07 17:20:18.000   -492865.9164   5551482.6054   3092895.6269   2  11   0.1771   0.0942   0.0262  -0.1107  -0.0347   0.0411   0.00    0.0
2026/06/07 17:20:33.000   -492865.8867   5551482.5922   3092895.6262   2  12   0.1752   0.0933   0.0253  -0.1100  -0.0345   0.0413   0.00    0.0
2026/06/07 17:20:48.000   -492865.8442   5551482.5894   3092895.6311   2  12   0.1734   0.0921   0.0239  -0.1093  -0.0347   0.0414   0.00    0.0
2026/06/07 17:21:03.000   -492865.7822   5551482.5844   3092895.6217   2  12   0.1717   0.0912   0.0236  -0.1086  -0.0347   0.0414   0.00    0.0
2026/06/07 17:21:18.000   -492865.7465   5551482.5615   3092895.6241   2  11   0.1700   0.0903   0.0237  -0.1080  -0.0345   0.0412   0.00    0.0
2026/06/07 17:21:33.000   -492865.7000   5551482.5118   3092895.6199   2  11   0.1683   0.0895   0.0234  -0.1073  -0.0343   0.0411   0.00    0.0
2026/06/07 17:21:48.000   -492865.6501   5551482.4968   3092895.6338   2  11   0.1666   0.0887   0.0230  -0.1067  -0.0340   0.0410   0.00    0.0
2026/06/07 17:22:03.000   -492865.5934   5551482.4537   3092895.6341   2  11   0.1648   0.0880   0.0229  -0.1060  -0.0337   0.0409   0.00    0.0
2026/06/07 17:22:18.000   -492865.5563   5551482.4346   3092895.6575   2  11   0.1630   0.0872   0.0225  -0.1054  -0.0334   0.0408   0.00    0.0
2026/06/07 17:22:33.000   -492865.4922   5551482.3649   3092895.6698   2  12   0.1612   0.0864   0.0222  -0.1046  -0.0331   0.0407   0.00    0.0
2026/06/07 17:22:48.000   -492865.4316   5551482.2946   3092895.6854   2  13   0.1592   0.0857   0.0217  -0.1039  -0.0329   0.0407   0.00    0.0
2026/06/07 17:23:03.000   -492865.3527   5551482.3076   3092895.6892   2  13   0.1573   0.0849   0.0208  -0.1031  -0.0325   0.0406   0.00    0.0
2026/06/07 17:23:18.000   -492865.3004   5551482.2956   3092895.7100   2  13   0.1553   0.0842   0.0208  -0.1023  -0.0323   0.0404   0.00    0.0
2026/06/07 17:23:33.000   -492865.2705   5551482.2631   3092895.7253   2  13   0.1534   0.0834   0.0209  -0.1015  -0.0320   0.0401   0.00    0.0
2026/06/07 17:23:48.000   -492865.2174   5551482.2083   3092895.7143   2  13   0.1513   0.0826   0.0204  -0.1006  -0.0316   0.0400   0.00    0.0
2026/06/07 17:24:03.000   -492865.1729   5551482.1787   3092895.7185   2  13   0.1492   0.0818   0.0205  -0.0996  -0.0313   0.0398   0.00    0.0
2026/06/07 17:24:18.000   -492865.1028   5551482.1350   3092895.6993   2  13   0.1472   0.0811   0.0205  -0.0988  -0.0306   0.0392   0.00    0.0
2026/06/07 17:24:33.000   -492865.0409   5551482.1506   3092895.7202   2  11   0.1453   0.0816   0.0209  -0.0984  -0.0290   0.0385   0.00    0.0
2026/06/07 17:24:48.000   -492864.9617   5551482.1016   3092895.7311   2  11   0.1434   0.0809   0.0205  -0.0976  -0.0289   0.0383   0.00    0.0
2026/06/07 17:25:03.000   -492864.8764   5551482.1090   3092895.7387   2  10   0.1416   0.0819   0.0200  -0.0972  -0.0287   0.0379   0.00    0.0
2026/06/07 17:25:18.000   -492864.7802   5551482.1091   3092895.7416   2  11   0.1397   0.0815   0.0203  -0.0965  -0.0286   0.0380   0.00    0.0
2026/06/07 17:25:33.000   -492864.6590   5551482.1067   3092895.7324   2  12   0.1378   0.0808   0.0200  -0.0958  -0.0289   0.0379   0.00    0.0
2026/06/07 17:25:48.000   -492864.5519   5551482.0864   3092895.7348   2  12   0.1359   0.0800   0.0196  -0.0949  -0.0292   0.0377   0.00    0.0
2026/06/07 17:26:03.000   -492864.4641   5551482.0792   3092895.7308   2  12   0.1341   0.0794   0.0194  -0.0942  -0.0294   0.0378   0.00    0.0
2026/06/07 17:26:18.000   -492864.3997   5551482.0891   3092895.7336   2  12   0.1322   0.0789   0.0194  -0.0934  -0.0295   0.0377   0.00    0.0
2026/06/07 17:26:33.000   -492864.3242   5551482.0837   3092895.7238   2  12   0.1304   0.0784   0.0194  -0.0926  -0.0296   0.0375   0.00    0.0
2026/06/07 17:26:48.000   -492864.2737   5551482.1132   3092895.7285   2  11   0.1287   0.0784   0.0197  -0.0920  -0.0288   0.0373   0.00    0.0
2026/06/07 17:27:03.000   -492864.2023   5551482.0646   3092895.6861   2  10   0.1273   0.0792   0.0227  -0.0920  -0.0262   0.0357   0.00    0.0
2026/06/07 17:27:18.000   -492864.1547   5551482.0623   3092895.7009   2  10   0.1255   0.0783   0.0214  -0.0910  -0.0275   0.0360   0.00    0.0
2026/06/07 17:27:33.000   -492864.1144   5551482.0829   3092895.7356   2  10   0.1240   0.0783   0.0226  -0.0906  -0.0261   0.0354   0.00    0.0
2026/06/07 17:27:48.000   -492864.0776   5551482.0826   3092895.7565   2  10   0.1222   0.0774   0.0211  -0.0896  -0.0272   0.0357   0.00    0.0
2026/06/07 17:28:03.000   -492864.0281   5551482.0574   3092895.7662   2  11   0.1206   0.0767   0.0207  -0.0887  -0.0276   0.0357   0.00    0.0
2026/06/07 17:28:18.000   -492863.9758   5551482.1317   3092895.7729   2  10   0.1187   0.0764   0.0200  -0.0878  -0.0280   0.0356   0.00    0.0
2026/06/07 17:28:33.000   -492863.9567   5551482.1707   3092895.8098   2  13   0.1173   0.0760   0.0211  -0.0872  -0.0276   0.0355   0.00    0.0
2026/06/07 17:28:48.000   -492863.9143   5551482.2024   3092895.8206   2  13   0.1157   0.0751   0.0201  -0.0863  -0.0282   0.0355   0.00    0.0
2026/06/07 17:29:03.000   -492863.9080   5551482.2982   3092895.8641   2  11   0.1142   0.0751   0.0197  -0.0858  -0.0272   0.0353   0.00    0.0
2026/06/07 17:29:18.000   -492863.9060   5551482.3311   3092895.8647   2  11   0.1126   0.0745   0.0199  -0.0850  -0.0273   0.0353   0.00    0.0
2026/06/07 17:29:33.000   -492863.9210   5551482.4075   3092895.8879   2  13   0.1111   0.0739   0.0193  -0.0842  -0.0273   0.0350   0.00    0.0
2026/06/07 17:29:48.000   -492863.9059   5551482.3775   3092895.8348   2  12   0.1097   0.0733   0.0195  -0.0833  -0.0272   0.0347   0.00    0.0
2026/06/07 17:30:03.000   -492863.8859   5551482.4018   3092895.8320   2  12   0.1083   0.0733   0.0197  -0.0828  -0.0260   0.0343   0.00    0.0
2026/06/07 17:30:18.000   -492863.8555   5551482.3914   3092895.8298   2  11   0.1068   0.0728   0.0198  -0.0821  -0.0258   0.0339   0.00    0.0
2026/06/07 17:30:33.000   -492863.8390   5551482.3607   3092895.8359   2  11   0.1055   0.0723   0.0193  -0.0814  -0.0258   0.0339   0.00    0.0
2026/06/07 17:30:48.000   -492863.8169   5551482.3578   3092895.8394   2  10   0.1042   0.0719   0.0206  -0.0807  -0.0256   0.0333   0.00    0.0
2026/06/07 17:31:03.000   -492863.7918   5551482.3507   3092895.8210   2  10   0.1028   0.0714   0.0199  -0.0799  -0.0254   0.0328   0.00    0.0
2026/06/07 17:31:18.000   -492863.7609   5551482.3267   3092895.8016   2  10   0.1015   0.0709   0.0197  -0.0792  -0.0251   0.0328   0.00    0.0
2026/06/07 17:31:33.000   -492863.7173   5551482.3152   3092895.7863   2   9   0.1005   0.0723   0.0219  -0.0793  -0.0220   0.0316   0.00    0.0
2026/06/07 17:31:48.000   -492863.6857   5551482.3570   3092895.7936   2   9   0.0993   0.0719   0.0215  -0.0787  -0.0218   0.0313   0.00    0.0
2026/06/07 17:32:03.000   -492863.6598   5551482.3273   3092895.7978   2   9   0.0981   0.0715   0.0216  -0.0780  -0.0217   0.0310   0.00    0.0
2026/06/07 17:32:18.000   -492863.5997   5551482.3173   3092895.7894   2   9   0.0969   0.0711   0.0212  -0.0774  -0.0216   0.0307   0.00    0.0
2026/06/07 17:32:33.000   -492863.5726   5551482.3112   3092895.8043   2  10   0.0959   0.0707   0.0216  -0.0767  -0.0216   0.0307   0.00    0.0
2026/06/07 17:32:48.000   -492863.5125   5551482.3015   3092895.7662   2  10   0.0944   0.0695   0.0203  -0.0757  -0.0228   0.0307   0.00    0.0
2026/06/07 17:33:03.000   -492863.4721   5551482.2889   3092895.7846   2  10   0.0932   0.0688   0.0194  -0.0749  -0.0229   0.0306   0.00    0.0
2026/06/07 17:33:18.000   -492863.4360   5551482.2625   3092895.7924   2  10   0.0921   0.0683   0.0195  -0.0742  -0.0232   0.0307   0.00    0.0
2026/06/07 17:33:33.000   -492863.4029   5551482.2559   3092895.7808   2  11   0.0909   0.0677   0.0190  -0.0734  -0.0230   0.0302   0.00    0.0
2026/06/07 17:33:48.000   -492863.3695   5551482.2674   3092895.7840   2  10   0.0901   0.0686   0.0209  -0.0733  -0.0205   0.0294   0.00    0.0
2026/06/07 17:34:03.000   -492863.3649   5551482.2726   3092895.8235   2  11   0.0888   0.0680   0.0193  -0.0726  -0.0207   0.0296   0.00    0.0
2026/06/07 17:34:18.000   -492863.3815   5551482.2478   3092895.8399   2  11   0.0878   0.0669   0.0191  -0.0717  -0.0220   0.0299   0.00    0.0
2026/06/07 17:34:33.000   -492863.3914   5551482.2560   3092895.8540   2  10   0.0866   0.0671   0.0184  -0.0712  -0.0207   0.0291   0.00    0.0
2026/06/07 17:34:48.000   -492863.3958   5551482.2687   3092895.8680   2   9   0.0856   0.0669   0.0205  -0.0707  -0.0196   0.0283   0.00    0.0
2026/06/07 17:35:03.000   -492863.3791   5551482.2339   3092895.8168   2   9   0.0846   0.0665   0.0200  -0.0700  -0.0192   0.0279   0.00    0.0
2026/06/07 17:35:18.000   -492863.3791   5551482.2505   3092895.8207   2   9   0.0837   0.0661   0.0208  -0.0694  -0.0194   0.0280   0.00    0.0
2026/06/07 17:35:33.000   -492863.3683   5551482.2652   3092895.8434   2   9   0.0827   0.0656   0.0200  -0.0688  -0.0190   0.0274   0.00    0.0
2026/06/07 17:35:48.000   -492863.3487   5551482.2212   3092895.8530   2   9   0.0818   0.0651   0.0199  -0.0681  -0.0187   0.0272   0.00    0.0
2026/06/07 17:36:03.000   -492863.3320   5551482.1927   3092895.8344   2   9   0.0808   0.0647   0.0197  -0.0675  -0.0183   0.0268   0.00    0.0
2026/06/07 17:36:18.000   -492863.3275   5551482.1745   3092895.8278   2   9   0.0798   0.0643   0.0198  -0.0669  -0.0184   0.0267   0.00    0.0
2026/06/07 17:36:33.000   -492863.3456   5551482.1711   3092895.8373   2  10   0.0788   0.0638   0.0196  -0.0662  -0.0180   0.0264   0.00    0.0
2026/06/07 17:36:48.000   -492863.3233   5551482.1449   3092895.7820   2  11   0.0779   0.0625   0.0212  -0.0653  -0.0186   0.0256   0.00    0.0
2026/06/07 17:37:03.000   -492863.3241   5551482.1399   3092895.7956   2  11   0.0772   0.0617   0.0198  -0.0645  -0.0194   0.0264   0.00    0.0
2026/06/07 17:37:18.000   -492863.3101   5551482.1480   3092895.8088   2  12   0.0759   0.0610   0.0186  -0.0638  -0.0196   0.0259   0.00    0.0
2026/06/07 17:37:33.000   -492863.3123   5551482.1466   3092895.8285   2  12   0.0750   0.0604   0.0173  -0.0629  -0.0192   0.0253   0.00    0.0
2026/06/07 17:37:48.000   -492863.2963   5551482.1304   3092895.8353   2  10   0.0744   0.0614   0.0188  -0.0628  -0.0172   0.0251   0.00    0.0
2026/06/07 17:38:03.000   -492863.2911   5551482.1280   3092895.8413   2  10   0.0737   0.0609   0.0187  -0.0622  -0.0170   0.0249   0.00    0.0
2026/06/07 17:38:18.000   -492863.2997   5551482.1490   3092895.8697   2  10   0.0728   0.0605   0.0188  -0.0615  -0.0171   0.0247   0.00    0.0
2026/06/07 17:38:33.000   -492863.3024   5551482.1394   3092895.8705   2  11   0.0718   0.0600   0.0183  -0.0608  -0.0166   0.0241   0.00    0.0
2026/06/07 17:38:48.000   -492863.3065   5551482.1596   3092895.8704   2  10   0.0710   0.0592   0.0179  -0.0601  -0.0182   0.0246   0.00    0.0
2026/06/07 17:39:03.000   -492863.3353   5551482.2007   3092895.8846   2  10   0.0701   0.0585   0.0168  -0.0593  -0.0182   0.0239   0.00    0.0
2026/06/07 17:39:18.000   -492863.3408   5551482.1994   3092895.8867   2  10   0.0697   0.0591   0.0178  -0.0592  -0.0162   0.0237   0.00    0.0
2026/06/07 17:39:33.000   -492863.3555   5551482.2137   3092895.8971   2  10   0.0686   0.0579   0.0170  -0.0582  -0.0176   0.0234   0.00    0.0
2026/06/07 17:39:48.000   -492863.3546   5551482.2324   3092895.9043   2  11   0.0681   0.0572   0.0174  -0.0576  -0.0179   0.0238   0.00    0.0
2026/06/07 17:40:03.000   -492863.3752   5551482.2253   3092895.9035   2   9   0.0674   0.0572   0.0183  -0.0573  -0.0164   0.0230   0.00    0.0
2026/06/07 17:40:18.000   -492864.0553   5551480.7287   3092896.2624   2  11   0.0666   0.0567   0.0175  -0.0568  -0.0162   0.0222   0.00    0.0
2026/06/07 17:40:33.000   -492863.6543   5551482.6036   3092896.1822   2  11   0.0660   0.0562   0.0172  -0.0562  -0.0166   0.0221   0.00    0.0
2026/06/07 17:40:48.000   -492863.6570   5551482.5558   3092896.1345   2  11   0.0653   0.0558   0.0168  -0.0557  -0.0166   0.0222   0.00    0.0
2026/06/07 17:41:03.000   -492863.6454   5551482.5063   3092896.0752   2  11   0.0647   0.0555   0.0169  -0.0552  -0.0168   0.0217   0.00    0.0
2026/06/07 17:41:18.000   -492863.6628   5551482.4932   3092896.0646   2  12   0.0641   0.0550   0.0169  -0.0547  -0.0165   0.0217   0.00    0.0
2026/06/07 17:41:33.000   -492863.6507   5551482.4492   3092896.0302   2  12   0.0633   0.0545   0.0167  -0.0542  -0.0165   0.0214   0.00    0.0
2026/06/07 17:41:48.000   -492863.6476   5551482.4052   3092896.0126   2  12   0.0628   0.0540   0.0163  -0.0537  -0.0162   0.0213   0.00    0.0
2026/06/07 17:42:03.000   -492863.6604   5551482.4654   3092896.0367   2  11   0.0625   0.0557   0.0177  -0.0540  -0.0139   0.0206   0.00    0.0
2026/06/07 17:42:18.000   -492863.6505   5551482.4563   3092896.0182   2  11   0.0620   0.0553   0.0173  -0.0535  -0.0131   0.0203   0.00    0.0
2026/06/07 17:42:33.000   -492863.6336   5551482.4215   3092896.0117   2  11   0.0613   0.0550   0.0173  -0.0531  -0.0132   0.0200   0.00    0.0
2026/06/07 17:42:48.000   -492863.6373   5551482.4120   3092896.0097   2  11   0.0609   0.0547   0.0173  -0.0527  -0.0129   0.0201   0.00    0.0
2026/06/07 17:43:03.000   -492863.6390   5551482.3101   3092895.9807   2  10   0.0606   0.0557   0.0188  -0.0527  -0.0089   0.0189   0.00    0.0
2026/06/07 17:43:18.000   -492863.6432   5551482.3394   3092895.9911   2  12   0.0599   0.0548   0.0176  -0.0521  -0.0105   0.0189   0.00    0.0
2026/06/07 17:43:33.000   -492863.6387   5551482.3181   3092896.0042   2  12   0.0593   0.0534   0.0163  -0.0514  -0.0126   0.0189   0.00    0.0
2026/06/07 17:43:48.000   -492863.6382   5551482.3058   3092896.0104   2  12   0.0587   0.0527   0.0161  -0.0509  -0.0137   0.0190   0.00    0.0
2026/06/07 17:44:03.000   -492863.6461   5551482.2826   3092895.9681   2  11   0.0582   0.0522   0.0162  -0.0504  -0.0136   0.0193   0.00    0.0
2026/06/07 17:44:18.000   -492863.6503   5551482.3075   3092895.9755   2  11   0.0578   0.0534   0.0177  -0.0504  -0.0118   0.0180   0.00    0.0
2026/06/07 17:44:33.000   -492863.6446   5551482.3198   3092895.9839   2  10   0.0571   0.0530   0.0166  -0.0500  -0.0110   0.0176   0.00    0.0
2026/06/07 17:44:48.000   -492863.6277   5551482.3097   3092895.9627   2  12   0.0571   0.0529   0.0190  -0.0499  -0.0092   0.0164   0.00    0.0
2026/06/07 17:45:03.000   -492863.4943   5551481.8502   3092895.7682   2  11   0.0563   0.0516   0.0174  -0.0491  -0.0117   0.0170   0.00    0.0
2026/06/07 17:45:18.000   -492863.6092   5551482.3139   3092895.9628   2  10   0.0560   0.0523   0.0184  -0.0490  -0.0102   0.0171   0.00    0.0
2026/06/07 17:45:33.000   -492864.6925   5551485.7361   3092897.6273   2  10   0.0554   0.0513   0.0177  -0.0483  -0.0099   0.0161   0.00    0.0
2026/06/07 17:45:48.000   -492864.5857   5551485.0462   3092897.2642   2  12   0.0551   0.0508   0.0184  -0.0480  -0.0107   0.0172   0.00    0.0
2026/06/07 17:46:03.000   -492864.5328   5551484.6507   3092897.0259   2  12   0.0544   0.0502   0.0172  -0.0475  -0.0114   0.0161   0.00    0.0
2026/06/07 17:46:18.000   -492864.5587   5551484.3929   3092896.9630   2  12   0.0540   0.0498   0.0172  -0.0471  -0.0111   0.0163   0.00    0.0
2026/06/07 17:46:33.000   -492864.5357   5551484.2178   3092896.8305   2  12   0.0536   0.0494   0.0176  -0.0468  -0.0121   0.0166   0.00    0.0
2026/06/07 17:46:48.000   -492864.5253   5551484.0825   3092896.7237   2  12   0.0532   0.0491   0.0172  -0.0464  -0.0122   0.0166   0.00    0.0
2026/06/07 17:47:03.000   -492864.5214   5551483.9857   3092896.6336   2  12   0.0529   0.0487   0.0165  -0.0460  -0.0122   0.0166   0.00    0.0
2026/06/07 17:47:18.000   -492864.2772   5551483.1064   3092896.2438   2  11   0.0524   0.0505   0.0168  -0.0463  -0.0079   0.0151   0.00    0.0
2026/06/07 17:47:33.000   -492864.2783   5551483.1097   3092896.2341   2  10   0.0523   0.0517   0.0182  -0.0468  -0.0056   0.0149   0.00    0.0
2026/06/07 17:47:48.000   -492864.2537   5551483.0593   3092896.2039   2  10   0.0518   0.0514   0.0184  -0.0464  -0.0042   0.0142   0.00    0.0
2026/06/07 17:48:03.000   -492864.1719   5551482.7837   3092896.0533   2   9   0.0516   0.0528   0.0201  -0.0465   0.0099   0.0134   0.00    0.0
2026/06/07 17:48:18.000   -492864.1268   5551482.7167   3092896.0072   2  11   0.0513   0.0521   0.0200  -0.0460   0.0092   0.0135   0.00    0.0
2026/06/07 17:48:33.000   -492864.1120   5551482.6941   3092896.0146   2  11   0.0505   0.0496   0.0178  -0.0450  -0.0052   0.0142   0.00    0.0
2026/06/07 17:48:48.000   -492864.0666   5551482.6802   3092895.9763   2  11   0.0502   0.0486   0.0180  -0.0444  -0.0078   0.0138   0.00    0.0
2026/06/07 17:49:03.000   -492864.2990   5551482.6577   3092896.3453   2  11   0.0498   0.0482   0.0183  -0.0440  -0.0071   0.0142   0.00    0.0
2026/06/07 17:49:18.000   -492864.0384   5551482.6296   3092895.9656   2   9   0.0495   0.0479   0.0183  -0.0436  -0.0078   0.0137   0.00    0.0
2026/06/07 17:49:33.000   -492865.3697   5551483.7141   3092897.3633   2  10   0.0523   0.0548   0.0255  -0.0477   0.0196  -0.0117   0.00    0.0
2026/06/07 17:49:48.000   -492864.3312   5551482.8727   3092896.1343   2  10   0.0736   0.0696   0.0601  -0.0670   0.0523  -0.0546   0.00    0.0
2026/06/07 17:50:03.000   -492864.3521   5551482.8930   3092896.1498   2  11   0.0739   0.0699   0.0605  -0.0673   0.0527  -0.0549   0.00    0.0
2026/06/07 17:50:18.000   -492864.3921   5551482.9461   3092896.1933   2  10   0.0742   0.0703   0.0608  -0.0677   0.0531  -0.0553   0.00    0.0
2026/06/07 17:50:33.000   -492864.3712   5551482.9031   3092896.1670   2  10   0.0745   0.0706   0.0610  -0.0681   0.0535  -0.0558   0.00    0.0
2026/06/07 17:50:48.000   -492864.4145   5551482.9451   3092896.1948   2  10   0.0748   0.0709   0.0613  -0.0684   0.0539  -0.0561   0.00    0.0
2026/06/07 17:51:03.000   -492864.4400   5551482.9472   3092896.2224   2  10   0.0751   0.0713   0.0616  -0.0688   0.0543  -0.0565   0.00    0.0
2026/06/07 17:51:18.000   -492864.4308   5551482.9484   3092896.1995   2   9   0.0754   0.0717   0.0620  -0.0692   0.0547  -0.0569   0.00    0.0
2026/06/07 17:51:33.000   -492864.4135   5551482.9485   3092896.1843   2   8   0.0757   0.0720   0.0623  -0.0695   0.0551  -0.0572   0.00    0.0
2026/06/07 17:51:48.000   -492864.4044   5551482.9544   3092896.1838   2  10   0.0760   0.0724   0.0625  -0.0699   0.0555  -0.0576   0.00    0.0
2026/06/07 17:52:03.000   -492864.4088   5551482.9201   3092896.1921   2  11   0.0763   0.0727   0.0628  -0.0703   0.0559  -0.0580   0.00    0.0
2026/06/07 17:52:18.000   -492864.4196   5551482.9549   3092896.2004   2  11   0.0766   0.0731   0.0631  -0.0706   0.0563  -0.0583   0.00    0.0
2026/06/07 17:52:33.000   -492864.4397   5551482.9396   3092896.1992   2  10   0.0769   0.0735   0.0634  -0.0710   0.0567  -0.0587   0.00    0.0
2026/06/07 17:52:48.000   -492864.4318   5551482.9603   3092896.1729   2  12   0.0772   0.0738   0.0637  -0.0713   0.0570  -0.0591   0.00    0.0
2026/06/07 17:53:03.000   -492864.4580   5551482.9968   3092896.1864   2  11   0.0863   0.0747   0.0770  -0.0741   0.0608  -0.0718   0.00    0.0
2026/06/07 17:53:18.000   -492864.5059   5551483.0500   3092896.2193   2  12   0.0827   0.0749   0.0716  -0.0735   0.0599  -0.0668   0.00    0.0
2026/06/07 17:53:33.000   -492864.9175   5551483.1566   3092896.6774   2  12   0.0816   0.0752   0.0699  -0.0736   0.0599  -0.0653   0.00    0.0
2026/06/07 17:53:48.000   -492864.8207   5551483.1808   3092896.5553   2  11   0.0813   0.0756   0.0693  -0.0738   0.0602  -0.0647   0.00    0.0
2026/06/07 17:54:03.000   -492864.6549   5551483.1834   3092896.3772   2  11   0.0896   0.0768   0.0808  -0.0769   0.0642  -0.0758   0.00    0.0
2026/06/07 17:54:18.000   -492864.6087   5551483.1408   3092896.3187   2  12   0.0850   0.0767   0.0743  -0.0758   0.0626  -0.0697   0.00    0.0
2026/06/07 17:54:33.000   -492864.5757   5551483.0950   3092896.2751   2  12   0.0913   0.0779   0.0828  -0.0784   0.0660  -0.0779   0.00    0.0
2026/06/07 17:54:48.000   -492864.6098   5551483.1282   3092896.3128   2  12   0.0922   0.0784   0.0839  -0.0792   0.0670  -0.0790   0.00    0.0
2026/06/07 17:55:03.000   -492864.6124   5551483.1362   3092896.3096   2  12   0.0780   0.0714   0.0620  -0.0685   0.0515  -0.0589   0.00    0.0
2026/06/07 17:55:18.000   -492864.6527   5551483.1809   3092896.3578   2  11   0.0941   0.0797   0.0862  -0.0809   0.0690  -0.0813   0.00    0.0
2026/06/07 17:55:33.000   -492864.6922   5551483.1999   3092896.3887   2  10   0.0951   0.0803   0.0873  -0.0818   0.0700  -0.0825   0.00    0.0
2026/06/07 17:55:48.000   -492864.6396   5551483.1799   3092896.3303   2  11   0.0961   0.0810   0.0885  -0.0827   0.0711  -0.0837   0.00    0.0
2026/06/07 17:56:03.000   -492864.7208   5551483.2482   3092896.4177   2  11   0.0972   0.0817   0.0898  -0.0836   0.0722  -0.0850   0.00    0.0
2026/06/07 17:56:18.000   -492864.7770   5551483.3134   3092896.5040   2  11   0.0983   0.0824   0.0911  -0.0846   0.0733  -0.0863   0.00    0.0
2026/06/07 17:56:33.000   -492864.7838   5551483.2987   3092896.5193   2   7   0.0995   0.0832   0.0925  -0.0857   0.0746  -0.0878   0.00    0.0
2026/06/07 17:56:48.000   -492864.8956   5551483.3750   3092896.5901   2  10   0.1006   0.0839   0.0938  -0.0866   0.0757  -0.0891   0.00    0.0
2026/06/07 17:57:03.000   -492864.7683   5551483.2425   3092896.5229   2   6   0.0833   0.0748   0.0701  -0.0726   0.0543  -0.0655   0.00    0.0
2026/06/07 17:57:18.000   -492864.7578   5551483.2797   3092896.5231   2   8   0.0776   0.0715   0.0606  -0.0678   0.0465  -0.0568   0.00    0.0
2026/06/07 17:57:33.000   -492864.9543   5551482.7740   3092896.6994   2   9   0.0776   0.0790   0.0596  -0.0646   0.0453  -0.0562   0.00    0.0
2026/06/07 17:57:48.000   -492864.7023   5551483.2103   3092896.6462   2   8   0.1076   0.0899   0.0998  -0.0934   0.0809  -0.0951   0.00    0.0
2026/06/07 17:58:03.000   -492864.7715   5551483.2412   3092896.6935   2   9   0.1089   0.0908   0.1013  -0.0945   0.0822  -0.0966   0.00    0.0
2026/06/07 17:58:18.000   -492859.5243   5551489.4728   3092893.8527   2   9   1.1489   0.7328   0.9425   0.8803  -0.7806  -1.0370   0.00    0.0
2026/06/07 17:58:33.000   -492855.2260   5551496.0589   3092892.5688   2   7   0.6576   1.1937   0.3795   0.8041  -0.6519  -0.4317   0.00    0.0
2026/06/07 17:58:48.000   -492864.3987   5551484.5568   3092896.1156   2   8   1.2986   1.6970   0.5393   1.4242  -0.9421  -0.7912   0.00    0.0
2026/06/07 17:59:03.000   -492880.4535   5551465.6595   3092901.9373   2   7   0.9119   1.2294   0.3983   0.9781  -0.6800  -0.5423   0.00    0.0
2026/06/07 17:59:18.000   -492881.9476   5551463.5081   3092902.6580   2  10   1.5864   1.9703   0.6227   1.7212  -1.0952  -0.9585   0.00    0.0
2026/06/07 17:59:33.000   -492861.8608   5551488.2089   3092895.0048   2  10   0.7159   0.9756   0.3221   0.7395  -0.5360  -0.4098   0.00    0.0
2026/06/07 17:59:48.000   -492864.5717   5551484.8877   3092896.0859   2  10   1.5486   1.9043   0.6056   1.6726  -1.0612  -0.9352   0.00    0.0
2026/06/07 18:00:03.000   -492863.4234   5551486.2370   3092895.6200   2   9   1.2715   1.5693   0.5043   1.3597  -0.8743  -0.7620   0.00    0.0
