% program   : rnx2rtkp ver.EX 2.5.0
% inp file  : rover.obs
% inp file  : base.obs
% inp file  : rover.nav
% obs start : 2026/06/07 17:00:18.0 GPST (week2422  61218.0s)
% obs end   : 2026/06/07 18:00:03.0 GPST (week2422  64803.0s)
% ref pos   :   -493099.3671   5551412.6391   3092558.0152
%
% (x/y/z-ecef=WGS84,Q=1:fix,2:float,3:sbas,4:dgps,5:single,6:ppp,ns=# of satellites)
%  GPST                      x-ecef(m)      y-ecef(m)      z-ecef(m)   Q  ns   sdx(m)   sdy(m)   sdz(m)  sdxy(m)  sdyz(m)  sdzx(m) age(s)  ratio
2026/06/07 17:00:18.000   -492863.3703   5551482.0862   3092895.8644   2  10   0.0178   0.0164   0.0057  -0.0130  -0.0046   0.0049   0.00    0.0
2026/06/07 17:00:33.000   -492863.3734   5551482.0903   3092895.8637   2  10   0.0179   0.0164   0.0057  -0.0130  -0.0047   0.0049   0.00    0.0
2026/06/07 17:00:48.000   -492863.3757   5551482.0936   3092895.8632   2  10   0.0179   0.0165   0.0058  -0.0131  -0.0047   0.0050   0.00    0.0
2026/06/07 17:01:03.000   -492863.3788   5551482.0965   3092895.8638   2   8   0.0179   0.0165   0.0058  -0.0131  -0.0047   0.0051   0.00    0.0
2026/06/07 17:01:18.000   -492863.3808   5551482.0981   3092895.8645   2   9   0.0180   0.0166   0.0058  -0.0131  -0.0048   0.0051   0.00    0.0
2026/06/07 17:01:33.000   -492863.3833   5551482.0997   3092895.8657   2   9   0.0180   0.0166   0.0059  -0.0132  -0.0048   0.0052   0.00    0.0
2026/06/07 17:01:48.000   -492863.3824   5551482.0958   3092895.8671   2   9   0.0181   0.0167   0.0059  -0.0132  -0.0048   0.0052   0.00    0.0
2026/06/07 17:02:03.000   -492863.3806   5551482.0913   3092895.8689   2  10   0.0181   0.0167   0.0059  -0.0133  -0.0049   0.0053   0.00    0.0
2026/06/07 17:02:18.000   -492863.3779   5551482.0871   3092895.8708   2  10   0.0182   0.0168   0.0060  -0.0133  -0.0049   0.0053   0.00    0.0
2026/06/07 17:02:33.000   -492863.3751   5551482.0838   3092895.8732   2  10   0.0182   0.0168   0.0060  -0.0133  -0.0049   0.0054   0.00    0.0
2026/06/07 17:02:48.000   -492863.3725   5551482.0803   3092895.8758   2  10   0.0183   0.0169   0.0060  -0.0134  -0.0050   0.0054   0.00    0.0
2026/06/07 17:03:03.000   -492863.3718   5551482.0782   3092895.8774   2  10   0.0183   0.0169   0.0061  -0.0134  -0.0050   0.0055   0.00    0.0
2026/06/07 17:03:18.000   -492863.3721   5551482.0771   3092895.8782   2   9   0.0183   0.0170   0.0061  -0.0135  -0.0050   0.0055   0.00    0.0
2026/06/07 17:03:33.000   -492863.3712   5551482.0749   3092895.8796   2   9   0.0184   0.0170   0.0061  -0.0135  -0.0051   0.0056   0.00    0.0
2026/06/07 17:03:48.000   -492863.3718   5551482.0735   3092895.8814   2   9   0.0184   0.0171   0.0061  -0.0135  -0.0051   0.0056   0.00    0.0
2026/06/07 17:04:03.000   -492863.3744   5551482.0743   3092895.8833   2   9   0.0185   0.0171   0.0062  -0.0136  -0.0051   0.0057   0.00    0.0
2026/06/07 17:04:18.000   -492863.3760   5551482.0752   3092895.8846   2   9   0.0185   0.0171   0.0062  -0.0136  -0.0051   0.0057   0.00    0.0
2026/06/07 17:04:33.000   -492863.3754   5551482.0739   3092895.8858   2  10   0.0185   0.0172   0.0062  -0.0136  -0.0052   0.0058   0.00    0.0
2026/06/07 17:04:48.000   -492863.3764   5551482.0734   3092895.8860   2  10   0.0186   0.0172   0.0063  -0.0136  -0.0052   0.0058   0.00    0.0
2026/06/07 17:05:03.000   -492863.3770   5551482.0720   3092895.8852   2  10   0.0186   0.0172   0.0063  -0.0137  -0.0052   0.0059   0.00    0.0
2026/06/07 17:05:18.000   -492863.3783   5551482.0734   3092895.8847   2  10   0.0187   0.0173   0.0063  -0.0137  -0.0052   0.0059   0.00    0.0
2026/06/07 17:05:33.000   -492863.3797   5551482.0753   3092895.8843   2  10   0.0187   0.0173   0.0064  -0.0137  -0.0052   0.0060   0.00    0.0
2026/06/07 17:05:48.000   -492863.3815   5551482.0775   3092895.8836   2  10   0.0187   0.0174   0.0064  -0.0137  -0.0052   0.0060   0.00    0.0
2026/06/07 17:06:03.000   -492863.4031   5551482.0964   3092895.8816   2  10   0.0187   0.0174   0.0064  -0.0137  -0.0052   0.0060   0.00    0.0
2026/06/07 17:06:18.000   -492863.3978   5551482.0958   3092895.8816   2  10   0.0188   0.0174   0.0065  -0.0138  -0.0052   0.0061   0.00    0.0
2026/06/07 17:06:33.000   -492863.3922   5551482.0952   3092895.8816   2  10   0.0188   0.0175   0.0065  -0.0138  -0.0052   0.0061   0.00    0.0
2026/06/07 17:06:48.000   -492863.3868   5551482.0948   3092895.8809   2  10   0.0188   0.0175   0.0065  -0.0138  -0.0051   0.0062   0.00    0.0
2026/06/07 17:07:03.000   -492863.3817   5551482.0950   3092895.8797   2  10   0.0188   0.0175   0.0066  -0.0138  -0.0051   0.0062   0.00    0.0
2026/06/07 17:07:18.000   -492863.3774   5551482.0973   3092895.8791   2  10   0.0189   0.0175   0.0066  -0.0138  -0.0051   0.0063   0.00    0.0
2026/06/07 17:07:33.000   -492863.3720   5551482.0989   3092895.8793   2  10   0.0189   0.0176   0.0066  -0.0138  -0.0051   0.0063   0.00    0.0
2026/06/07 17:07:48.000   -492863.3656   5551482.1000   3092895.8792   2  10   0.0189   0.0176   0.0066  -0.0138  -0.0051   0.0064   0.00    0.0
2026/06/07 17:08:03.000   -492863.3626   5551482.1049   3092895.8784   2  10   0.0189   0.0176   0.0067  -0.0138  -0.0051   0.0064   0.00    0.0
2026/06/07 17:08:18.000   -492863.3609   5551482.1098   3092895.8780   2  10   0.0189   0.0176   0.0067  -0.0138  -0.0051   0.0065   0.00    0.0
2026/06/07 17:08:33.000   -492863.3680   5551482.1198   3092895.8761   2  10   0.0190   0.0176   0.0067  -0.0138  -0.0050   0.0065   0.00    0.0
2026/06/07 17:08:48.000   -492863.3632   5551482.1173   3092895.8738   2  11   0.0190   0.0176   0.0068  -0.0138  -0.0050   0.0066   0.00    0.0
2026/06/07 17:09:03.000   -492863.3663   5551482.1212   3092895.8724   2  10   0.0190   0.0176   0.0068  -0.0138  -0.0050   0.0066   0.00    0.0
2026/06/07 17:09:18.000   -492863.3683   5551482.1261   3092895.8716   2  10   0.0190   0.0176   0.0068  -0.0137  -0.0050   0.0067   0.00    0.0
2026/06/07 17:09:33.000   -492863.3706   5551482.1298   3092895.8698   2  10   0.0190   0.0176   0.0068  -0.0137  -0.0049   0.0067   0.00    0.0
2026/06/07 17:09:48.000   -492863.3732   5551482.1332   3092895.8685   2  10   0.0190   0.0176   0.0068  -0.0137  -0.0049   0.0068   0.00    0.0
2026/06/07 17:10:03.000   -492863.3751   5551482.1363   3092895.8672   2  10   0.0190   0.0176   0.0069  -0.0137  -0.0049   0.0068   0.00    0.0
2026/06/07 17:10:18.000   -492863.3808   5551482.1404   3092895.8660   2   9   0.0190   0.0176   0.0069  -0.0137  -0.0048   0.0068   0.00    0.0
2026/06/07 17:10:33.000   -492863.3893   5551482.1475   3092895.8642   2  10   0.0190   0.0176   0.0069  -0.0136  -0.0048   0.0069   0.00    0.0
2026/06/07 17:10:48.000   -492863.3959   5551482.1550   3092895.8628   2  10   0.0190   0.0176   0.0069  -0.0136  -0.0048   0.0069   0.00    0.0
2026/06/07 17:11:03.000   -492863.4005   5551482.1601   3092895.8614   2   9   0.0191   0.0176   0.0070  -0.0136  -0.0048   0.0070   0.00    0.0
2026/06/07 17:11:18.000   -492863.4052   5551482.1654   3092895.8605   2   9   0.0191   0.0176   0.0070  -0.0135  -0.0047   0.0070   0.00    0.0
2026/06/07 17:11:33.000   -492863.4087   5551482.1689   3092895.8601   2  10   0.0191   0.0176   0.0070  -0.0136  -0.0047   0.0070   0.00    0.0
2026/06/07 17:11:48.000   -492863.4096   5551482.1723   3092895.8583   2   9   0.0192   0.0177   0.0070  -0.0136  -0.0047   0.0071   0.00    0.0
2026/06/07 17:12:03.000   -492863.4118   5551482.1780   3092895.8563   2  10   0.0192   0.0177   0.0071  -0.0136  -0.0047   0.0071   0.00    0.0
2026/06/07 17:12:18.000   -492863.4066   5551482.1835   3092895.8538   2  10   0.0193   0.0177   0.0071  -0.0136  -0.0046   0.0071   0.00    0.0
2026/06/07 17:12:33.000   -492863.3975   5551482.1851   3092895.8517   2   9   0.0194   0.0178   0.0071  -0.0136  -0.0046   0.0071   0.00    0.0
2026/06/07 17:12:48.000   -492863.3888   5551482.1860   3092895.8485   2  10   0.0195   0.0178   0.0072  -0.0136  -0.0046   0.0071   0.00    0.0
2026/06/07 17:13:03.000   -492863.3742   5551482.1842   3092895.8449   2  10   0.0196   0.0179   0.0072  -0.0137  -0.0046   0.0071   0.00    0.0
2026/06/07 17:13:18.000   -492863.3574   5551482.1819   3092895.8431   2   9   0.0197   0.0179   0.0072  -0.0137  -0.0045   0.0071   0.00    0.0
2026/06/07 17:13:33.000   -492863.3422   5551482.1809   3092895.8414   2   9   0.0198   0.0179   0.0073  -0.0137  -0.0045   0.0071   0.00    0.0
2026/06/07 17:13:48.000   -492863.3295   5551482.1796   3092895.8387   2   9   0.0199   0.0180   0.0073  -0.0137  -0.0045   0.0071   0.00    0.0
2026/06/07 17:14:03.000   -492863.3186   5551482.1783   3092895.8372   2  10   0.0200   0.0180   0.0073  -0.0137  -0.0044   0.0071   0.00    0.0
2026/06/07 17:14:18.000   -492863.3093   5551482.1768   3092895.8363   2  10   0.0201   0.0180   0.0073  -0.0137  -0.0044   0.0071   0.00    0.0
2026/06/07 17:14:33.000   -492863.3006   5551482.1777   3092895.8352   2  10   0.0202   0.0180   0.0074  -0.0138  -0.0044   0.0071   0.00    0.0
2026/06/07 17:14:48.000   -492863.2889   5551482.1773   3092895.8345   2   9   0.0203   0.0181   0.0074  -0.0138  -0.0043   0.0071   0.00    0.0
2026/06/07 17:15:03.000   -492863.2783   5551482.1792   3092895.8342   2   9   0.0204   0.0181   0.0074  -0.0138  -0.0043   0.0071   0.00    0.0
2026/06/07 17:15:18.000   -492863.2685   5551482.1819   3092895.8345   2   9   0.0205   0.0181   0.0074  -0.0138  -0.0043   0.0071   0.00    0.0
2026/06/07 17:15:33.000   -492863.2593   5551482.1829   3092895.8349   2  10   0.0206   0.0181   0.0074  -0.0138  -0.0042   0.0071   0.00    0.0
2026/06/07 17:15:48.000   -492863.2487   5551482.1806   3092895.8353   2  10   0.0207   0.0181   0.0075  -0.0138  -0.0042   0.0070   0.00    0.0
2026/06/07 17:16:03.000   -492863.2391   5551482.1785   3092895.8351   2  10   0.0208   0.0181   0.0075  -0.0138  -0.0042   0.0070   0.00    0.0
2026/06/07 17:16:18.000   -492863.2285   5551482.1784   3092895.8356   2  10   0.0209   0.0181   0.0075  -0.0138  -0.0042   0.0070   0.00    0.0
2026/06/07 17:16:33.000   -492863.2150   5551482.1780   3092895.8370   2  10   0.0210   0.0181   0.0075  -0.0138  -0.0041   0.0070   0.00    0.0
2026/06/07 17:16:48.000   -492863.2021   5551482.1775   3092895.8380   2  10   0.0211   0.0181   0.0075  -0.0138  -0.0041   0.0070   0.00    0.0
2026/06/07 17:17:03.000   -492863.1927   5551482.1837   3092895.8384   2   9   0.0212   0.0182   0.0075  -0.0138  -0.0041   0.0070   0.00    0.0
2026/06/07 17:17:18.000   -492863.1884   5551482.1898   3092895.8390   2  10   0.0213   0.0182   0.0075  -0.0138  -0.0041   0.0070   0.00    0.0
2026/06/07 17:17:33.000   -492863.1851   5551482.1859   3092895.8404   2  10   0.0214   0.0184   0.0075  -0.0138  -0.0042   0.0070   0.00    0.0
2026/06/07 17:17:48.000   -492863.1812   5551482.1813   3092895.8415   2  10   0.0215   0.0186   0.0075  -0.0139  -0.0043   0.0070   0.00    0.0
2026/06/07 17:18:03.000   -492863.1752   5551482.1783   3092895.8414   2  10   0.0216   0.0188   0.0075  -0.0139  -0.0044   0.0071   0.00    0.0
2026/06/07 17:18:18.000   -492863.1688   5551482.1767   3092895.8389   2  10   0.0217   0.0190   0.0075  -0.0140  -0.0045   0.0071   0.00    0.0
2026/06/07 17:18:33.000   -492863.1623   5551482.1722   3092895.8360   2  10   0.0218   0.0192   0.0075  -0.0140  -0.0046   0.0071   0.00    0.0
2026/06/07 17:18:48.000   -492863.1618   5551482.1697   3092895.8332   2  10   0.0219   0.0193   0.0075  -0.0141  -0.0047   0.0071   0.00    0.0
2026/06/07 17:19:03.000   -492863.1656   5551482.1667   3092895.8300   2  10   0.0220   0.0195   0.0075  -0.0141  -0.0048   0.0071   0.00    0.0
2026/06/07 17:19:18.000   -492863.1660   5551482.1662   3092895.8266   2  11   0.0221   0.0197   0.0075  -0.0142  -0.0049   0.0071   0.00    0.0
2026/06/07 17:19:33.000   -492863.1564   5551482.1656   3092895.8239   2  11   0.0222   0.0199   0.0075  -0.0142  -0.0050   0.0072   0.00    0.0
2026/06/07 17:19:48.000   -492863.1589   5551482.1748   3092895.8201   2  11   0.0223   0.0200   0.0075  -0.0142  -0.0051   0.0072   0.00    0.0
2026/06/07 17:20:03.000   -492863.1595   5551482.1837   3092895.8176   2  10   0.0223   0.0202   0.0075  -0.0143  -0.0052   0.0072   0.00    0.0
2026/06/07 17:20:18.000   -492863.1599   5551482.1926   3092895.8152   2  11   0.0224   0.0203   0.0075  -0.0143  -0.0053   0.0072   0.00    0.0
2026/06/07 17:20:33.000   -492863.1620   5551482.1966   3092895.8124   2  12   0.0225   0.0205   0.0075  -0.0143  -0.0054   0.0072   0.00    0.0
2026/06/07 17:20:48.000   -492863.1704   5551482.1960   3092895.8119   2  12   0.0226   0.0207   0.0075  -0.0143  -0.0055   0.0072   0.00    0.0
2026/06/07 17:21:03.000   -492863.1785   5551482.1892   3092895.8126   2  12   0.0227   0.0208   0.0075  -0.0144  -0.0055   0.0072   0.00    0.0
2026/06/07 17:21:18.000   -492863.1830   5551482.1735   3092895.8150   2  11   0.0228   0.0210   0.0075  -0.0144  -0.0056   0.0072   0.00    0.0
2026/06/07 17:21:33.000   -492863.1851   5551482.1523   3092895.8170   2  11   0.0229   0.0211   0.0075  -0.0145  -0.0057   0.0072   0.00    0.0
2026/06/07 17:21:48.000   -492863.1887   5551482.1323   3092895.8197   2  11   0.0230   0.0212   0.0075  -0.0145  -0.0057   0.0071   0.00    0.0
2026/06/07 17:22:03.000   -492863.1924   5551482.1108   3092895.8233   2  11   0.0231   0.0213   0.0075  -0.0146  -0.0058   0.0071   0.00    0.0
2026/06/07 17:22:18.000   -492863.2014   5551482.0895   3092895.8282   2  11   0.0232   0.0214   0.0074  -0.0146  -0.0058   0.0071   0.00    0.0
2026/06/07 17:22:33.000   -492863.2137   5551482.0616   3092895.8363   2  12   0.0232   0.0215   0.0074  -0.0146  -0.0059   0.0071   0.00    0.0
2026/06/07 17:22:48.000   -492863.2266   5551482.0351   3092895.8458   2  13   0.0233   0.0216   0.0074  -0.0146  -0.0059   0.0071   0.00    0.0
2026/06/07 17:23:03.000   -492863.2426   5551482.0166   3092895.8508   2  13   0.0234   0.0217   0.0074  -0.0146  -0.0060   0.0071   0.00    0.0
2026/06/07 17:23:18.000   -492863.2580   5551481.9972   3092895.8563   2  13   0.0234   0.0218   0.0074  -0.0146  -0.0060   0.0071   0.00    0.0
2026/06/07 17:23:33.000   -492863.2712   5551481.9713   3092895.8630   2  13   0.0235   0.0218   0.0073  -0.0146  -0.0060   0.0070   0.00    0.0
2026/06/07 17:23:48.000   -492863.2803   5551481.9343   3092895.8706   2  13   0.0235   0.0218   0.0073  -0.0146  -0.0061   0.0070   0.00    0.0
2026/06/07 17:24:03.000   -492863.2908   5551481.9001   3092895.8778   2  13   0.0235   0.0218   0.0073  -0.0146  -0.0061   0.0070   0.00    0.0
2026/06/07 17:24:18.000   -492863.2976   5551481.8581   3092895.8827   2  13   0.0235   0.0218   0.0073  -0.0146  -0.0061   0.0070   0.00    0.0
2026/06/07 17:24:33.000   -492863.3183   5551481.8347   3092895.8874   2  11   0.0236   0.0219   0.0072  -0.0147  -0.0061   0.0070   0.00    0.0
2026/06/07 17:24:48.000   -492863.3392   5551481.8100   3092895.8943   2  11   0.0236   0.0219   0.0072  -0.0147  -0.0061   0.0070   0.00    0.0
2026/06/07 17:25:03.000   -492863.3635   5551481.7946   3092895.8981   2  10   0.0237   0.0220   0.0072  -0.0148  -0.0062   0.0070   0.00    0.0
2026/06/07 17:25:18.000   -492863.3832   5551481.7874   3092895.8991   2  11   0.0237   0.0220   0.0072  -0.0149  -0.0063   0.0070   0.00    0.0
2026/06/07 17:25:33.000   -492863.3967   5551481.7891   3092895.8982   2  12   0.0237   0.0220   0.0072  -0.0150  -0.0063   0.0071   0.00    0.0
2026/06/07 17:25:48.000   -492863.4066   5551481.7947   3092895.8962   2  12   0.0237   0.0221   0.0072  -0.0150  -0.0063   0.0071   0.00    0.0
2026/06/07 17:26:03.000   -492863.4154   5551481.8028   3092895.8942   2  12   0.0238   0.0221   0.0072  -0.0151  -0.0064   0.0071   0.00    0.0
2026/06/07 17:26:18.000   -492863.4283   5551481.8080   3092895.8932   2  12   0.0238   0.0220   0.0072  -0.0152  -0.0064   0.0071   0.00    0.0
2026/06/07 17:26:33.000   -492863.4401   5551481.8075   3092895.8929   2  12   0.0238   0.0220   0.0072  -0.0152  -0.0064   0.0071   0.00    0.0
2026/06/07 17:26:48.000   -492863.4456   5551481.8014   3092895.8930   2  11   0.0238   0.0220   0.0072  -0.0153  -0.0065   0.0071   0.00    0.0
2026/06/07 17:27:03.000   -492863.4463   5551481.7909   3092895.8932   2  10   0.0238   0.0220   0.0072  -0.0153  -0.0065   0.0072   0.00    0.0
2026/06/07 17:27:18.000   -492863.4482   5551481.7808   3092895.8944   2  10   0.0238   0.0219   0.0072  -0.0154  -0.0065   0.0072   0.00    0.0
2026/06/07 17:27:33.000   -492863.4497   5551481.7720   3092895.8966   2  10   0.0237   0.0218   0.0072  -0.0154  -0.0065   0.0072   0.00    0.0
2026/06/07 17:27:48.000   -492863.4516   5551481.7677   3092895.8997   2  10   0.0237   0.0218   0.0072  -0.0155  -0.0065   0.0072   0.00    0.0
2026/06/07 17:28:03.000   -492863.4538   5551481.7669   3092895.9036   2  11   0.0237   0.0217   0.0072  -0.0155  -0.0065   0.0072   0.00    0.0
2026/06/07 17:28:18.000   -492863.4532   5551481.7708   3092895.9070   2  10   0.0236   0.0216   0.0072  -0.0156  -0.0065   0.0072   0.00    0.0
2026/06/07 17:28:33.000   -492863.4542   5551481.7864   3092895.9119   2  13   0.0236   0.0215   0.0072  -0.0156  -0.0065   0.0072   0.00    0.0
2026/06/07 17:28:48.000   -492863.4555   5551481.8123   3092895.9171   2  13   0.0236   0.0214   0.0071  -0.0156  -0.0065   0.0073   0.00    0.0
2026/06/07 17:29:03.000   -492863.4616   5551481.8426   3092895.9233   2  11   0.0235   0.0213   0.0071  -0.0157  -0.0064   0.0073   0.00    0.0
2026/06/07 17:29:18.000   -492863.4746   5551481.8739   3092895.9278   2  11   0.0234   0.0212   0.0071  -0.0157  -0.0064   0.0073   0.00    0.0
2026/06/07 17:29:33.000   -492863.4949   5551481.9170   3092895.9331   2  13   0.0234   0.0211   0.0071  -0.0157  -0.0064   0.0073   0.00    0.0
2026/06/07 17:29:48.000   -492863.5046   5551481.9280   3092895.9317   2  12   0.0233   0.0210   0.0071  -0.0158  -0.0063   0.0073   0.00    0.0
2026/06/07 17:30:03.000   -492863.5101   5551481.9370   3092895.9311   2  12   0.0233   0.0210   0.0071  -0.0158  -0.0062   0.0073   0.00    0.0
2026/06/07 17:30:18.000   -492863.5115   5551481.9409   3092895.9299   2  11   0.0232   0.0209   0.0071  -0.0159  -0.0061   0.0072   0.00    0.0
2026/06/07 17:30:33.000   -492863.5203   5551481.9492   3092895.9291   2  11   0.0231   0.0209   0.0071  -0.0159  -0.0060   0.0072   0.00    0.0
2026/06/07 17:30:48.000   -492863.5255   5551481.9586   3092895.9284   2  10   0.0230   0.0208   0.0071  -0.0159  -0.0059   0.0072   0.00    0.0
2026/06/07 17:31:03.000   -492863.5315   5551481.9741   3092895.9261   2  10   0.0229   0.0207   0.0071  -0.0160  -0.0059   0.0072   0.00    0.0
2026/06/07 17:31:18.000   -492863.5359   5551481.9901   3092895.9229   2  10   0.0229   0.0207   0.0071  -0.0160  -0.0057   0.0072   0.00    0.0
2026/06/07 17:31:33.000   -492863.5387   5551482.0070   3092895.9199   2   9   0.0228   0.0206   0.0071  -0.0160  -0.0056   0.0071   0.00    0.0
2026/06/07 17:31:48.000   -492863.5374   5551482.0221   3092895.9162   2   9   0.0227   0.0205   0.0070  -0.0160  -0.0055   0.0071   0.00    0.0
2026/06/07 17:32:03.000   -492863.5357   5551482.0386   3092895.9119   2   9   0.0226   0.0204   0.0070  -0.0160  -0.0054   0.0071   0.00    0.0
2026/06/07 17:32:18.000   -492863.5308   5551482.0561   3092895.9078   2   9   0.0225   0.0203   0.0070  -0.0160  -0.0053   0.0071   0.00    0.0
2026/06/07 17:32:33.000   -492863.5276   5551482.0733   3092895.9039   2  10   0.0224   0.0202   0.0070  -0.0160  -0.0052   0.0070   0.00    0.0
2026/06/07 17:32:48.000   -492863.5289   5551482.0851   3092895.9023   2  10   0.0223   0.0202   0.0070  -0.0160  -0.0051   0.0070   0.00    0.0
2026/06/07 17:33:03.000   -492863.5303   5551482.0969   3092895.9014   2  10   0.0223   0.0201   0.0070  -0.0160  -0.0050   0.0069   0.00    0.0
2026/06/07 17:33:18.000   -492863.5306   5551482.1063   3092895.9010   2  10   0.0223   0.0200   0.0070  -0.0159  -0.0049   0.0069   0.00    0.0
2026/06/07 17:33:33.000   -492863.5316   5551482.1128   3092895.9012   2  11   0.0223   0.0199   0.0070  -0.0159  -0.0048   0.0068   0.00    0.0
2026/06/07 17:33:48.000   -492863.5314   5551482.1179   3092895.9012   2  10   0.0223   0.0198   0.0069  -0.0158  -0.0047   0.0068   0.00    0.0
2026/06/07 17:34:03.000   -492863.5321   5551482.1258   3092895.9001   2  11   0.0223   0.0197   0.0069  -0.0158  -0.0047   0.0067   0.00    0.0
2026/06/07 17:34:18.000   -492863.5360   5551482.1376   3092895.8986   2  11   0.0223   0.0196   0.0069  -0.0157  -0.0046   0.0067   0.00    0.0
2026/06/07 17:34:33.000   -492863.5408   5551482.1494   3092895.8978   2  10   0.0223   0.0195   0.0069  -0.0157  -0.0045   0.0066   0.00    0.0
2026/06/07 17:34:48.000   -492863.5427   5551482.1590   3092895.8971   2   9   0.0222   0.0194   0.0069  -0.0156  -0.0044   0.0066   0.00    0.0
2026/06/07 17:35:03.000   -492863.5424   5551482.1643   3092895.8973   2   9   0.0222   0.0193   0.0069  -0.0156  -0.0043   0.0065   0.00    0.0
2026/06/07 17:35:18.000   -492863.5433   5551482.1695   3092895.8969   2   9   0.0222   0.0191   0.0068  -0.0155  -0.0042   0.0064   0.00    0.0
2026/06/07 17:35:33.000   -492863.5446   5551482.1755   3092895.8961   2   9   0.0222   0.0190   0.0068  -0.0154  -0.0041   0.0064   0.00    0.0
2026/06/07 17:35:48.000   -492863.5444   5551482.1813   3092895.8956   2   9   0.0221   0.0189   0.0068  -0.0154  -0.0040   0.0063   0.00    0.0
2026/06/07 17:36:03.000   -492863.5444   5551482.1860   3092895.8955   2   9   0.0221   0.0188   0.0068  -0.0153  -0.0039   0.0063   0.00    0.0
2026/06/07 17:36:18.000   -492863.5466   5551482.1888   3092895.8952   2   9   0.0221   0.0187   0.0068  -0.0152  -0.0038   0.0062   0.00    0.0
2026/06/07 17:36:33.000   -492863.5510   5551482.1885   3092895.8951   2  10   0.0220   0.0185   0.0067  -0.0152  -0.0037   0.0062   0.00    0.0
2026/06/07 17:36:48.000   -492863.5521   5551482.1853   3092895.8955   2  11   0.0220   0.0184   0.0067  -0.0151  -0.0036   0.0061   0.00    0.0
2026/06/07 17:37:03.000   -492863.5428   5551482.1791   3092895.8965   2  11   0.0220   0.0183   0.0067  -0.0150  -0.0035   0.0061   0.00    0.0
2026/06/07 17:37:18.000   -492863.5341   5551482.1727   3092895.8976   2  12   0.0220   0.0182   0.0067  -0.0150  -0.0034   0.0060   0.00    0.0
2026/06/07 17:37:33.000   -492863.5269   5551482.1667   3092895.8979   2  12   0.0219   0.0180   0.0066  -0.0149  -0.0033   0.0060   0.00    0.0
2026/06/07 17:37:48.000   -492863.5223   5551482.1603   3092895.8989   2  10   0.0219   0.0179   0.0066  -0.0148  -0.0032   0.0059   0.00    0.0
2026/06/07 17:38:03.000   -492863.5215   5551482.1576   3092895.8995   2  10   0.0219   0.0178   0.0066  -0.0148  -0.0032   0.0059   0.00    0.0
2026/06/07 17:38:18.000   -492863.5236   5551482.1658   3092895.8992   2  10   0.0219   0.0177   0.0066  -0.0147  -0.0031   0.0058   0.00    0.0
2026/06/07 17:38:33.000   -492863.5269   5551482.1743   3092895.8991   2  11   0.0218   0.0176   0.0065  -0.0147  -0.0031   0.0058   0.00    0.0
2026/06/07 17:38:48.000   -492863.5278   5551482.1791   3092895.8983   2  10   0.0218   0.0175   0.0065  -0.0146  -0.0030   0.0057   0.00    0.0
2026/06/07 17:39:03.000   -492863.5279   5551482.1810   3092895.8981   2  10   0.0218   0.0174   0.0065  -0.0145  -0.0030   0.0057   0.00    0.0
2026/06/07 17:39:18.000   -492863.5256   5551482.1890   3092895.8959   2  10   0.0218   0.0174   0.0065  -0.0145  -0.0030   0.0057   0.00    0.0
2026/06/07 17:39:33.000   -492863.5241   5551482.1967   3092895.8940   2  10   0.0218   0.0174   0.0065  -0.0145  -0.0030   0.0057   0.00    0.0
2026/06/07 17:39:48.000   -492863.5228   5551482.2041   3092895.8925   2  11   0.0218   0.0174   0.0065  -0.0145  -0.0031   0.0056   0.00    0.0
2026/06/07 17:40:03.000   -492863.5256   5551482.2105   3092895.8897   2   9   0.0217   0.0174   0.0065  -0.0145  -0.0031   0.0056   0.00    0.0
2026/06/07 17:40:18.000   -492863.5290   5551482.2154   3092895.8871   2  11   0.0217   0.0174   0.0065  -0.0145  -0.0031   0.0056   0.00    0.0
2026/06/07 17:40:33.000   -492863.5317   5551482.2194   3092895.8848   2  11   0.0217   0.0174   0.0064  -0.0145  -0.0032   0.0056   0.00    0.0
2026/06/07 17:40:48.000   -492863.5380   5551482.2233   3092895.8827   2  11   0.0217   0.0174   0.0064  -0.0145  -0.0032   0.0056   0.00    0.0
2026/06/07 17:41:03.000   -492863.5423   5551482.2265   3092895.8810   2  11   0.0217   0.0174   0.0064  -0.0145  -0.0032   0.0055   0.00    0.0
2026/06/07 17:41:18.000   -492863.5456   5551482.2284   3092895.8790   2  12   0.0216   0.0174   0.0064  -0.0145  -0.0033   0.0055   0.00    0.0
2026/06/07 17:41:33.000   -492863.5472   5551482.2290   3092895.8776   2  12   0.0216   0.0174   0.0064  -0.0145  -0.0033   0.0055   0.00    0.0
2026/06/07 17:41:48.000   -492863.5474   5551482.2278   3092895.8757   2  12   0.0216   0.0174   0.0064  -0.0145  -0.0033   0.0055   0.00    0.0
2026/06/07 17:42:03.000   -492863.5469   5551482.2257   3092895.8740   2  11   0.0215   0.0173   0.0064  -0.0145  -0.0033   0.0054   0.00    0.0
2026/06/07 17:42:18.000   -492863.5473   5551482.2225   3092895.8729   2  11   0.0215   0.0173   0.0064  -0.0145  -0.0033   0.0054   0.00    0.0
2026/06/07 17:42:33.000   -492863.5526   5551482.2195   3092895.8721   2  11   0.0214   0.0173   0.0064  -0.0144  -0.0034   0.0054   0.00    0.0
2026/06/07 17:42:48.000   -492863.5597   5551482.2168   3092895.8719   2  11   0.0214   0.0173   0.0064  -0.0144  -0.0034   0.0054   0.00    0.0
2026/06/07 17:43:03.000   -492863.5696   5551482.2180   3092895.8715   2  10   0.0213   0.0173   0.0064  -0.0144  -0.0034   0.0054   0.00    0.0
2026/06/07 17:43:18.000   -492863.5765   5551482.2160   3092895.8709   2  12   0.0213   0.0173   0.0064  -0.0144  -0.0034   0.0053   0.00    0.0
2026/06/07 17:43:33.000   -492863.5857   5551482.2118   3092895.8695   2  12   0.0212   0.0173   0.0063  -0.0144  -0.0034   0.0053   0.00    0.0
2026/06/07 17:43:48.000   -492863.6001   5551482.2098   3092895.8690   2  12   0.0212   0.0172   0.0063  -0.0143  -0.0034   0.0053   0.00    0.0
2026/06/07 17:44:03.000   -492863.6071   5551482.2062   3092895.8689   2  11   0.0211   0.0172   0.0063  -0.0143  -0.0034   0.0053   0.00    0.0
2026/06/07 17:44:18.000   -492863.6145   5551482.2035   3092895.8694   2  11   0.0211   0.0172   0.0063  -0.0143  -0.0035   0.0052   0.00    0.0
2026/06/07 17:44:33.000   -492863.6157   5551482.2019   3092895.8704   2  10   0.0210   0.0172   0.0063  -0.0143  -0.0035   0.0052   0.00    0.0
2026/06/07 17:44:48.000   -492863.6159   5551482.1997   3092895.8710   2  12   0.0210   0.0172   0.0063  -0.0143  -0.0035   0.0052   0.00    0.0
2026/06/07 17:45:03.000   -492863.6155   5551482.1972   3092895.8708   2  11   0.0210   0.0171   0.0063  -0.0143  -0.0035   0.0052   0.00    0.0
2026/06/07 17:45:18.000   -492863.6129   5551482.1931   3092895.8706   2  10   0.0209   0.0171   0.0063  -0.0142  -0.0035   0.0052   0.00    0.0
2026/06/07 17:45:33.000   -492863.6115   5551482.1905   3092895.8697   2  10   0.0209   0.0171   0.0063  -0.0142  -0.0035   0.0051   0.00    0.0
2026/06/07 17:45:48.000   -492863.6123   5551482.1909   3092895.8689   2  12   0.0208   0.0171   0.0062  -0.0142  -0.0035   0.0051   0.00    0.0
2026/06/07 17:46:03.000   -492863.6129   5551482.1915   3092895.8682   2  12   0.0208   0.0171   0.0062  -0.0142  -0.0035   0.0051   0.00    0.0
2026/06/07 17:46:18.000   -492863.6118   5551482.1921   3092895.8679   2  12   0.0207   0.0170   0.0062  -0.0141  -0.0035   0.0051   0.00    0.0
2026/06/07 17:46:33.000   -492863.6060   5551482.1896   3092895.8675   2  12   0.0207   0.0170   0.0062  -0.0141  -0.0035   0.0051   0.00    0.0
2026/06/07 17:46:48.000   -492863.6001   5551482.1859   3092895.8676   2  12   0.0207   0.0170   0.0062  -0.0141  -0.0035   0.0051   0.00    0.0
2026/06/07 17:47:03.000   -492863.5965   5551482.1820   3092895.8678   2  12   0.0206   0.0169   0.0062  -0.0141  -0.0036   0.0050   0.00    0.0
2026/06/07 17:47:18.000   -492863.5944   5551482.1781   3092895.8679   2  11   0.0206   0.0169   0.0062  -0.0140  -0.0036   0.0050   0.00    0.0
2026/06/07 17:47:33.000   -492863.5954   5551482.1768   3092895.8672   2  10   0.0205   0.0169   0.0061  -0.0140  -0.0036   0.0050   0.00    0.0
2026/06/07 17:47:48.000   -492863.5952   5551482.1757   3092895.8672   2  10   0.0205   0.0169   0.0061  -0.0140  -0.0036   0.0050   0.00    0.0
2026/06/07 17:48:03.000   -492863.5954   5551482.1755   3092895.8676   2   9   0.0205   0.0168   0.0061  -0.0140  -0.0036   0.0050   0.00    0.0
2026/06/07 17:48:18.000   -492863.5952   5551482.1747   3092895.8679   2  11   0.0204   0.0168   0.0061  -0.0140  -0.0037   0.0050   0.00    0.0
2026/06/07 17:48:33.000   -492863.5962   5551482.1750   3092895.8679   2  11   0.0204   0.0168   0.0061  -0.0139  -0.0037   0.0050   0.00    0.0
2026/06/07 17:48:48.000   -492863.5957   5551482.1739   3092895.8681   2  11   0.0203   0.0168   0.0061  -0.0139  -0.0037   0.0050   0.00    0.0
2026/06/07 17:49:03.000   -492863.5775   5551482.1567   3092895.8729   2  11   0.0203   0.0168   0.0061  -0.0139  -0.0037   0.0049   0.00    0.0
2026/06/07 17:49:18.000   -492863.5720   5551482.1536   3092895.8746   2   9   0.0202   0.0167   0.0060  -0.0139  -0.0038   0.0049   0.00    0.0
2026/06/07 17:49:33.000   -492863.5726   5551482.1576   3092895.8753   2  10   0.0202   0.0167   0.0060  -0.0138  -0.0038   0.0049   0.00    0.0
2026/06/07 17:49:48.000   -492863.5716   5551482.1590   3092895.8744   2  10   0.0201   0.0167   0.0060  -0.0138  -0.0038   0.0049   0.00    0.0
2026/06/07 17:50:03.000   -492863.5709   5551482.1604   3092895.8737   2  11   0.0201   0.0167   0.0060  -0.0138  -0.0039   0.0049   0.00    0.0
2026/06/07 17:50:18.000   -492863.5674   5551482.1600   3092895.8728   2  10   0.0200   0.0167   0.0060  -0.0138  -0.0039   0.0049   0.00    0.0
2026/06/07 17:50:33.000   -492863.5641   5551482.1601   3092895.8722   2  10   0.0199   0.0167   0.0060  -0.0137  -0.0039   0.0049   0.00    0.0
2026/06/07 17:50:48.000   -492863.5624   5551482.1615   3092895.8713   2  10   0.0199   0.0166   0.0060  -0.0137  -0.0039   0.0049   0.00    0.0
2026/06/07 17:51:03.000   -492863.5572   5551482.1599   3092895.8713   2  10   0.0198   0.0166   0.0059  -0.0137  -0.0040   0.0049   0.00    0.0
2026/06/07 17:51:18.000   -492863.5538   5551482.1587   3092895.8713   2   9   0.0198   0.0166   0.0059  -0.0137  -0.0040   0.0048   0.00    0.0
2026/06/07 17:51:33.000   -492863.5498   5551482.1574   3092895.8714   2   9   0.0197   0.0166   0.0059  -0.0136  -0.0040   0.0048   0.00    0.0
2026/06/07 17:51:48.000   -492863.5470   5551482.1563   3092895.8714   2  10   0.0196   0.0166   0.0059  -0.0136  -0.0040   0.0048   0.00    0.0
2026/06/07 17:52:03.000   -492863.5461   5551482.1549   3092895.8714   2  11   0.0196   0.0166   0.0059  -0.0136  -0.0040   0.0048   0.00    0.0
2026/06/07 17:52:18.000   -492863.5489   5551482.1541   3092895.8710   2  11   0.0195   0.0165   0.0059  -0.0135  -0.0041   0.0048   0.00    0.0
2026/06/07 17:52:33.000   -492863.5509   5551482.1545   3092895.8707   2  10   0.0195   0.0165   0.0059  -0.0135  -0.0041   0.0048   0.00    0.0
2026/06/07 17:52:48.000   -492863.5513   5551482.1536   3092895.8704   2  12   0.0194   0.0165   0.0059  -0.0135  -0.0041   0.0048   0.00    0.0
2026/06/07 17:53:03.000   -492863.5491   5551482.1528   3092895.8704   2  11   0.0193   0.0165   0.0059  -0.0135  -0.0041   0.0048   0.00    0.0
2026/06/07 17:53:18.000   -492863.5456   5551482.1517   3092895.8709   2  12   0.0193   0.0165   0.0058  -0.0135  -0.0042   0.0048   0.00    0.0
2026/06/07 17:53:33.000   -492863.5422   5551482.1497   3092895.8715   2  12   0.0192   0.0165   0.0058  -0.0134  -0.0042   0.0048   0.00    0.0
2026/06/07 17:53:48.000   -492863.5379   5551482.1475   3092895.8717   2  11   0.0192   0.0165   0.0058  -0.0134  -0.0042   0.0048   0.00    0.0
2026/06/07 17:54:03.000   -492863.5313   5551482.1447   3092895.8715   2  11   0.0191   0.0165   0.0058  -0.0134  -0.0042   0.0048   0.00    0.0
2026/06/07 17:54:18.000   -492863.5250   5551482.1425   3092895.8714   2  12   0.0191   0.0164   0.0058  -0.0134  -0.0042   0.0047   0.00    0.0
2026/06/07 17:54:33.000   -492863.5220   5551482.1417   3092895.8711   2  12   0.0190   0.0164   0.0058  -0.0133  -0.0042   0.0047   0.00    0.0
2026/06/07 17:54:48.000   -492863.5181   5551482.1408   3092895.8709   2  12   0.0190   0.0164   0.0058  -0.0133  -0.0043   0.0047   0.00    0.0
2026/06/07 17:55:03.000   -492863.5130   5551482.1394   3092895.8711   2  12   0.0189   0.0164   0.0058  -0.0133  -0.0043   0.0047   0.00    0.0
2026/06/07 17:55:18.000   -492863.5123   5551482.1401   3092895.8705   2  11   0.0189   0.0164   0.0058  -0.0133  -0.0043   0.0047   0.00    0.0
2026/06/07 17:55:33.000   -492863.5053   5551482.1362   3092895.8698   2  10   0.0188   0.0164   0.0058  -0.0132  -0.0043   0.0047   0.00    0.0
2026/06/07 17:55:48.000   -492863.5010   5551482.1351   3092895.8696   2  11   0.0188   0.0164   0.0058  -0.0132  -0.0043   0.0047   0.00    0.0
2026/06/07 17:56:03.000   -492863.4952   5551482.1338   3092895.8689   2  11   0.0187   0.0164   0.0057  -0.0132  -0.0043   0.0047   0.00    0.0
2026/06/07 17:56:18.000   -492863.4857   5551482.1300   3092895.8684   2  11   0.0186   0.0163   0.0057  -0.0131  -0.0043   0.0047   0.00    0.0
2026/06/07 17:56:33.000   -492863.4799   5551482.1281   3092895.8679   2   7   0.0186   0.0163   0.0057  -0.0131  -0.0043   0.0047   0.00    0.0
2026/06/07 17:56:48.000   -492863.4714   5551482.1248   3092895.8676   2  10   0.0185   0.0163   0.0057  -0.0131  -0.0043   0.0047   0.00    0.0
2026/06/07 17:57:03.000   -492863.4662   5551482.1231   3092895.8673   2   6   0.0184   0.0163   0.0057  -0.0131  -0.0043   0.0047   0.00    0.0
2026/06/07 17:57:18.000   -492863.4610   5551482.1240   3092895.8676   2   9   0.0184   0.0163   0.0057  -0.0130  -0.0044   0.0047   0.00    0.0
2026/06/07 17:57:33.000   -492863.4560   5551482.1274   3092895.8682   2   9   0.0183   0.0163   0.0057  -0.0130  -0.0044   0.0047   0.00    0.0
2026/06/07 17:57:48.000   -492863.4474   5551482.1299   3092895.8685   2   8   0.0183   0.0163   0.0057  -0.0130  -0.0044   0.0047   0.00    0.0
2026/06/07 17:58:03.000   -492863.4397   5551482.1252   3092895.8680   2   9   0.0182   0.0163   0.0057  -0.0129  -0.0044   0.0047   0.00    0.0
2026/06/07 17:58:18.000   -492863.4285   5551482.1110   3092895.8657   2  11   0.0182   0.0162   0.0057  -0.0129  -0.0044   0.0047   0.00    0.0
2026/06/07 17:58:33.000   -492863.4208   5551482.1062   3092895.8652   2   9   0.0181   0.0162   0.0057  -0.0129  -0.0044   0.0047   0.00    0.0
2026/06/07 17:58:48.000   -492863.4146   5551482.1026   3092895.8650   2  10   0.0180   0.0162   0.0057  -0.0129  -0.0044   0.0047   0.00    0.0
2026/06/07 17:59:03.000   -492863.4100   5551482.1001   3092895.8647   2  10   0.0180   0.0162   0.0057  -0.0128  -0.0044   0.0046   0.00    0.0
2026/06/07 17:59:18.000   -492863.4035   5551482.0964   3092895.8646   2  10   0.0179   0.0162   0.0057  -0.0128  -0.0044   0.0046   0.00    0.0
2026/06/07 17:59:33.000   -492863.3976   5551482.0935   3092895.8644   2  11   0.0179   0.0162   0.0057  -0.0128  -0.0044   0.0046   0.00    0.0
2026/06/07 17:59:48.000   -492863.3921   5551482.0906   3092895.8646   2  10   0.0178   0.0162   0.0057  -0.0127  -0.0044   0.0046   0.00    0.0
2026/06/07 18:00:03.000   -492863.3887   5551482.0885   3092895.8650   2   9   0.0177   0.0162   0.0056  -0.0127  -0.0044   0.0046   0.00    0.0
