% program   : rnx2rtkp ver.EX 2.5.0
% inp file  : rover_0608.obs
% inp file  : base_0608.obs
% inp file  : rover_0608.nav
% obs start : 2026/06/07 17:00:18.0 GPST (week2422  61218.0s)
% obs end   : 2026/06/07 18:00:03.0 GPST (week2422  64803.0s)
% ref pos   :   -493099.0177   5551411.7498   3092557.5669
%
% (x/y/z-ecef=WGS84,Q=1:fix,2:float,3:sbas,4:dgps,5:single,6:ppp,ns=# of satellites)
%  GPST                      x-ecef(m)      y-ecef(m)      z-ecef(m)   Q  ns   sdx(m)   sdy(m)   sdz(m)  sdxy(m)  sdyz(m)  sdzx(m) age(s)  ratio
2026/06/07 17:00:18.000   -492867.2171   5551483.3392   3092901.6592   2  10   2.2172   3.9393   2.7909  -1.5636   2.5318  -2.1112   0.00    0.0
2026/06/07 17:00:33.000   -492866.5086   5551482.2608   3092900.0266   2  10   1.2409   2.6274   1.3399  -0.9439   1.4322  -0.8878   0.00    0.0
2026/06/07 17:00:48.000   -492866.4573   5551481.8399   3092899.3948   2  10   0.9390   1.8828   0.8352  -0.6286   0.8902  -0.4869   0.00    0.0
2026/06/07 17:01:03.000   -492866.4216   5551481.5404   3092898.4822   2   8   0.8314   1.4631   0.6172  -0.4677   0.5752  -0.3291   0.00    0.0
2026/06/07 17:01:18.000   -492866.2894   5551481.5386   3092897.5373   2   9   0.7283   1.1619   0.4731  -0.3326   0.3924  -0.2262   0.00    0.0
2026/06/07 17:01:33.000   -492865.9345   5551480.5358   3092897.0036   2  10   0.6627   0.9489   0.4103  -0.2211   0.2678  -0.2147   0.00    0.0
2026/06/07 17:01:48.000   -492865.6033   5551480.1110   3092896.7994   2  10   0.6156   0.7957   0.3557  -0.1531   0.1797  -0.1993   0.00    0.0
2026/06/07 17:02:03.000   -492865.0192   5551480.0352   3092896.6123   2  11   0.5678   0.6711   0.3060  -0.0639   0.1242  -0.1795   0.00    0.0
2026/06/07 17:02:18.000   -492864.4512   5551480.1922   3092896.5036   2  11   0.5230   0.5741   0.2627   0.0536   0.0865  -0.1516   0.00    0.0
2026/06/07 17:02:33.000   -492864.0764   5551480.5507   3092896.4886   2  11   0.4820   0.4961   0.2263   0.0633   0.0644  -0.1212   0.00    0.0
2026/06/07 17:02:48.000   -492863.7964   5551480.7831   3092896.3127   2  11   0.4457   0.4369   0.1960   0.0556   0.0520  -0.0913   0.00    0.0
2026/06/07 17:03:03.000   -492863.5849   5551481.0587   3092896.0553   2  11   0.4127   0.3882   0.1712   0.0395   0.0448  -0.0604   0.00    0.0
2026/06/07 17:03:18.000   -492863.3769   5551481.1676   3092895.8834   2  10   0.3847   0.3484   0.1510  -0.0289   0.0378  -0.0107   0.00    0.0
2026/06/07 17:03:33.000   -492863.3710   5551481.2951   3092895.8200   2  10   0.3591   0.3146   0.1343  -0.0501   0.0327   0.0471   0.00    0.0
2026/06/07 17:03:48.000   -492863.6455   5551481.4431   3092895.8023   2  10   0.3357   0.2858   0.1205  -0.0602   0.0286   0.0608   0.00    0.0
2026/06/07 17:04:03.000   -492863.7014   5551481.5992   3092895.7284   2  10   0.3144   0.2610   0.1090  -0.0656   0.0251   0.0676   0.00    0.0
2026/06/07 17:04:18.000   -492863.6061   5551481.6763   3092895.6307   2   9   0.2943   0.2392   0.0993  -0.0666   0.0232   0.0704   0.00    0.0
2026/06/07 17:04:33.000   -492863.6974   5551481.6556   3092895.5251   2  11   0.2753   0.2218   0.0921  -0.0653   0.0302   0.0717   0.00    0.0
2026/06/07 17:04:48.000   -492863.6475   5551481.6402   3092895.4150   2  11   0.2584   0.2063   0.0859  -0.0631   0.0332   0.0720   0.00    0.0
2026/06/07 17:05:03.000   -492863.5385   5551481.6116   3092895.3061   2  11   0.2433   0.1923   0.0804  -0.0612   0.0342   0.0715   0.00    0.0
2026/06/07 17:05:18.000   -492863.4382   5551481.6006   3092895.2373   2  11   0.2294   0.1795   0.0754  -0.0593   0.0341   0.0705   0.00    0.0
2026/06/07 17:05:33.000   -492863.3584   5551481.5823   3092895.1730   2  11   0.2167   0.1678   0.0709  -0.0575   0.0334   0.0692   0.00    0.0
2026/06/07 17:05:48.000   -492863.3441   5551481.5274   3092895.1171   2  11   0.2051   0.1576   0.0668  -0.0559   0.0323   0.0676   0.00    0.0
2026/06/07 17:06:03.000   -492863.1970   5551481.5110   3092895.0891   2  11   0.1945   0.1488   0.0631  -0.0537   0.0312   0.0659   0.00    0.0
2026/06/07 17:06:18.000   -492862.6591   5551481.3363   3092895.0728   2  10   0.1849   0.1409   0.0597  -0.0520   0.0299   0.0641   0.00    0.0
2026/06/07 17:06:33.000   -492862.3070   5551481.2449   3092895.0605   2  10   0.1759   0.1335   0.0566  -0.0503   0.0285   0.0623   0.00    0.0
2026/06/07 17:06:48.000   -492862.0401   5551481.2085   3092895.0395   2  10   0.1676   0.1267   0.0538  -0.0487   0.0271   0.0604   0.00    0.0
2026/06/07 17:07:03.000   -492861.8245   5551481.1560   3092895.0275   2  11   0.1598   0.1204   0.0511  -0.0470   0.0258   0.0585   0.00    0.0
2026/06/07 17:07:18.000   -492861.6658   5551481.1232   3092895.0507   2  11   0.1526   0.1146   0.0487  -0.0456   0.0245   0.0568   0.00    0.0
2026/06/07 17:07:33.000   -492861.5082   5551481.1163   3092895.0764   2  10   0.1459   0.1093   0.0465  -0.0444   0.0231   0.0550   0.00    0.0
2026/06/07 17:07:48.000   -492861.3631   5551481.1171   3092895.0860   2  10   0.1397   0.1043   0.0444  -0.0432   0.0218   0.0533   0.00    0.0
2026/06/07 17:08:03.000   -492861.3157   5551481.1788   3092895.0968   2  10   0.1339   0.0997   0.0425  -0.0420   0.0207   0.0515   0.00    0.0
2026/06/07 17:08:18.000   -492861.4406   5551481.2451   3092895.1019   2  11   0.1285   0.0955   0.0407  -0.0409   0.0195   0.0499   0.00    0.0
2026/06/07 17:08:33.000   -492861.5818   5551481.2724   3092895.0825   2  11   0.1234   0.0916   0.0390  -0.0399   0.0184   0.0483   0.00    0.0
2026/06/07 17:08:48.000   -492861.5020   5551481.1820   3092895.0927   2  12   0.1185   0.0879   0.0374  -0.0387   0.0174   0.0468   0.00    0.0
2026/06/07 17:09:03.000   -492861.6828   5551481.2234   3092895.1032   2  11   0.1139   0.0844   0.0360  -0.0376   0.0165   0.0453   0.00    0.0
2026/06/07 17:09:18.000   -492861.8326   5551481.2503   3092895.1065   2  11   0.1096   0.0812   0.0346  -0.0366   0.0155   0.0438   0.00    0.0
2026/06/07 17:09:33.000   -492861.9607   5551481.2816   3092895.1115   2  11   0.1056   0.0782   0.0333  -0.0356   0.0147   0.0424   0.00    0.0
2026/06/07 17:09:48.000   -492862.0793   5551481.2985   3092895.1237   2  11   0.1018   0.0753   0.0321  -0.0347   0.0138   0.0411   0.00    0.0
2026/06/07 17:10:03.000   -492862.1706   5551481.3159   3092895.1353   2  11   0.0982   0.0726   0.0309  -0.0339   0.0130   0.0399   0.00    0.0
2026/06/07 17:10:18.000   -492862.2879   5551481.3501   3092895.1427   2  10   0.0960   0.0700   0.0299  -0.0327   0.0122   0.0386   0.00    0.0
2026/06/07 17:10:33.000   -492862.4283   5551481.4101   3092895.1469   2  11   0.0939   0.0676   0.0288  -0.0316   0.0114   0.0374   0.00    0.0
2026/06/07 17:10:48.000   -492862.5164   5551481.4749   3092895.1423   2  11   0.0922   0.0653   0.0280  -0.0302   0.0105   0.0360   0.00    0.0
2026/06/07 17:11:03.000   -492862.5731   5551481.4950   3092895.1360   2   9   0.0907   0.0632   0.0271  -0.0291   0.0095   0.0346   0.00    0.0
2026/06/07 17:11:18.000   -492862.6052   5551481.5092   3092895.1412   2   9   0.0894   0.0624   0.0264  -0.0290   0.0091   0.0333   0.00    0.0
2026/06/07 17:11:33.000   -492862.6346   5551481.5198   3092895.1482   2  10   0.0881   0.0617   0.0257  -0.0288   0.0087   0.0321   0.00    0.0
2026/06/07 17:11:48.000   -492862.6562   5551481.5331   3092895.1508   2  10   0.0869   0.0610   0.0250  -0.0286   0.0083   0.0309   0.00    0.0
2026/06/07 17:12:03.000   -492862.6701   5551481.5508   3092895.1577   2  10   0.0858   0.0603   0.0244  -0.0284   0.0079   0.0297   0.00    0.0
2026/06/07 17:12:18.000   -492862.6760   5551481.5687   3092895.1692   2  10   0.0847   0.0595   0.0238  -0.0282   0.0074   0.0286   0.00    0.0
2026/06/07 17:12:33.000   -492862.6616   5551481.5543   3092895.1784   2   9   0.0838   0.0590   0.0232  -0.0284   0.0069   0.0275   0.00    0.0
2026/06/07 17:12:48.000   -492862.6633   5551481.5408   3092895.1824   2  10   0.0829   0.0585   0.0226  -0.0286   0.0063   0.0264   0.00    0.0
2026/06/07 17:13:03.000   -492862.6485   5551481.5263   3092895.1943   2  11   0.0821   0.0580   0.0221  -0.0288   0.0058   0.0254   0.00    0.0
2026/06/07 17:13:18.000   -492862.6330   5551481.5193   3092895.2084   2  10   0.0813   0.0574   0.0216  -0.0289   0.0051   0.0245   0.00    0.0
2026/06/07 17:13:33.000   -492862.6353   5551481.5044   3092895.2167   2  10   0.0805   0.0569   0.0211  -0.0290   0.0045   0.0235   0.00    0.0
2026/06/07 17:13:48.000   -492862.6416   5551481.4913   3092895.2241   2  10   0.0797   0.0563   0.0206  -0.0292   0.0037   0.0226   0.00    0.0
2026/06/07 17:14:03.000   -492862.6455   5551481.4781   3092895.2349   2  11   0.0790   0.0557   0.0202  -0.0293   0.0029   0.0217   0.00    0.0
2026/06/07 17:14:18.000   -492862.6578   5551481.4722   3092895.2431   2  11   0.0782   0.0551   0.0197  -0.0294   0.0017   0.0209   0.00    0.0
2026/06/07 17:14:33.000   -492862.6696   5551481.4874   3092895.2493   2  11   0.0775   0.0545   0.0193  -0.0294  -0.0015   0.0201   0.00    0.0
2026/06/07 17:14:48.000   -492862.6712   5551481.4803   3092895.2598   2  10   0.0767   0.0539   0.0189  -0.0295  -0.0027   0.0193   0.00    0.0
2026/06/07 17:15:03.000   -492862.6738   5551481.4857   3092895.2724   2  10   0.0760   0.0532   0.0185  -0.0296  -0.0034   0.0186   0.00    0.0
2026/06/07 17:15:18.000   -492862.6829   5551481.4836   3092895.2839   2  10   0.0752   0.0526   0.0181  -0.0296  -0.0040   0.0179   0.00    0.0
2026/06/07 17:15:33.000   -492862.6979   5551481.4760   3092895.2936   2  11   0.0744   0.0520   0.0177  -0.0296  -0.0044   0.0172   0.00    0.0
2026/06/07 17:15:48.000   -492862.7203   5551481.4570   3092895.3020   2  11   0.0736   0.0514   0.0174  -0.0296  -0.0048   0.0166   0.00    0.0
2026/06/07 17:16:03.000   -492862.7393   5551481.4408   3092895.3081   2  11   0.0728   0.0508   0.0170  -0.0295  -0.0051   0.0160   0.00    0.0
2026/06/07 17:16:18.000   -492862.7458   5551481.4324   3092895.3205   2  11   0.0719   0.0501   0.0167  -0.0294  -0.0054   0.0154   0.00    0.0
2026/06/07 17:16:33.000   -492862.7462   5551481.4147   3092895.3322   2  11   0.0711   0.0495   0.0164  -0.0293  -0.0056   0.0149   0.00    0.0
2026/06/07 17:16:48.000   -492862.7640   5551481.4034   3092895.3427   2  11   0.0702   0.0489   0.0161  -0.0292  -0.0059   0.0144   0.00    0.0
2026/06/07 17:17:03.000   -492862.7943   5551481.3841   3092895.3528   2  10   0.0693   0.0483   0.0157  -0.0291  -0.0061   0.0139   0.00    0.0
2026/06/07 17:17:18.000   -492862.8414   5551481.3573   3092895.3631   2  10   0.0683   0.0476   0.0154  -0.0290  -0.0062   0.0135   0.00    0.0
2026/06/07 17:17:33.000   -492862.8991   5551481.3383   3092895.3688   2  10   0.0674   0.0470   0.0151  -0.0288  -0.0064   0.0131   0.00    0.0
2026/06/07 17:17:48.000   -492862.9332   5551481.3136   3092895.3752   2  10   0.0664   0.0464   0.0149  -0.0287  -0.0065   0.0128   0.00    0.0
2026/06/07 17:18:03.000   -492862.9674   5551481.2981   3092895.3786   2  11   0.0654   0.0458   0.0146  -0.0285  -0.0067   0.0124   0.00    0.0
2026/06/07 17:18:18.000   -492862.9999   5551481.2713   3092895.3754   2  11   0.0644   0.0452   0.0143  -0.0283  -0.0068   0.0122   0.00    0.0
2026/06/07 17:18:33.000   -492863.0428   5551481.2517   3092895.3737   2  11   0.0634   0.0446   0.0141  -0.0281  -0.0069   0.0119   0.00    0.0
2026/06/07 17:18:48.000   -492863.1055   5551481.2377   3092895.3712   2  11   0.0623   0.0440   0.0138  -0.0279  -0.0069   0.0117   0.00    0.0
2026/06/07 17:19:03.000   -492863.1555   5551481.2284   3092895.3669   2  11   0.0613   0.0434   0.0136  -0.0277  -0.0070   0.0115   0.00    0.0
2026/06/07 17:19:18.000   -492863.1790   5551481.2265   3092895.3631   2  12   0.0603   0.0428   0.0133  -0.0275  -0.0071   0.0113   0.00    0.0
2026/06/07 17:19:33.000   -492863.2261   5551481.2336   3092895.3605   2  11   0.0592   0.0422   0.0131  -0.0273  -0.0071   0.0111   0.00    0.0
2026/06/07 17:19:48.000   -492863.2708   5551481.2445   3092895.3584   2  11   0.0582   0.0415   0.0129  -0.0270  -0.0072   0.0110   0.00    0.0
2026/06/07 17:20:03.000   -492863.3124   5551481.2453   3092895.3603   2  10   0.0571   0.0409   0.0126  -0.0268  -0.0072   0.0108   0.00    0.0
2026/06/07 17:20:18.000   -492863.3479   5551481.2364   3092895.3601   2  11   0.0561   0.0403   0.0124  -0.0265  -0.0072   0.0107   0.00    0.0
2026/06/07 17:20:33.000   -492863.3781   5551481.2187   3092895.3582   2  13   0.0550   0.0397   0.0122  -0.0263  -0.0072   0.0106   0.00    0.0
2026/06/07 17:20:48.000   -492863.3984   5551481.1923   3092895.3597   2  13   0.0540   0.0391   0.0120  -0.0260  -0.0072   0.0105   0.00    0.0
2026/06/07 17:21:03.000   -492863.4119   5551481.1703   3092895.3596   2  13   0.0530   0.0385   0.0118  -0.0258  -0.0073   0.0104   0.00    0.0
2026/06/07 17:21:18.000   -492863.4153   5551481.1366   3092895.3610   2  12   0.0520   0.0378   0.0116  -0.0255  -0.0072   0.0104   0.00    0.0
2026/06/07 17:21:33.000   -492863.4193   5551481.1008   3092895.3628   2  12   0.0510   0.0372   0.0114  -0.0252  -0.0072   0.0103   0.00    0.0
2026/06/07 17:21:48.000   -492863.4189   5551481.0714   3092895.3665   2  12   0.0500   0.0366   0.0112  -0.0249  -0.0072   0.0102   0.00    0.0
2026/06/07 17:22:03.000   -492863.4287   5551481.0437   3092895.3707   2  12   0.0490   0.0360   0.0110  -0.0247  -0.0072   0.0101   0.00    0.0
2026/06/07 17:22:18.000   -492863.4553   5551481.0138   3092895.3783   2  12   0.0481   0.0354   0.0109  -0.0244  -0.0072   0.0101   0.00    0.0
2026/06/07 17:22:33.000   -492863.4841   5551480.9890   3092895.3910   2  13   0.0471   0.0348   0.0107  -0.0241  -0.0072   0.0100   0.00    0.0
2026/06/07 17:22:48.000   -492863.5084   5551480.9681   3092895.4052   2  14   0.0462   0.0342   0.0105  -0.0238  -0.0071   0.0100   0.00    0.0
2026/06/07 17:23:03.000   -492863.5304   5551480.9562   3092895.4116   2  13   0.0453   0.0337   0.0104  -0.0235  -0.0071   0.0099   0.00    0.0
2026/06/07 17:23:18.000   -492863.5486   5551480.9500   3092895.4187   2  14   0.0444   0.0331   0.0102  -0.0232  -0.0071   0.0099   0.00    0.0
2026/06/07 17:23:33.000   -492863.5619   5551480.9294   3092895.4265   2  14   0.0436   0.0325   0.0100  -0.0229  -0.0070   0.0098   0.00    0.0
2026/06/07 17:23:48.000   -492863.5602   5551480.9058   3092895.4332   2  14   0.0427   0.0320   0.0099  -0.0226  -0.0070   0.0097   0.00    0.0
2026/06/07 17:24:03.000   -492863.5533   5551480.8781   3092895.4396   2  13   0.0419   0.0314   0.0097  -0.0223  -0.0069   0.0097   0.00    0.0
2026/06/07 17:24:18.000   -492863.5379   5551480.8401   3092895.4418   2  13   0.0411   0.0309   0.0096  -0.0220  -0.0069   0.0096   0.00    0.0
2026/06/07 17:24:33.000   -492863.5563   5551480.8388   3092895.4448   2  11   0.0404   0.0305   0.0095  -0.0220  -0.0068   0.0096   0.00    0.0
2026/06/07 17:24:48.000   -492863.5738   5551480.8365   3092895.4514   2  11   0.0398   0.0302   0.0093  -0.0219  -0.0068   0.0095   0.00    0.0
2026/06/07 17:25:03.000   -492863.5944   5551480.8480   3092895.4532   2  10   0.0392   0.0299   0.0093  -0.0219  -0.0069   0.0096   0.00    0.0
2026/06/07 17:25:18.000   -492863.5966   5551480.8646   3092895.4517   2  11   0.0386   0.0296   0.0092  -0.0219  -0.0069   0.0096   0.00    0.0
2026/06/07 17:25:33.000   -492863.5855   5551480.8852   3092895.4499   2  12   0.0380   0.0293   0.0091  -0.0218  -0.0069   0.0095   0.00    0.0
2026/06/07 17:25:48.000   -492863.5699   5551480.9055   3092895.4470   2  12   0.0375   0.0289   0.0091  -0.0218  -0.0070   0.0095   0.00    0.0
2026/06/07 17:26:03.000   -492863.5558   5551480.9252   3092895.4447   2  12   0.0370   0.0286   0.0090  -0.0217  -0.0070   0.0095   0.00    0.0
2026/06/07 17:26:18.000   -492863.5502   5551480.9397   3092895.4428   2  12   0.0365   0.0283   0.0090  -0.0216  -0.0070   0.0095   0.00    0.0
2026/06/07 17:26:33.000   -492863.5407   5551480.9499   3092895.4417   2  12   0.0360   0.0280   0.0089  -0.0216  -0.0070   0.0094   0.00    0.0
2026/06/07 17:26:48.000   -492863.5237   5551480.9537   3092895.4408   2  11   0.0355   0.0277   0.0089  -0.0215  -0.0070   0.0094   0.00    0.0
2026/06/07 17:27:03.000   -492863.4995   5551480.9522   3092895.4394   2  10   0.0351   0.0274   0.0088  -0.0214  -0.0070   0.0094   0.00    0.0
2026/06/07 17:27:18.000   -492863.4808   5551480.9521   3092895.4390   2  10   0.0346   0.0271   0.0088  -0.0213  -0.0070   0.0093   0.00    0.0
2026/06/07 17:27:33.000   -492863.4647   5551480.9561   3092895.4398   2  10   0.0341   0.0268   0.0087  -0.0212  -0.0070   0.0093   0.00    0.0
2026/06/07 17:27:48.000   -492863.4535   5551480.9674   3092895.4420   2  10   0.0337   0.0265   0.0087  -0.0211  -0.0070   0.0093   0.00    0.0
2026/06/07 17:28:03.000   -492863.4431   5551480.9804   3092895.4449   2  11   0.0333   0.0262   0.0086  -0.0210  -0.0070   0.0092   0.00    0.0
2026/06/07 17:28:18.000   -492863.4277   5551480.9968   3092895.4472   2  10   0.0328   0.0259   0.0086  -0.0208  -0.0070   0.0092   0.00    0.0
2026/06/07 17:28:33.000   -492863.4169   5551481.0267   3092895.4516   2  13   0.0324   0.0256   0.0085  -0.0207  -0.0069   0.0092   0.00    0.0
2026/06/07 17:28:48.000   -492863.4030   5551481.0653   3092895.4577   2  13   0.0320   0.0253   0.0084  -0.0206  -0.0069   0.0091   0.00    0.0
2026/06/07 17:29:03.000   -492863.4004   5551481.1093   3092895.4645   2  11   0.0316   0.0250   0.0084  -0.0204  -0.0069   0.0091   0.00    0.0
2026/06/07 17:29:18.000   -492863.4087   5551481.1548   3092895.4701   2  11   0.0312   0.0247   0.0083  -0.0203  -0.0069   0.0091   0.00    0.0
2026/06/07 17:29:33.000   -492863.4254   5551481.2130   3092895.4773   2  13   0.0308   0.0244   0.0083  -0.0201  -0.0068   0.0090   0.00    0.0
2026/06/07 17:29:48.000   -492863.4225   5551481.2253   3092895.4750   2  12   0.0304   0.0242   0.0082  -0.0201  -0.0067   0.0090   0.00    0.0
2026/06/07 17:30:03.000   -492863.4136   5551481.2345   3092895.4732   2  12   0.0300   0.0240   0.0082  -0.0200  -0.0066   0.0089   0.00    0.0
2026/06/07 17:30:18.000   -492863.4055   5551481.2435   3092895.4719   2  11   0.0297   0.0239   0.0082  -0.0199  -0.0065   0.0088   0.00    0.0
2026/06/07 17:30:33.000   -492863.4106   5551481.2562   3092895.4702   2  11   0.0293   0.0237   0.0081  -0.0198  -0.0063   0.0087   0.00    0.0
2026/06/07 17:30:48.000   -492863.4085   5551481.2670   3092895.4682   2  10   0.0290   0.0235   0.0081  -0.0197  -0.0062   0.0087   0.00    0.0
2026/06/07 17:31:03.000   -492863.4057   5551481.2813   3092895.4649   2  10   0.0287   0.0233   0.0080  -0.0196  -0.0061   0.0086   0.00    0.0
2026/06/07 17:31:18.000   -492863.3985   5551481.2952   3092895.4618   2  10   0.0283   0.0232   0.0080  -0.0195  -0.0060   0.0085   0.00    0.0
2026/06/07 17:31:33.000   -492863.3888   5551481.3077   3092895.4587   2   9   0.0280   0.0230   0.0080  -0.0194  -0.0058   0.0084   0.00    0.0
2026/06/07 17:31:48.000   -492863.3761   5551481.3189   3092895.4551   2   9   0.0277   0.0228   0.0079  -0.0193  -0.0057   0.0084   0.00    0.0
2026/06/07 17:32:03.000   -492863.3631   5551481.3316   3092895.4517   2   9   0.0274   0.0226   0.0079  -0.0192  -0.0056   0.0083   0.00    0.0
2026/06/07 17:32:18.000   -492863.3472   5551481.3444   3092895.4481   2   9   0.0270   0.0225   0.0078  -0.0191  -0.0055   0.0082   0.00    0.0
2026/06/07 17:32:33.000   -492863.3369   5551481.3589   3092895.4448   2  10   0.0267   0.0223   0.0078  -0.0189  -0.0053   0.0081   0.00    0.0
2026/06/07 17:32:48.000   -492863.3347   5551481.3676   3092895.4435   2  10   0.0266   0.0221   0.0078  -0.0188  -0.0052   0.0080   0.00    0.0
2026/06/07 17:33:03.000   -492863.3321   5551481.3748   3092895.4426   2  10   0.0265   0.0220   0.0077  -0.0187  -0.0051   0.0080   0.00    0.0
2026/06/07 17:33:18.000   -492863.3280   5551481.3797   3092895.4422   2  10   0.0264   0.0218   0.0077  -0.0186  -0.0050   0.0079   0.00    0.0
2026/06/07 17:33:33.000   -492863.3235   5551481.3816   3092895.4416   2  11   0.0263   0.0216   0.0077  -0.0184  -0.0049   0.0078   0.00    0.0
2026/06/07 17:33:48.000   -492863.3171   5551481.3826   3092895.4414   2  10   0.0262   0.0215   0.0076  -0.0183  -0.0048   0.0077   0.00    0.0
2026/06/07 17:34:03.000   -492863.3152   5551481.3882   3092895.4401   2  11   0.0260   0.0213   0.0076  -0.0182  -0.0047   0.0076   0.00    0.0
2026/06/07 17:34:18.000   -492863.3161   5551481.3963   3092895.4386   2  11   0.0259   0.0211   0.0075  -0.0181  -0.0046   0.0075   0.00    0.0
2026/06/07 17:34:33.000   -492863.3145   5551481.4028   3092895.4375   2  10   0.0258   0.0210   0.0075  -0.0180  -0.0045   0.0074   0.00    0.0
2026/06/07 17:34:48.000   -492863.3120   5551481.4078   3092895.4368   2   9   0.0257   0.0208   0.0075  -0.0178  -0.0044   0.0073   0.00    0.0
2026/06/07 17:35:03.000   -492863.3072   5551481.4079   3092895.4368   2   9   0.0256   0.0206   0.0074  -0.0177  -0.0043   0.0073   0.00    0.0
2026/06/07 17:35:18.000   -492863.3049   5551481.4091   3092895.4360   2   9   0.0255   0.0205   0.0074  -0.0176  -0.0042   0.0072   0.00    0.0
2026/06/07 17:35:33.000   -492863.3013   5551481.4107   3092895.4351   2   9   0.0253   0.0203   0.0074  -0.0174  -0.0041   0.0071   0.00    0.0
2026/06/07 17:35:48.000   -492863.2981   5551481.4130   3092895.4347   2   9   0.0252   0.0202   0.0073  -0.0173  -0.0040   0.0070   0.00    0.0
2026/06/07 17:36:03.000   -492863.2958   5551481.4143   3092895.4344   2   9   0.0251   0.0200   0.0073  -0.0172  -0.0039   0.0069   0.00    0.0
2026/06/07 17:36:18.000   -492863.2948   5551481.4133   3092895.4337   2   9   0.0250   0.0198   0.0072  -0.0171  -0.0038   0.0069   0.00    0.0
2026/06/07 17:36:33.000   -492863.2950   5551481.4091   3092895.4335   2  10   0.0249   0.0197   0.0072  -0.0169  -0.0038   0.0068   0.00    0.0
2026/06/07 17:36:48.000   -492863.2938   5551481.4015   3092895.4335   2  11   0.0248   0.0195   0.0072  -0.0168  -0.0037   0.0067   0.00    0.0
2026/06/07 17:37:03.000   -492863.2900   5551481.3946   3092895.4337   2  11   0.0246   0.0193   0.0071  -0.0167  -0.0036   0.0066   0.00    0.0
2026/06/07 17:37:18.000   -492863.2855   5551481.3866   3092895.4341   2  12   0.0245   0.0192   0.0071  -0.0166  -0.0035   0.0065   0.00    0.0
2026/06/07 17:37:33.000   -492863.2830   5551481.3797   3092895.4340   2  12   0.0244   0.0190   0.0070  -0.0164  -0.0034   0.0065   0.00    0.0
2026/06/07 17:37:48.000   -492863.2822   5551481.3718   3092895.4351   2  10   0.0243   0.0188   0.0070  -0.0163  -0.0033   0.0064   0.00    0.0
2026/06/07 17:38:03.000   -492863.2828   5551481.3668   3092895.4354   2  10   0.0242   0.0187   0.0070  -0.0162  -0.0032   0.0063   0.00    0.0
2026/06/07 17:38:18.000   -492863.2835   5551481.3695   3092895.4358   2  10   0.0241   0.0185   0.0069  -0.0161  -0.0031   0.0062   0.00    0.0
2026/06/07 17:38:33.000   -492863.2836   5551481.3721   3092895.4365   2  11   0.0240   0.0184   0.0069  -0.0159  -0.0031   0.0062   0.00    0.0
2026/06/07 17:38:48.000   -492863.2834   5551481.3720   3092895.4365   2  10   0.0238   0.0182   0.0068  -0.0158  -0.0030   0.0061   0.00    0.0
2026/06/07 17:39:03.000   -492863.2829   5551481.3696   3092895.4369   2  10   0.0237   0.0181   0.0068  -0.0157  -0.0029   0.0060   0.00    0.0
2026/06/07 17:39:18.000   -492863.2836   5551481.3707   3092895.4368   2  10   0.0237   0.0181   0.0068  -0.0157  -0.0030   0.0060   0.00    0.0
2026/06/07 17:39:33.000   -492863.2844   5551481.3716   3092895.4367   2  10   0.0236   0.0180   0.0068  -0.0156  -0.0030   0.0060   0.00    0.0
2026/06/07 17:39:48.000   -492863.2849   5551481.3727   3092895.4369   2  11   0.0235   0.0180   0.0067  -0.0156  -0.0030   0.0059   0.00    0.0
2026/06/07 17:40:03.000   -492863.2874   5551481.3725   3092895.4355   2   9   0.0234   0.0180   0.0067  -0.0155  -0.0031   0.0059   0.00    0.0
2026/06/07 17:40:18.000   -492863.2878   5551481.3703   3092895.4344   2  11   0.0234   0.0180   0.0067  -0.0155  -0.0031   0.0059   0.00    0.0
2026/06/07 17:40:33.000   -492863.2890   5551481.3692   3092895.4336   2  11   0.0233   0.0179   0.0067  -0.0155  -0.0031   0.0058   0.00    0.0
2026/06/07 17:40:48.000   -492863.2929   5551481.3680   3092895.4323   2  11   0.0232   0.0179   0.0067  -0.0154  -0.0031   0.0058   0.00    0.0
2026/06/07 17:41:03.000   -492863.2934   5551481.3659   3092895.4313   2  11   0.0231   0.0179   0.0067  -0.0154  -0.0032   0.0058   0.00    0.0
2026/06/07 17:41:18.000   -492863.2946   5551481.3642   3092895.4301   2  12   0.0230   0.0178   0.0066  -0.0154  -0.0032   0.0057   0.00    0.0
2026/06/07 17:41:33.000   -492863.2929   5551481.3606   3092895.4294   2  12   0.0230   0.0178   0.0066  -0.0153  -0.0032   0.0057   0.00    0.0
2026/06/07 17:41:48.000   -492863.2920   5551481.3572   3092895.4286   2  12   0.0229   0.0178   0.0066  -0.0153  -0.0032   0.0057   0.00    0.0
2026/06/07 17:42:03.000   -492863.2898   5551481.3524   3092895.4278   2  11   0.0228   0.0178   0.0066  -0.0152  -0.0032   0.0056   0.00    0.0
2026/06/07 17:42:18.000   -492863.2888   5551481.3471   3092895.4272   2  11   0.0227   0.0177   0.0066  -0.0152  -0.0033   0.0056   0.00    0.0
2026/06/07 17:42:33.000   -492863.2921   5551481.3424   3092895.4270   2  11   0.0226   0.0177   0.0066  -0.0151  -0.0033   0.0056   0.00    0.0
2026/06/07 17:42:48.000   -492863.2957   5551481.3380   3092895.4272   2  11   0.0225   0.0177   0.0065  -0.0151  -0.0033   0.0055   0.00    0.0
2026/06/07 17:43:03.000   -492863.3017   5551481.3369   3092895.4272   2  10   0.0224   0.0176   0.0065  -0.0151  -0.0033   0.0055   0.00    0.0
2026/06/07 17:43:18.000   -492863.3053   5551481.3325   3092895.4267   2  12   0.0223   0.0176   0.0065  -0.0150  -0.0034   0.0055   0.00    0.0
2026/06/07 17:43:33.000   -492863.3129   5551481.3297   3092895.4261   2  12   0.0222   0.0176   0.0065  -0.0150  -0.0034   0.0055   0.00    0.0
2026/06/07 17:43:48.000   -492863.3255   5551481.3276   3092895.4254   2  12   0.0221   0.0176   0.0065  -0.0149  -0.0034   0.0054   0.00    0.0
2026/06/07 17:44:03.000   -492863.3290   5551481.3234   3092895.4251   2  11   0.0221   0.0175   0.0065  -0.0149  -0.0034   0.0054   0.00    0.0
2026/06/07 17:44:18.000   -492863.3320   5551481.3192   3092895.4251   2  11   0.0220   0.0175   0.0064  -0.0149  -0.0034   0.0054   0.00    0.0
2026/06/07 17:44:33.000   -492863.3265   5551481.3153   3092895.4255   2  10   0.0219   0.0175   0.0064  -0.0148  -0.0034   0.0054   0.00    0.0
2026/06/07 17:44:48.000   -492863.3220   5551481.3113   3092895.4256   2  12   0.0219   0.0174   0.0064  -0.0148  -0.0035   0.0053   0.00    0.0
2026/06/07 17:45:03.000   -492863.3190   5551481.3084   3092895.4253   2  11   0.0218   0.0174   0.0064  -0.0148  -0.0035   0.0053   0.00    0.0
2026/06/07 17:45:18.000   -492863.3126   5551481.3032   3092895.4251   2  10   0.0217   0.0174   0.0064  -0.0147  -0.0035   0.0053   0.00    0.0
2026/06/07 17:45:33.000   -492863.3093   5551481.3008   3092895.4246   2  10   0.0217   0.0173   0.0063  -0.0147  -0.0035   0.0053   0.00    0.0
2026/06/07 17:45:48.000   -492863.3072   5551481.3007   3092895.4240   2  12   0.0216   0.0173   0.0063  -0.0146  -0.0035   0.0052   0.00    0.0
2026/06/07 17:46:03.000   -492863.3043   5551481.3005   3092895.4235   2  12   0.0215   0.0173   0.0063  -0.0146  -0.0035   0.0052   0.00    0.0
2026/06/07 17:46:18.000   -492863.3001   5551481.3000   3092895.4232   2  12   0.0214   0.0172   0.0063  -0.0146  -0.0036   0.0052   0.00    0.0
2026/06/07 17:46:33.000   -492863.2943   5551481.2973   3092895.4227   2  12   0.0214   0.0172   0.0063  -0.0145  -0.0036   0.0052   0.00    0.0
2026/06/07 17:46:48.000   -492863.2898   5551481.2943   3092895.4229   2  12   0.0213   0.0172   0.0063  -0.0145  -0.0036   0.0052   0.00    0.0
2026/06/07 17:47:03.000   -492863.2859   5551481.2906   3092895.4231   2  12   0.0212   0.0171   0.0062  -0.0144  -0.0036   0.0051   0.00    0.0
2026/06/07 17:47:18.000   -492863.2823   5551481.2867   3092895.4232   2  11   0.0212   0.0171   0.0062  -0.0144  -0.0036   0.0051   0.00    0.0
2026/06/07 17:47:33.000   -492863.2789   5551481.2844   3092895.4226   2  10   0.0211   0.0171   0.0062  -0.0144  -0.0036   0.0051   0.00    0.0
2026/06/07 17:47:48.000   -492863.2753   5551481.2826   3092895.4228   2  10   0.0210   0.0170   0.0062  -0.0143  -0.0036   0.0051   0.00    0.0
2026/06/07 17:48:03.000   -492863.2715   5551481.2817   3092895.4232   2   9   0.0210   0.0170   0.0062  -0.0143  -0.0037   0.0051   0.00    0.0
2026/06/07 17:48:18.000   -492863.2681   5551481.2799   3092895.4233   2  11   0.0209   0.0170   0.0061  -0.0143  -0.0037   0.0051   0.00    0.0
2026/06/07 17:48:33.000   -492863.2657   5551481.2794   3092895.4232   2  11   0.0208   0.0170   0.0061  -0.0142  -0.0037   0.0051   0.00    0.0
2026/06/07 17:48:48.000   -492863.2624   5551481.2778   3092895.4232   2  11   0.0207   0.0169   0.0061  -0.0142  -0.0038   0.0050   0.00    0.0
2026/06/07 17:49:03.000   -492863.2593   5551481.2769   3092895.4230   2  11   0.0207   0.0169   0.0061  -0.0142  -0.0038   0.0050   0.00    0.0
2026/06/07 17:49:18.000   -492863.2543   5551481.2759   3092895.4242   2   9   0.0206   0.0169   0.0061  -0.0141  -0.0038   0.0050   0.00    0.0
2026/06/07 17:49:33.000   -492863.2538   5551481.2800   3092895.4248   2  10   0.0205   0.0169   0.0061  -0.0141  -0.0039   0.0050   0.00    0.0
2026/06/07 17:49:48.000   -492863.2518   5551481.2813   3092895.4237   2  10   0.0205   0.0169   0.0060  -0.0141  -0.0039   0.0050   0.00    0.0
2026/06/07 17:50:03.000   -492863.2509   5551481.2831   3092895.4227   2  11   0.0204   0.0168   0.0060  -0.0140  -0.0039   0.0050   0.00    0.0
2026/06/07 17:50:18.000   -492863.2484   5551481.2837   3092895.4216   2  10   0.0203   0.0168   0.0060  -0.0140  -0.0039   0.0050   0.00    0.0
2026/06/07 17:50:33.000   -492863.2467   5551481.2849   3092895.4208   2  10   0.0203   0.0168   0.0060  -0.0140  -0.0040   0.0050   0.00    0.0
2026/06/07 17:50:48.000   -492863.2456   5551481.2865   3092895.4199   2  10   0.0202   0.0168   0.0060  -0.0139  -0.0040   0.0049   0.00    0.0
2026/06/07 17:51:03.000   -492863.2410   5551481.2853   3092895.4198   2  10   0.0201   0.0167   0.0060  -0.0139  -0.0040   0.0049   0.00    0.0
2026/06/07 17:51:18.000   -492863.2375   5551481.2845   3092895.4199   2   9   0.0200   0.0167   0.0060  -0.0138  -0.0040   0.0049   0.00    0.0
2026/06/07 17:51:33.000   -492863.2334   5551481.2833   3092895.4200   2   9   0.0200   0.0167   0.0059  -0.0138  -0.0040   0.0049   0.00    0.0
2026/06/07 17:51:48.000   -492863.2303   5551481.2823   3092895.4200   2  10   0.0199   0.0167   0.0059  -0.0138  -0.0041   0.0049   0.00    0.0
2026/06/07 17:52:03.000   -492863.2291   5551481.2824   3092895.4202   2  11   0.0198   0.0167   0.0059  -0.0137  -0.0041   0.0049   0.00    0.0
2026/06/07 17:52:18.000   -492863.2278   5551481.2820   3092895.4200   2  11   0.0197   0.0166   0.0059  -0.0137  -0.0041   0.0049   0.00    0.0
2026/06/07 17:52:33.000   -492863.2261   5551481.2818   3092895.4200   2  10   0.0197   0.0166   0.0059  -0.0137  -0.0041   0.0048   0.00    0.0
2026/06/07 17:52:48.000   -492863.2231   5551481.2805   3092895.4200   2  12   0.0196   0.0166   0.0059  -0.0136  -0.0042   0.0048   0.00    0.0
2026/06/07 17:53:03.000   -492863.2185   5551481.2791   3092895.4201   2  11   0.0195   0.0166   0.0059  -0.0136  -0.0042   0.0048   0.00    0.0
2026/06/07 17:53:18.000   -492863.2138   5551481.2779   3092895.4205   2  12   0.0195   0.0166   0.0059  -0.0136  -0.0042   0.0048   0.00    0.0
2026/06/07 17:53:33.000   -492863.2082   5551481.2766   3092895.4209   2  12   0.0194   0.0166   0.0058  -0.0135  -0.0042   0.0048   0.00    0.0
2026/06/07 17:53:48.000   -492863.2022   5551481.2747   3092895.4211   2  11   0.0193   0.0165   0.0058  -0.0135  -0.0042   0.0048   0.00    0.0
2026/06/07 17:54:03.000   -492863.1949   5551481.2721   3092895.4208   2  11   0.0193   0.0165   0.0058  -0.0135  -0.0042   0.0048   0.00    0.0
2026/06/07 17:54:18.000   -492863.1897   5551481.2706   3092895.4205   2  12   0.0192   0.0165   0.0058  -0.0134  -0.0043   0.0048   0.00    0.0
2026/06/07 17:54:33.000   -492863.1876   5551481.2705   3092895.4201   2  12   0.0191   0.0165   0.0058  -0.0134  -0.0043   0.0048   0.00    0.0
2026/06/07 17:54:48.000   -492863.1827   5551481.2689   3092895.4201   2  12   0.0191   0.0165   0.0058  -0.0134  -0.0043   0.0048   0.00    0.0
2026/06/07 17:55:03.000   -492863.1766   5551481.2669   3092895.4202   2  12   0.0190   0.0164   0.0058  -0.0133  -0.0043   0.0048   0.00    0.0
2026/06/07 17:55:18.000   -492863.1696   5551481.2634   3092895.4198   2  11   0.0189   0.0164   0.0058  -0.0133  -0.0043   0.0047   0.00    0.0
2026/06/07 17:55:33.000   -492863.1607   5551481.2583   3092895.4193   2  10   0.0189   0.0164   0.0058  -0.0133  -0.0043   0.0047   0.00    0.0
2026/06/07 17:55:48.000   -492863.1550   5551481.2564   3092895.4192   2  11   0.0188   0.0164   0.0058  -0.0132  -0.0043   0.0047   0.00    0.0
2026/06/07 17:56:03.000   -492863.1446   5551481.2520   3092895.4189   2  11   0.0187   0.0164   0.0058  -0.0132  -0.0043   0.0047   0.00    0.0
2026/06/07 17:56:18.000   -492863.1354   5551481.2483   3092895.4186   2  11   0.0187   0.0164   0.0057  -0.0132  -0.0043   0.0047   0.00    0.0
2026/06/07 17:56:33.000   -492863.1290   5551481.2460   3092895.4182   2   7   0.0186   0.0163   0.0057  -0.0131  -0.0043   0.0047   0.00    0.0
2026/06/07 17:56:48.000   -492863.1206   5551481.2426   3092895.4182   2  10   0.0185   0.0163   0.0057  -0.0131  -0.0043   0.0047   0.00    0.0
2026/06/07 17:57:03.000   -492863.1160   5551481.2409   3092895.4181   2   6   0.0185   0.0163   0.0057  -0.0131  -0.0043   0.0047   0.00    0.0
2026/06/07 17:57:18.000   -492863.1102   5551481.2410   3092895.4187   2   9   0.0184   0.0163   0.0057  -0.0130  -0.0044   0.0047   0.00    0.0
2026/06/07 17:57:33.000   -492863.1048   5551481.2419   3092895.4193   2   9   0.0183   0.0163   0.0057  -0.0130  -0.0044   0.0047   0.00    0.0
2026/06/07 17:57:48.000   -492863.0964   5551481.2382   3092895.4193   2   8   0.0183   0.0163   0.0057  -0.0130  -0.0044   0.0047   0.00    0.0
2026/06/07 17:58:03.000   -492863.0891   5551481.2347   3092895.4190   2   9   0.0182   0.0163   0.0057  -0.0129  -0.0044   0.0047   0.00    0.0
2026/06/07 17:58:18.000   -492863.0792   5551481.2216   3092895.4169   2  11   0.0182   0.0162   0.0057  -0.0129  -0.0044   0.0047   0.00    0.0
2026/06/07 17:58:33.000   -492863.0722   5551481.2181   3092895.4166   2   9   0.0181   0.0162   0.0057  -0.0129  -0.0044   0.0047   0.00    0.0
2026/06/07 17:58:48.000   -492863.0670   5551481.2155   3092895.4166   2  10   0.0180   0.0162   0.0057  -0.0129  -0.0044   0.0047   0.00    0.0
2026/06/07 17:59:03.000   -492863.0632   5551481.2137   3092895.4164   2  10   0.0180   0.0162   0.0057  -0.0128  -0.0044   0.0046   0.00    0.0
2026/06/07 17:59:18.000   -492863.0585   5551481.2109   3092895.4164   2  10   0.0179   0.0162   0.0057  -0.0128  -0.0044   0.0046   0.00    0.0
2026/06/07 17:59:33.000   -492863.0532   5551481.2079   3092895.4165   2  11   0.0179   0.0162   0.0057  -0.0128  -0.0044   0.0046   0.00    0.0
2026/06/07 17:59:48.000   -492863.0481   5551481.2051   3092895.4168   2  10   0.0178   0.0162   0.0057  -0.0127  -0.0044   0.0046   0.00    0.0
2026/06/07 18:00:03.000   -492863.0446   5551481.2027   3092895.4173   2   9   0.0177   0.0161   0.0056  -0.0127  -0.0044   0.0046   0.00    0.0
