% program   : rtklib_java
% inp file  : rover_0608.obs
% inp file  : base_0608.obs
% inp file  : rover_0608.nav
%
% (x/y/z-ecef=WGS84,Q=1:fix,2:float,3:sbas,4:dgps,5:single,6:ppp,ns=# of satellites)
%  GPST                      x-ecef(m)      y-ecef(m)      z-ecef(m)   Q  ns   sdx(m)   sdy(m)   sdz(m)  sdxy(m)  sdyz(m)  sdzx(m) age(s)  ratio
2026/06/07 17:00:18.000   -492867.5016   5551484.1627   3092902.4001  2 10
2026/06/07 17:00:18.000   -492867.6481   5551484.2625   3092901.7961  2 10
2026/06/07 17:00:18.000   -492870.6081   5551491.8665   3092906.5400  2 10
2026/06/07 17:00:18.000   -492869.9408   5551486.8105   3092903.6363  2  8
2026/06/07 17:00:18.000   -492874.9250   5551461.0369   3092913.5377  2  9
2026/06/07 17:00:18.000   -492873.2723   5551470.0765   3092913.4862  2  9
2026/06/07 17:00:18.000   -492871.7884   5551475.5569   3092912.5432  2  9
2026/06/07 17:00:18.000   -492870.4419   5551479.5256   3092910.7989  2  9
2026/06/07 17:00:18.000   -492868.9888   5551481.8375   3092909.0553  2 10
2026/06/07 17:00:18.000   -492867.5663   5551483.1857   3092907.5045  2 10
2026/06/07 17:00:18.000   -492866.4236   5551483.8595   3092906.1007  2  9
2026/06/07 17:00:18.000   -492865.5087   5551484.1756   3092904.7504  2 10
2026/06/07 17:00:18.000   -492864.7175   5551483.9318   3092903.7108  2  9
2026/06/07 17:00:18.000   -492864.0965   5551483.6883   3092902.9171  2  9
2026/06/07 17:00:18.000   -492863.6545   5551483.3546   3092902.2611  2  9
2026/06/07 17:00:18.000   -492863.2357   5551483.2676   3092901.6153  2  9
2026/06/07 17:00:18.000   -492863.1269   5551483.2955   3092901.0491  2  9
2026/06/07 17:00:18.000   -492862.9966   5551483.2882   3092900.5424  2 10
2026/06/07 17:00:18.000   -492862.8363   5551483.1329   3092900.1130  2  9
2026/06/07 17:00:18.000   -492862.7034   5551483.0327   3092899.7287  2 10
2026/06/07 17:00:18.000   -492862.5500   5551482.9913   3092899.3709  2 10
2026/06/07 17:00:18.000   -492862.4198   5551482.9506   3092899.0651  2 10
2026/06/07 17:00:18.000   -492867.5729   5551477.6074   3092900.6509  2 10
2026/06/07 17:00:18.000   -492868.4275   5551472.9112   3092900.7379  2 10
2026/06/07 17:00:18.000   -492868.0389   5551472.7698   3092899.8216  2  9
2026/06/07 17:00:18.000   -492868.0970   5551473.8772   3092899.6346  2 10
2026/06/07 17:00:18.000   -492868.0328   5551474.8933   3092899.3916  2 10
2026/06/07 17:00:18.000   -492867.9322   5551475.8220   3092899.1276  2 10
2026/06/07 17:00:18.000   -492867.7203   5551476.5958   3092898.9052  2 10
2026/06/07 17:00:18.000   -492867.5514   5551477.2561   3092898.7233  2 10
2026/06/07 17:00:18.000   -492867.3482   5551477.8502   3092898.5194  2 10
2026/06/07 17:00:18.000   -492867.1727   5551478.3003   3092898.4026  2  9
2026/06/07 17:00:18.000   -492866.4607   5551478.1794   3092898.7133  2  9
2026/06/07 17:00:18.000   -492865.8648   5551478.3233   3092897.9298  2 10
2026/06/07 17:00:18.000   -492866.1880   5551478.9988   3092897.4077  2 10
2026/06/07 17:00:18.000   -492866.4305   5551479.4259   3092897.7243  2 10
2026/06/07 17:00:18.000   -492866.3896   5551479.6428   3092897.5705  2 10
2026/06/07 17:00:18.000   -492866.3307   5551479.8353   3092897.4324  2 10
2026/06/07 17:00:18.000   -492866.2558   5551479.9764   3092897.2986  2 10
2026/06/07 17:00:18.000   -492866.1798   5551480.1572   3092897.1788  2 10
2026/06/07 17:00:18.000   -492866.1784   5551480.2412   3092897.1308  2  9
2026/06/07 17:00:18.000   -492866.3859   5551480.3927   3092897.0609  2  9
2026/06/07 17:00:18.000   -492866.5721   5551480.5133   3092896.9903  2 10
2026/06/07 17:00:18.000   -492866.6598   5551480.6350   3092896.9276  2  9
2026/06/07 17:00:18.000   -492866.7136   5551480.7166   3092896.8547  2  9
2026/06/07 17:00:18.000   -492867.0811   5551482.6564   3092896.4557  2 10
2026/06/07 17:00:18.000   -492866.8652   5551482.9325   3092896.0021  2  9
2026/06/07 17:00:18.000   -492866.5940   5551483.1401   3092895.8680  2  9
2026/06/07 17:00:18.000   -492866.3813   5551483.3072   3092895.7502  2 10
2026/06/07 17:00:18.000   -492866.4880   5551483.5591   3092895.8252  2  9
2026/06/07 17:00:18.000   -492866.4688   5551483.5992   3092895.6984  2  9
2026/06/07 17:00:18.000   -492866.4585   5551483.6229   3092895.5959  2 10
2026/06/07 17:00:18.000   -492866.4559   5551483.6938   3092895.5011  2  9
2026/06/07 17:00:18.000   -492866.4919   5551483.7626   3092895.4284  2  9
2026/06/07 17:00:18.000   -492866.5028   5551483.8219   3092895.3663  2  9
2026/06/07 17:00:18.000   -492866.5081   5551483.8189   3092895.2826  2 10
2026/06/07 17:00:18.000   -492866.5254   5551483.8865   3092895.2373  2  9
2026/06/07 17:00:18.000   -492866.5292   5551483.9559   3092895.2138  2 10
2026/06/07 17:00:18.000   -492866.4546   5551483.9363   3092895.1753  2  9
2026/06/07 17:00:18.000   -492866.3823   5551483.9742   3092895.1552  2  9
2026/06/07 17:00:18.000   -492866.2900   5551484.0040   3092895.1233  2  9
2026/06/07 17:00:18.000   -492866.2559   5551484.0347   3092895.0813  2  9
2026/06/07 17:00:18.000   -492866.2260   5551484.0910   3092895.0630  2 10
2026/06/07 17:00:18.000   -492866.1854   5551484.1127   3092895.0336  2 10
2026/06/07 17:00:18.000   -492866.1471   5551484.1425   3092895.0286  2 10
2026/06/07 17:00:18.000   -492866.0838   5551484.1419   3092894.9993  2 10
2026/06/07 17:00:18.000   -492866.0324   5551484.1611   3092894.9961  2 10
2026/06/07 17:00:18.000   -492865.9541   5551484.1632   3092894.9984  2  9
2026/06/07 17:00:18.000   -492865.8904   5551484.1337   3092894.9859  2  9
2026/06/07 17:00:18.000   -492865.8460   5551484.1528   3092894.9914  2 10
2026/06/07 17:00:18.000   -492865.7885   5551484.1337   3092894.9650  2 10
2026/06/07 17:00:18.000   -492865.7299   5551484.1449   3092894.9561  2 10
2026/06/07 17:00:18.000   -492865.6928   5551484.1749   3092894.9345  2 10
2026/06/07 17:00:18.000   -492865.6412   5551484.1750   3092894.9258  2 10
2026/06/07 17:00:18.000   -492865.6097   5551484.1986   3092894.9369  2 10
2026/06/07 17:00:18.000   -492865.5648   5551484.2060   3092894.9218  2 10
2026/06/07 17:00:18.000   -492865.4932   5551484.2203   3092894.9078  2 11
2026/06/07 17:00:18.000   -492865.6947   5551484.1197   3092895.2427  2 11
2026/06/07 17:00:18.000   -492865.4836   5551484.1234   3092895.1173  2 11
2026/06/07 17:00:18.000   -492865.3848   5551484.1432   3092895.0973  2 10
2026/06/07 17:00:18.000   -492866.6325   5551483.4221   3092896.4188  2 10
2026/06/07 17:00:18.000   -492866.7966   5551484.7045   3092897.2185  2 12
2026/06/07 17:00:18.000   -492866.3663   5551484.4594   3092896.8626  2 12
2026/06/07 17:00:18.000   -492865.9517   5551484.2273   3092896.5773  2 12
2026/06/07 17:00:18.000   -492864.9405   5551484.1195   3092895.3083  2 11
2026/06/07 17:00:18.000   -492864.8991   5551483.9802   3092895.2011  2 11
2026/06/07 17:00:18.000   -492864.8796   5551483.9097   3092895.1472  2 11
2026/06/07 17:00:18.000   -492864.8687   5551483.8288   3092895.0993  2 11
2026/06/07 17:00:18.000   -492864.8868   5551483.7859   3092895.0882  2 11
2026/06/07 17:00:18.000   -492864.8857   5551483.6983   3092895.0741  2 12
2026/06/07 17:00:18.000   -492864.8922   5551483.6174   3092895.0707  2 12
2026/06/07 17:00:18.000   -492864.8880   5551483.6199   3092895.0602  2 13
2026/06/07 17:00:18.000   -492864.9118   5551483.6016   3092895.0719  2 13
2026/06/07 17:00:18.000   -492864.9561   5551483.5688   3092895.0760  2 12
2026/06/07 17:00:18.000   -492864.9770   5551483.5129   3092895.0584  2 13
2026/06/07 17:00:18.000   -492865.0080   5551483.4811   3092895.0587  2 13
2026/06/07 17:00:18.000   -492865.0439   5551483.4766   3092895.0601  2 13
2026/06/07 17:00:18.000   -492865.1094   5551483.5976   3092895.1238  2 11
2026/06/07 17:00:18.000   -492865.1408   5551483.5837   3092895.1330  2 11
2026/06/07 17:00:18.000   -492865.1839   5551483.6824   3092895.1406  2 10
2026/06/07 17:00:18.000   -492867.6778   5551490.4251   3092895.2430  2 11
2026/06/07 17:00:18.000   -492868.8370   5551490.3215   3092893.2743  2 12
2026/06/07 17:00:18.000   -492871.0839   5551492.9556   3092892.6535  2 12
2026/06/07 17:00:18.000   -492873.3024   5551495.3258   3092891.9784  2 12
2026/06/07 17:00:18.000   -492875.4880   5551497.5253   3092891.3058  2 12
2026/06/07 17:00:18.000   -492877.5866   5551499.5437   3092890.6378  2 12
2026/06/07 17:00:18.000   -492880.1272   5551502.4695   3092890.4021  2 11
2026/06/07 17:00:18.000   -492882.2002   5551504.2599   3092889.6056  2 10
2026/06/07 17:00:18.000   -492884.2625   5551505.9274   3092889.0021  2 10
2026/06/07 17:00:18.000   -492886.2099   5551507.4801   3092888.4507  2 10
2026/06/07 17:00:18.000   -492888.4205   5551509.3568   3092888.5348  2  9
2026/06/07 17:00:18.000   -492889.6697   5551509.9919   3092887.3505  2  9
2026/06/07 17:00:18.000   -492889.5160   5551507.4488   3092887.1492  2  5
2026/06/07 17:00:18.000   -492865.1970   5551487.1388   3092897.8511  2  7
2026/06/07 17:00:18.000   -492867.8991   5551485.4485   3092898.7643  2 13
2026/06/07 17:00:18.000   -492867.8131   5551486.7655   3092900.5818  2 11
2026/06/07 17:00:18.000   -492867.5612   5551485.6426   3092900.7530  2 11
2026/06/07 17:00:18.000   -492864.2940   5551498.4710   3092904.6566  4  0
2026/06/07 17:00:18.000   -492859.6860   5551484.4770   3092890.4615  2 12
2026/06/07 17:00:18.000   -492859.7218   5551483.3089   3092890.9160  2 12
2026/06/07 17:00:18.000   -492860.4449   5551483.9871   3092892.8842  2 11
2026/06/07 17:00:18.000   -492861.4613   5551485.1872   3092895.3987  2 11
2026/06/07 17:00:18.000   -492861.7332   5551485.1307   3092895.8923  2 10
2026/06/07 17:00:18.000   -492861.7461   5551484.2016   3092895.3667  2 10
2026/06/07 17:00:18.000   -492861.8602   5551484.3575   3092895.4381  2 10
2026/06/07 17:00:18.000   -492861.9480   5551484.4518   3092895.4475  2  9
2026/06/07 17:00:18.000   -492862.0127   5551484.4056   3092895.1897  2  9
2026/06/07 17:00:18.000   -492862.1017   5551484.2164   3092895.1876  2  9
2026/06/07 17:00:18.000   -492862.0558   5551483.8731   3092895.1528  2  9
2026/06/07 17:00:18.000   -492862.2036   5551483.6649   3092895.2486  2  9
2026/06/07 17:00:18.000   -492862.1979   5551484.1811   3092895.3122  2 10
2026/06/07 17:00:18.000   -492862.2358   5551484.1569   3092895.4191  2 10
2026/06/07 17:00:18.000   -492862.1854   5551483.9396   3092895.4745  2 10
2026/06/07 17:00:18.000   -492853.1422   5551452.4506   3092871.3137  4  1
2026/06/07 17:00:18.000   -492860.8774   5551476.3663   3092890.6109  2 10
2026/06/07 17:00:18.000   -492863.2225   5551482.1018   3092894.5457  2 11
2026/06/07 17:00:18.000   -492864.2038   5551481.8853   3092895.7739  2 11
2026/06/07 17:00:18.000   -492864.4849   5551482.5987   3092896.3014  2 10
2026/06/07 17:00:18.000   -492864.5567   5551482.9261   3092896.3323  2  9
2026/06/07 17:00:18.000   -492864.4382   5551483.5271   3092896.2179  2  9
2026/06/07 17:00:18.000   -492864.2899   5551484.0043   3092896.0214  2  9
2026/06/07 17:00:18.000   -492864.1560   5551483.8453   3092895.8702  2  9
2026/06/07 17:00:18.000   -492864.1094   5551483.4180   3092895.9322  2  9
2026/06/07 17:00:18.000   -492864.1064   5551483.1373   3092895.9815  2  9
2026/06/07 17:00:18.000   -492864.1551   5551482.7044   3092895.9895  2  9
2026/06/07 17:00:18.000   -492864.3391   5551482.2651   3092896.0696  2  9
2026/06/07 17:00:18.000   -492864.0327   5551483.7798   3092893.4765  4  3
2026/06/07 17:00:18.000   -492863.9656   5551485.2291   3092893.4955  2 11
2026/06/07 17:00:18.000   -492864.0046   5551485.2598   3092894.7622  2 11
2026/06/07 17:00:18.000   -492863.8735   5551484.8927   3092895.0254  2 12
2026/06/07 17:00:18.000   -492863.7870   5551484.3163   3092895.4355  2 10
2026/06/07 17:00:18.000   -492863.7452   5551483.8395   3092895.6143  2 10
2026/06/07 17:00:18.000   -492863.9363   5551483.8567   3092896.2339  2 10
2026/06/07 17:00:18.000   -492864.2851   5551484.2038   3092896.6115  2 10
2026/06/07 17:00:18.000   -492864.5645   5551484.0370   3092896.6301  2 10
2026/06/07 17:00:18.000   -492864.6871   5551483.9226   3092896.6082  2 10
2026/06/07 17:00:18.000   -492864.7076   5551483.1048   3092896.9056  2  9
2026/06/07 17:00:18.000   -492864.4899   5551482.8224   3092896.8924  2 10
2026/06/07 17:00:18.000   -492864.4199   5551482.6443   3092897.0942  2 11
2026/06/07 17:00:18.000   -492864.4133   5551482.4674   3092897.1724  2  9
2026/06/07 17:00:18.000   -492864.3851   5551482.1993   3092897.2210  2  9
2026/06/07 17:00:18.000   -492862.8072   5551480.4539   3092896.5648  2 11
2026/06/07 17:00:18.000   -492862.3506   5551479.6869   3092896.3832  2 11
2026/06/07 17:00:18.000   -492862.4404   5551479.8711   3092896.3864  2 10
2026/06/07 17:00:18.000   -492862.6082   5551480.2140   3092896.4988  2 11
2026/06/07 17:00:18.000   -492862.7114   5551480.4652   3092896.5796  2 12
2026/06/07 17:00:18.000   -492862.7917   5551480.6399   3092896.6260  2 12
2026/06/07 17:00:18.000   -492862.8088   5551480.8175   3092896.7104  2 11
2026/06/07 17:00:18.000   -492862.8356   5551480.9661   3092896.8203  2 11
2026/06/07 17:00:18.000   -492862.8710   5551481.0410   3092897.0115  2 11
2026/06/07 17:00:18.000   -492862.9231   5551481.1840   3092897.2064  2 11
2026/06/07 17:00:18.000   -492862.9195   5551481.1084   3092897.2127  2  9
2026/06/07 17:00:18.000   -492862.9084   5551481.1004   3092897.2102  2 10
2026/06/07 17:00:18.000   -492862.8756   5551481.0076   3092897.2363  2 12
2026/06/07 17:00:18.000   -492862.8921   5551480.9314   3092897.2630  2 12
2026/06/07 17:00:18.000   -492862.9174   5551480.9585   3092897.2186  2 11
2026/06/07 17:00:18.000   -492864.2661   5551476.7069   3092900.9449  2 11
2026/06/07 17:00:18.000   -492865.8210   5551473.1082   3092903.2872  2 10
2026/06/07 17:00:18.000   -492864.1670   5551466.5597   3092904.7660  2 11
2026/06/07 17:00:18.000   -492863.1915   5551463.2635   3092907.0031  2 12
2026/06/07 17:00:18.000   -492864.7513   5551464.1814   3092909.1718  2 10
2026/06/07 17:00:18.000   -492866.9640   5551465.2993   3092910.3003  2 10
2026/06/07 17:00:18.000   -492868.3207   5551464.7398   3092910.3857  2 10
2026/06/07 17:00:18.000   -492869.4200   5551464.3644   3092910.3866  2 12
2026/06/07 17:00:18.000   -492870.3398   5551464.0828   3092910.3196  2 12
2026/06/07 17:00:18.000   -492871.1088   5551463.9226   3092910.1988  2 12
2026/06/07 17:00:18.000   -492871.8054   5551463.8295   3092910.0251  2 12
2026/06/07 17:00:18.000   -492872.4289   5551463.8043   3092909.8040  2 12
2026/06/07 17:00:18.000   -492872.1167   5551462.5389   3092909.4290  2 11
2026/06/07 17:00:18.000   -492872.0481   5551462.1726   3092909.4131  2 10
2026/06/07 17:00:18.000   -492873.5432   5551460.3959   3092910.2944  2 10
2026/06/07 17:00:18.000   -492873.9376   5551457.4821   3092910.5544  2  9
2026/06/07 17:00:18.000   -492873.8880   5551453.9670   3092910.1508  2 10
2026/06/07 17:00:18.000   -492873.8611   5551451.1434   3092909.8871  2 11
2026/06/07 17:00:18.000   -492875.5788   5551448.0144   3092910.1064  2 11
2026/06/07 17:00:18.000   -492877.1353   5551447.5145   3092909.4845  2 10
2026/06/07 17:00:18.000   -492875.1645   5551446.3012   3092906.5818  2  9
2026/06/07 17:00:18.000   -492877.6747   5551446.1309   3092907.0693  2 10
2026/06/07 17:00:18.000   -492878.4471   5551446.5941   3092905.5380  2 10
2026/06/07 17:00:18.000   -492879.1626   5551447.1400   3092904.2126  2 10
2026/06/07 17:00:18.000   -492879.7804   5551447.7817   3092903.1093  2 10
2026/06/07 17:00:18.000   -492880.2461   5551448.3017   3092902.0878  2 10
2026/06/07 17:00:18.000   -492880.6262   5551448.8218   3092901.1756  2 11
2026/06/07 17:00:18.000   -492878.8429   5551448.4980   3092899.4566  2  8
2026/06/07 17:00:18.000   -492878.2889   5551448.2517   3092899.4603  2  9
2026/06/07 17:00:18.000   -492877.3990   5551447.2973   3092898.9862  2  8
2026/06/07 17:00:18.000   -492876.8323   5551447.0817   3092899.1842  2  9
2026/06/07 17:00:18.000   -492876.3481   5551447.0480   3092899.4797  2  9
2026/06/07 17:00:18.000   -492875.8739   5551446.9902   3092899.7353  2 11
2026/06/07 17:00:18.000   -492875.3550   5551446.8321   3092899.9411  2 10
2026/06/07 17:00:18.000   -492874.5428   5551446.7989   3092899.6410  2 12
2026/06/07 17:00:18.000   -492874.8267   5551447.5403   3092899.5988  2  9
2026/06/07 17:00:18.000   -492876.7344   5551451.9831   3092899.3006  2 12
2026/06/07 17:00:18.000   -492877.8744   5551451.8911   3092898.6149  2 12
2026/06/07 17:00:18.000   -492877.8885   5551450.3682   3092897.7701  2 11
2026/06/07 17:00:18.000   -492877.9559   5551449.4982   3092897.3798  2 11
2026/06/07 17:00:18.000   -492878.2694   5551449.6118   3092897.2630  2 11
2026/06/07 17:00:18.000   -492878.0470   5551448.3680   3092896.8763  2 12
2026/06/07 17:00:18.000   -492878.4078   5551449.1620   3092896.9667  2 12
2026/06/07 17:00:18.000   -492878.3893   5551451.8603   3092897.0944  2 11
2026/06/07 17:00:18.000   -492877.9168   5551453.4572   3092896.7252  2 10
2026/06/07 17:00:18.000   -492877.7416   5551454.2204   3092896.1850  2 10
2026/06/07 17:00:18.000   -492878.0856   5551451.5094   3092895.9176  2 10
2026/06/07 17:00:18.000   -492877.8583   5551453.8774   3092895.6746  2 11
2026/06/07 17:00:18.000   -492878.0126   5551452.9402   3092895.3456  2 10
2026/06/07 17:00:18.000   -492878.4922   5551450.9747   3092895.4284  2  7
2026/06/07 17:00:18.000   -492878.6746   5551452.1028   3092895.5255  2  9
2026/06/07 17:00:18.000   -492878.8945   5551451.2228   3092896.0568  2  6
2026/06/07 17:00:18.000   -492878.9846   5551453.2818   3092895.8752  2  5
2026/06/07 17:00:18.000   -492869.8584   5551509.3482   3092916.7946  2  6
2026/06/07 17:00:18.000   -492861.3582   5551484.6960   3092902.4704  2  7
2026/06/07 17:00:18.000   -492860.8361   5551482.5955   3092901.1456  2  8
2026/06/07 17:00:18.000   -492864.6820   5551500.5020   3092894.6295  2  7
2026/06/07 17:00:18.000   -492869.2387   5551487.6176   3092893.8710  2  9
2026/06/07 17:00:18.000   -492868.7594   5551488.1820   3092894.3436  2 10
2026/06/07 17:00:18.000   -492868.8713   5551492.0351   3092895.3273  2  9
2026/06/07 17:00:18.000   -492868.8840   5551488.7869   3092895.9484  2  9
2026/06/07 17:00:18.000   -492868.2321   5551487.0687   3092895.3087  2 11
2026/06/07 17:00:18.000   -492867.7096   5551485.6993   3092894.9077  2 10
2026/06/07 17:00:18.000   -492867.4367   5551485.5254   3092894.9415  2  9
