% program   : rnx2rtkp ver.EX 2.5.0
% inp file  : rover_0608.obs
% inp file  : base_0608.obs
% inp file  : rover_0608.nav
% obs start : 2026/06/07 17:00:18.0 GPST (week2422  61218.0s)
% obs end   : 2026/06/07 18:00:03.0 GPST (week2422  64803.0s)
% ref pos   :   -493099.3671   5551412.6391   3092558.0152
%
% (x/y/z-ecef=WGS84,Q=1:fix,2:float,3:sbas,4:dgps,5:single,6:ppp,ns=# of satellites)
%  GPST                      x-ecef(m)      y-ecef(m)      z-ecef(m)   Q  ns   sdx(m)   sdy(m)   sdz(m)  sdxy(m)  sdyz(m)  sdzx(m) age(s)  ratio
2026/06/07 17:00:18.000   -492862.9176   5551481.6179   3092895.8198   2  10   0.0279   0.0467   0.0158  -0.0358  -0.0071  -0.0072   0.00    0.0
2026/06/07 17:00:33.000   -492862.9299   5551481.6305   3092895.8305   2  10   0.0380   0.0529   0.0146  -0.0395  -0.0104   0.0044   0.00    0.0
2026/06/07 17:00:48.000   -492862.9110   5551481.5524   3092895.8362   2  10   0.0417   0.0407   0.0152  -0.0335   0.0104   0.0070   0.00    0.0
2026/06/07 17:01:03.000   -492862.9259   5551481.5684   3092895.8427   2   8   0.0365   0.0418   0.0159  -0.0344   0.0078  -0.0095   0.00    0.0
2026/06/07 17:01:18.000   -492862.9269   5551481.5800   3092895.8390   2   9   0.0450   0.0387   0.0174  -0.0315   0.0164   0.0147   0.00    0.0
2026/06/07 17:01:33.000   -492862.8841   5551481.5103   3092895.7861   2   9   0.0454   0.0381   0.0164  -0.0319   0.0132   0.0185   0.00    0.0
2026/06/07 17:01:48.000   -492862.8783   5551481.5088   3092895.7903   2   9   0.0149   0.0390   0.0151  -0.0339   0.0069   0.0094   0.00    0.0
2026/06/07 17:02:03.000   -492862.8980   5551481.5266   3092895.7918   2  10   0.0465   0.0387   0.0170  -0.0333  -0.0073  -0.0039   0.00    0.0
2026/06/07 17:02:18.000   -492862.9051   5551481.5333   3092895.7977   2  10   0.0418   0.0377   0.0085  -0.0304   0.0131  -0.0129   0.00    0.0
2026/06/07 17:02:33.000   -492862.9063   5551481.5264   3092895.8088   2  10   0.0451   0.0393   0.0193  -0.0331   0.0050   0.0174   0.00    0.0
2026/06/07 17:02:48.000   -492862.9090   5551481.5513   3092895.8138   2  10   0.0349   0.0388   0.0000  -0.0336   0.0095  -0.0116   0.00    0.0
2026/06/07 17:03:03.000   -492862.9114   5551481.5725   3092895.8305   2  10   0.0330   0.0398   0.0181  -0.0335  -0.0057  -0.0022   0.00    0.0
2026/06/07 17:03:18.000   -492862.9302   5551481.5812   3092895.8308   2   9   0.0491   0.0391   0.0152  -0.0313   0.0096   0.0067   0.00    0.0
2026/06/07 17:03:33.000   -492862.9348   5551481.5802   3092895.8415   2   9   0.0433   0.0388   0.0089  -0.0300   0.0123  -0.0171   0.00    0.0
2026/06/07 17:03:48.000   -492862.9279   5551481.5793   3092895.8661   2   9   0.0399   0.0398   0.0148  -0.0333  -0.0043   0.0078   0.00    0.0
2026/06/07 17:04:03.000   -492862.9278   5551481.5944   3092895.8650   2   9   0.0216   0.0398   0.0116  -0.0324  -0.0024  -0.0156   0.00    0.0
2026/06/07 17:04:18.000   -492862.9464   5551481.6417   3092895.8540   2   9   0.0360   0.0371   0.0000  -0.0307   0.0147  -0.0087   0.00    0.0
2026/06/07 17:04:33.000   -492862.9514   5551481.6509   3092895.8736   2  10   0.0481   0.0378   0.0279  -0.0321   0.0082   0.0214   0.00    0.0
2026/06/07 17:04:48.000   -492862.9473   5551481.6535   3092895.8717   2  10   0.0360   0.0387   0.0115  -0.0337  -0.0066  -0.0118   0.00    0.0
2026/06/07 17:05:03.000   -492862.9497   5551481.6539   3092895.8764   2  10   0.0341   0.0381   0.0000  -0.0322   0.0104  -0.0170   0.00    0.0
2026/06/07 17:05:18.000   -492862.9597   5551481.6444   3092895.8786   2  10   0.0424   0.0394   0.0000  -0.0327   0.0080  -0.0140   0.00    0.0
2026/06/07 17:05:33.000   -492862.9496   5551481.6090   3092895.8834   2  10   0.0378   0.0388   0.0000  -0.0313   0.0080  -0.0172   0.00    0.0
2026/06/07 17:05:48.000   -492863.3551   5551481.7568   3092896.4611   2  10   0.0428   0.0387   0.0000  -0.0314   0.0128  -0.0127   0.00    0.0
2026/06/07 17:06:03.000   -492862.9397   5551481.6345   3092895.8710   2  10   0.0407   0.0398   0.0125  -0.0320   0.0047  -0.0130   0.00    0.0
2026/06/07 17:06:18.000   -492862.9589   5551481.6571   3092895.8687   2  10   0.0361   0.0380   0.0092  -0.0342   0.0075   0.0082   0.00    0.0
2026/06/07 17:06:33.000   -492862.9628   5551481.6596   3092895.8426   2  10   0.0327   0.0394   0.0189  -0.0329  -0.0095   0.0202   0.00    0.0
2026/06/07 17:06:48.000   -492862.9375   5551481.6928   3092895.8638   2  10   0.0269   0.0392   0.0184  -0.0343  -0.0069   0.0023   0.00    0.0
2026/06/07 17:07:03.000   -492862.9471   5551481.6631   3092895.8730   2  10   0.0360   0.0381   0.0085  -0.0306   0.0098  -0.0140   0.00    0.0
2026/06/07 17:07:18.000   -492862.9598   5551481.7074   3092895.8766   2  10   0.0324   0.0394   0.0088  -0.0353  -0.0101  -0.0016   0.00    0.0
2026/06/07 17:07:33.000   -492862.9678   5551481.7280   3092895.8890   2  10   0.0332   0.0414   0.0209  -0.0279  -0.0162  -0.0163   0.00    0.0
2026/06/07 17:07:48.000   -492862.9644   5551481.7671   3092895.8781   2  10   0.0267   0.0405   0.0158  -0.0345  -0.0089   0.0152   0.00    0.0
2026/06/07 17:08:03.000   -492862.9120   5551481.7505   3092895.7728   2  10   0.0412   0.0396   0.0161  -0.0305   0.0077   0.0191   0.00    0.0
2026/06/07 17:08:18.000   -492863.2535   5551481.9699   3092896.2754   2  10   0.0326   0.0407   0.0146  -0.0328  -0.0097   0.0088   0.00    0.0
2026/06/07 17:08:33.000   -492862.9835   5551481.7741   3092895.8899   2  10   0.0394   0.0388   0.0156  -0.0326   0.0021   0.0122   0.00    0.0
2026/06/07 17:08:48.000   -492862.9409   5551481.7720   3092895.9248   2  11   0.0351   0.0384   0.0000  -0.0313   0.0050  -0.0162   0.00    0.0
2026/06/07 17:09:03.000   -492862.9776   5551481.7842   3092895.8911   2  10   0.0340   0.0389   0.0214  -0.0328  -0.0058   0.0136   0.00    0.0
2026/06/07 17:09:18.000   -492862.9612   5551481.7983   3092895.8867   2  10   0.0308   0.0406   0.0223  -0.0337  -0.0154   0.0114   0.00    0.0
2026/06/07 17:09:33.000   -492863.0061   5551481.7960   3092895.8971   2  10   0.0416   0.0402   0.0171  -0.0332  -0.0124   0.0088   0.00    0.0
2026/06/07 17:09:48.000   -492863.0196   5551481.7780   3092895.8792   2  10   0.0438   0.0399   0.0155  -0.0344  -0.0092   0.0159   0.00    0.0
2026/06/07 17:10:03.000   -492862.9359   5551481.7696   3092895.8721   2  10   0.0270   0.0402   0.0190  -0.0338  -0.0077   0.0152   0.00    0.0
2026/06/07 17:10:18.000   -492862.9347   5551481.7743   3092895.9164   2   9   0.0312   0.0407   0.0132  -0.0326  -0.0056  -0.0072   0.00    0.0
2026/06/07 17:10:33.000   -492863.0169   5551481.7794   3092895.9157   2  10   0.0433   0.0419   0.0170  -0.0324  -0.0053  -0.0015   0.00    0.0
2026/06/07 17:10:48.000   -492862.9653   5551481.7785   3092895.9324   2  10   0.0359   0.0428   0.0139  -0.0344  -0.0110   0.0077   0.00    0.0
2026/06/07 17:11:03.000   -492862.9933   5551481.7754   3092895.9211   2   9   0.0397   0.0443   0.0173  -0.0335  -0.0070   0.0067   0.00    0.0
2026/06/07 17:11:18.000   -492863.0044   5551481.7637   3092895.9000   2   9   0.0419   0.0493   0.0147  -0.0355  -0.0147   0.0066   0.00    0.0
2026/06/07 17:11:33.000   -492862.9012   5551481.8486   3092895.9115   2  10   0.0247   0.0382   0.0066  -0.0331  -0.0123  -0.0136   0.00    0.0
2026/06/07 17:11:48.000   -492862.9913   5551481.8390   3092895.8861   2   9   0.0374   0.0374   0.0103  -0.0316  -0.0040   0.0009   0.00    0.0
2026/06/07 17:12:03.000   -492863.0073   5551481.8261   3092895.9042   2  10   0.0390   0.0367   0.0000  -0.0295   0.0097  -0.0112   0.00    0.0
2026/06/07 17:12:18.000   -492862.8608   5551481.8651   3092895.8667   2  10   0.0000   0.0386   0.0160  -0.0330  -0.0061   0.0149   0.00    0.0
2026/06/07 17:12:33.000   -492862.9708   5551481.8788   3092895.9106   2   9   0.0343   0.0369   0.0089  -0.0310  -0.0018  -0.0113   0.00    0.0
2026/06/07 17:12:48.000   -492863.0104   5551481.8461   3092895.8876   2  10   0.0397   0.0347   0.0000  -0.0288   0.0126  -0.0108   0.00    0.0
2026/06/07 17:13:03.000   -492862.9708   5551481.8977   3092895.8564   2  10   0.0311   0.0363   0.0181  -0.0325  -0.0079   0.0150   0.00    0.0
2026/06/07 17:13:18.000   -492862.9724   5551481.8795   3092895.9013   2   9   0.0349   0.0379   0.0129  -0.0332  -0.0143  -0.0022   0.00    0.0
2026/06/07 17:13:33.000   -492862.9267   5551481.8692   3092895.9282   2   9   0.0305   0.0375   0.0081  -0.0314  -0.0117  -0.0122   0.00    0.0
2026/06/07 17:13:48.000   -492863.0171   5551481.8302   3092895.8696   2   9   0.0391   0.0348   0.0164  -0.0284   0.0066   0.0118   0.00    0.0
2026/06/07 17:14:03.000   -492862.9749   5551481.8112   3092895.8388   2  10   0.0369   0.0376   0.0185  -0.0328  -0.0134   0.0183   0.00    0.0
2026/06/07 17:14:18.000   -492863.0069   5551481.8061   3092895.8582   2  10   0.0425   0.0374   0.0144  -0.0334  -0.0116   0.0144   0.00    0.0
2026/06/07 17:14:33.000   -492862.9572   5551481.8135   3092895.8339   2  10   0.0357   0.0353   0.0193  -0.0307  -0.0074   0.0175   0.00    0.0
2026/06/07 17:14:48.000   -492863.0542   5551481.8257   3092895.9369   2   9   0.0462   0.0356   0.0022  -0.0284  -0.0057  -0.0137   0.00    0.0
2026/06/07 17:15:03.000   -492862.8047   5551481.8443   3092895.9312   2   9   0.0156   0.0364   0.0073  -0.0323  -0.0122  -0.0049   0.00    0.0
2026/06/07 17:15:18.000   -492863.0259   5551481.8273   3092895.8919   2   9   0.0436   0.0366   0.0165  -0.0314  -0.0130   0.0129   0.00    0.0
2026/06/07 17:15:33.000   -492862.9290   5551481.7853   3092895.9381   2  10   0.0352   0.0325   0.0000  -0.0279   0.0150  -0.0113   0.00    0.0
2026/06/07 17:15:48.000   -492863.0446   5551481.8098   3092895.8818   2  10   0.0452   0.0340   0.0153  -0.0293  -0.0024   0.0125   0.00    0.0
2026/06/07 17:16:03.000   -492862.9631   5551481.8144   3092895.9000   2  10   0.0396   0.0346   0.0046  -0.0310  -0.0024   0.0110   0.00    0.0
2026/06/07 17:16:18.000   -492863.0162   5551481.8083   3092895.8839   2  10   0.0427   0.0354   0.0182  -0.0304  -0.0101   0.0145   0.00    0.0
2026/06/07 17:16:33.000   -492862.9499   5551481.7768   3092895.8925   2  10   0.0385   0.0343   0.0101  -0.0296   0.0062   0.0104   0.00    0.0
2026/06/07 17:16:48.000   -492862.9544   5551481.7392   3092895.9139   2  10   0.0401   0.0340   0.0000  -0.0295  -0.0062   0.0095   0.00    0.0
2026/06/07 17:17:03.000   -492862.9693   5551481.7521   3092895.9200   2   9   0.0420   0.0329   0.0052  -0.0293   0.0065   0.0063   0.00    0.0
2026/06/07 17:17:18.000   -492862.8826   5551481.7932   3092895.8961   2  10   0.0336   0.0335   0.0120  -0.0305  -0.0086   0.0137   0.00    0.0
2026/06/07 17:17:33.000   -492862.7773   5551481.7912   3092895.9197   2  10   0.0226   0.0344   0.0136  -0.0296  -0.0105   0.0105   0.00    0.0
2026/06/07 17:17:48.000   -492862.7285   5551481.7834   3092895.9313   2  10   0.0185   0.0347   0.0096  -0.0302  -0.0127   0.0064   0.00    0.0
2026/06/07 17:18:03.000   -492863.0369   5551481.7569   3092895.9055   2  10   0.0468   0.0324   0.0083  -0.0285   0.0062   0.0082   0.00    0.0
2026/06/07 17:18:18.000   -492862.8572   5551481.8199   3092895.9471   2  10   0.0371   0.0360   0.0070  -0.0321  -0.0179  -0.0033   0.00    0.0
2026/06/07 17:18:33.000   -492862.9478   5551481.7749   3092895.8385   2  10   0.0429   0.0339   0.0063  -0.0316  -0.0061   0.0158   0.00    0.0
2026/06/07 17:18:48.000   -492862.9587   5551481.7656   3092895.8533   2  10   0.0429   0.0347   0.0137  -0.0294  -0.0103   0.0135   0.00    0.0
2026/06/07 17:19:03.000   -492862.7949   5551481.7773   3092895.8646   2  10   0.0326   0.0363   0.0156  -0.0309  -0.0157   0.0110   0.00    0.0
2026/06/07 17:19:18.000   -492862.1351   5551481.6998   3092895.5291   2  11   0.0222   0.0361   0.0143  -0.0286  -0.0139   0.0130   0.00    0.0
2026/06/07 17:19:33.000   -492862.9419   5551481.8176   3092895.9862   2  11   0.0384   0.0354   0.0118  -0.0290  -0.0090   0.0068   0.00    0.0
2026/06/07 17:19:48.000   -492863.0882   5551481.7819   3092896.0035   2  11   0.0488   0.0372   0.0173  -0.0311  -0.0172   0.0089   0.00    0.0
2026/06/07 17:20:03.000   -492862.9004   5551481.8129   3092895.8568   2  10   0.0401   0.0372   0.0142  -0.0312  -0.0143   0.0107   0.00    0.0
2026/06/07 17:20:18.000   -492862.9887   5551481.8241   3092895.8060   2  11   0.0431   0.0365   0.0150  -0.0306  -0.0127   0.0162   0.00    0.0
2026/06/07 17:20:33.000   -492862.6090   5551481.9608   3092895.9297   2  12   0.0178   0.0355   0.0097  -0.0327  -0.0218   0.0081   0.00    0.0
2026/06/07 17:20:48.000   -492862.9835   5551481.8380   3092895.8087   2  12   0.0430   0.0346   0.0134  -0.0294  -0.0071   0.0112   0.00    0.0
2026/06/07 17:21:03.000   -492862.6201   5551481.8709   3092895.7496   2  12   0.0000   0.0361   0.0164  -0.0308  -0.0121   0.0191   0.00    0.0
2026/06/07 17:21:18.000   -492862.8206   5551481.8622   3092895.8197   2  11   0.0306   0.0371   0.0109  -0.0312  -0.0135   0.0168   0.00    0.0
2026/06/07 17:21:33.000   -492862.8188   5551481.8336   3092895.8453   2  11   0.0288   0.0375   0.0097  -0.0298  -0.0168   0.0171   0.00    0.0
2026/06/07 17:21:48.000   -492863.0671   5551481.7962   3092895.8002   2  11   0.0442   0.0376   0.0166  -0.0300  -0.0140   0.0137   0.00    0.0
2026/06/07 17:22:03.000   -492862.8688   5551481.7802   3092895.8158   2  11   0.0351   0.0383   0.0161  -0.0312  -0.0169   0.0151   0.00    0.0
2026/06/07 17:22:18.000   -492862.9986   5551481.7421   3092895.8878   2  11   0.0426   0.0384   0.0134  -0.0312  -0.0146   0.0094   0.00    0.0
2026/06/07 17:22:33.000   -492863.0062   5551481.6862   3092895.8505   2  12   0.0421   0.0386   0.0151  -0.0324  -0.0162   0.0168   0.00    0.0
2026/06/07 17:22:48.000   -492862.6237   5551481.5384   3092895.9036   2  13   0.0147   0.0381   0.0159  -0.0274  -0.0158   0.0119   0.00    0.0
2026/06/07 17:23:03.000   -492863.3359   5551481.6176   3092895.8443   2  13   0.0534   0.0386   0.0141  -0.0329  -0.0159   0.0196   0.00    0.0
2026/06/07 17:23:18.000   -492862.9690   5551481.5808   3092895.8996   2  13   0.0386   0.0386   0.0105  -0.0316  -0.0175   0.0199   0.00    0.0
2026/06/07 17:23:33.000   -492863.0106   5551481.5649   3092895.8876   2  13   0.0436   0.0389   0.0145  -0.0342  -0.0134   0.0161   0.00    0.0
2026/06/07 17:23:48.000   -492862.7122   5551481.3808   3092895.9932   2  13   0.0258   0.0381   0.0134  -0.0274  -0.0135  -0.0075   0.00    0.0
2026/06/07 17:24:03.000   -492862.9581   5551481.3846   3092895.9348   2  13   0.0403   0.0390   0.0149  -0.0319  -0.0149   0.0124   0.00    0.0
2026/06/07 17:24:18.000   -492862.4413   5551481.2773   3092895.8134   2  13   0.0000   0.0387   0.0021  -0.0298  -0.0140   0.0260   0.00    0.0
2026/06/07 17:24:33.000   -492863.2373   5551481.3142   3092895.8793   2  11   0.0489   0.0395   0.0165  -0.0330  -0.0152   0.0189   0.00    0.0
2026/06/07 17:24:48.000   -492863.1388   5551481.2880   3092895.9593   2  11   0.0465   0.0389   0.0148  -0.0334  -0.0156   0.0154   0.00    0.0
2026/06/07 17:25:03.000   -492862.8882   5551481.1442   3092895.9398   2  10   0.0290   0.0386   0.0142  -0.0273  -0.0133   0.0159   0.00    0.0
2026/06/07 17:25:18.000   -492863.1989   5551481.2373   3092895.9689   2  11   0.0495   0.0402   0.0131  -0.0351  -0.0145   0.0149   0.00    0.0
2026/06/07 17:25:33.000   -492862.9838   5551481.1619   3092895.9359   2  12   0.0316   0.0378   0.0143  -0.0260  -0.0144   0.0151   0.00    0.0
2026/06/07 17:25:48.000   -492863.0187   5551481.1994   3092895.9593   2  12   0.0407   0.0407   0.0144  -0.0338  -0.0134   0.0114   0.00    0.0
2026/06/07 17:26:03.000   -492863.2732   5551481.2332   3092895.9354   2  12   0.0538   0.0410   0.0135  -0.0369  -0.0137   0.0163   0.00    0.0
2026/06/07 17:26:18.000   -492863.0871   5551481.2124   3092895.9439   2  12   0.0346   0.0398   0.0124  -0.0310  -0.0147   0.0182   0.00    0.0
2026/06/07 17:26:33.000   -492863.3275   5551481.3051   3092895.9869   2  12   0.0504   0.0404   0.0085  -0.0355  -0.0166   0.0207   0.00    0.0
2026/06/07 17:26:48.000   -492863.1146   5551481.3118   3092895.9816   2  11   0.0437   0.0389   0.0108  -0.0340  -0.0168   0.0134   0.00    0.0
2026/06/07 17:27:03.000   -492863.2288   5551481.2766   3092895.8852   2  10   0.0506   0.0410   0.0157  -0.0366  -0.0148   0.0172   0.00    0.0
2026/06/07 17:27:18.000   -492863.1748   5551481.2631   3092895.8962   2  10   0.0471   0.0408   0.0147  -0.0357  -0.0148   0.0154   0.00    0.0
2026/06/07 17:27:33.000   -492863.1943   5551481.3428   3092896.1059   2  10   0.0527   0.0409   0.0000  -0.0382  -0.0180   0.0156   0.00    0.0
2026/06/07 17:27:48.000   -492863.0647   5551481.2096   3092895.9853   2  10   0.0421   0.0394   0.0112  -0.0325  -0.0117   0.0095   0.00    0.0
2026/06/07 17:28:03.000   -492863.0487   5551481.2084   3092895.9828   2  11   0.0419   0.0401   0.0099  -0.0341  -0.0124   0.0053   0.00    0.0
2026/06/07 17:28:18.000   -492863.1324   5551481.2635   3092895.9572   2  10   0.0465   0.0402   0.0135  -0.0347  -0.0136   0.0150   0.00    0.0
2026/06/07 17:28:33.000   -492863.1402   5551481.2882   3092895.9397   2  13   0.0479   0.0405   0.0151  -0.0358  -0.0132   0.0157   0.00    0.0
2026/06/07 17:28:48.000   -492863.3317   5551481.4033   3092895.9535   2  13   0.0226   0.0392   0.0145  -0.0272  -0.0124   0.0129   0.00    0.0
2026/06/07 17:29:03.000   -492863.4919   5551481.5825   3092896.1168   2  11   0.0352   0.0381   0.0081  -0.0291  -0.0190   0.0253   0.00    0.0
2026/06/07 17:29:18.000   -492863.6205   5551481.7008   3092896.1618   2  11   0.0329   0.0370   0.0000  -0.0274  -0.0214   0.0281   0.00    0.0
2026/06/07 17:29:33.000   -492863.8756   5551481.9297   3092896.0606   2  13   0.0000   0.0000   0.0090   0.0581  -0.0269   0.0344   0.00    0.0
2026/06/07 17:29:48.000   -492863.3998   5551481.6649   3092895.9666   2  12   0.0311   0.0325   0.0139  -0.0214  -0.0185   0.0238   0.00    0.0
2026/06/07 17:30:03.000   -492863.3811   5551481.6575   3092895.9178   2  12   0.0238   0.0345   0.0151  -0.0216  -0.0133   0.0170   0.00    0.0
2026/06/07 17:30:18.000   -492863.1377   5551481.5599   3092895.9565   2  11   0.0527   0.0422   0.0121  -0.0407  -0.0149   0.0177   0.00    0.0
2026/06/07 17:30:33.000   -492863.1564   5551481.5658   3092895.9584   2  11   0.0539   0.0427   0.0130  -0.0414  -0.0147   0.0190   0.00    0.0
2026/06/07 17:30:48.000   -492863.1796   5551481.5802   3092895.9010   2  10   0.0469   0.0401   0.0159  -0.0365  -0.0141   0.0184   0.00    0.0
2026/06/07 17:31:03.000   -492863.2590   5551481.6078   3092895.8461   2  10   0.0477   0.0417   0.0144  -0.0392  -0.0142   0.0159   0.00    0.0
2026/06/07 17:31:18.000   -492863.2612   5551481.6494   3092895.8798   2  10   0.0441   0.0405   0.0145  -0.0364  -0.0130   0.0158   0.00    0.0
2026/06/07 17:31:33.000   -492863.1779   5551481.6476   3092895.8754   2   9   0.0489   0.0414   0.0162  -0.0386  -0.0136   0.0189   0.00    0.0
2026/06/07 17:31:48.000   -492863.1516   5551481.6726   3092895.8608   2   9   0.0438   0.0416   0.0119  -0.0379  -0.0100   0.0085   0.00    0.0
2026/06/07 17:32:03.000   -492863.1835   5551481.6948   3092895.8711   2   9   0.0498   0.0422   0.0153  -0.0400  -0.0136   0.0184   0.00    0.0
2026/06/07 17:32:18.000   -492862.9989   5551481.6211   3092895.9387   2   9   0.0512   0.0431   0.0130  -0.0413  -0.0123   0.0164   0.00    0.0
2026/06/07 17:32:33.000   -492863.0859   5551481.6784   3092895.8487   2  10   0.0519   0.0428   0.0145  -0.0417  -0.0141   0.0189   0.00    0.0
2026/06/07 17:32:48.000   -492863.0376   5551481.6315   3092895.8466   2  10   0.0524   0.0432   0.0186  -0.0422  -0.0132   0.0182   0.00    0.0
2026/06/07 17:33:03.000   -492862.4353   5551481.4297   3092896.3326   2  10   0.0278   0.0402   0.0000  -0.0322   0.0200  -0.0332   0.00    0.0
2026/06/07 17:33:18.000   -492863.2507   5551481.7897   3092895.9007   2  10   0.0433   0.0404   0.0159  -0.0363  -0.0116   0.0158   0.00    0.0
2026/06/07 17:33:33.000   -492863.2701   5551481.8036   3092895.9713   2  11   0.0515   0.0436   0.0157  -0.0422  -0.0151   0.0199   0.00    0.0
2026/06/07 17:33:48.000   -492861.5263   5551479.8269   3092894.6185   2  10   0.0856   0.0936   0.0585  -0.0863   0.0669  -0.0595   0.00    0.0
2026/06/07 17:34:03.000   -492862.9890   5551481.6907   3092895.9455   2  11   0.0512   0.0410   0.0152  -0.0399  -0.0173   0.0218   0.00    0.0
2026/06/07 17:34:18.000   -492863.0458   5551481.6995   3092895.9459   2  11   0.0531   0.0428   0.0127  -0.0425  -0.0172   0.0201   0.00    0.0
2026/06/07 17:34:33.000   -492862.9180   5551481.6782   3092896.0495   2  10   0.0493   0.0442   0.0000  -0.0438  -0.0163  -0.0130   0.00    0.0
2026/06/07 17:34:48.000   -492863.0070   5551481.6646   3092895.9081   2   9   0.0529   0.0438   0.0156  -0.0430  -0.0151   0.0182   0.00    0.0
2026/06/07 17:35:03.000   -492863.1537   5551481.7580   3092895.9263   2   9   0.0489   0.0427   0.0169  -0.0403  -0.0143   0.0188   0.00    0.0
2026/06/07 17:35:18.000   -492862.9377   5551481.6448   3092895.9276   2   9   0.0554   0.0453   0.0164  -0.0449  -0.0137   0.0183   0.00    0.0
2026/06/07 17:35:33.000   -492863.1611   5551481.7811   3092895.9527   2   9   0.0485   0.0429   0.0149  -0.0404  -0.0139   0.0173   0.00    0.0
2026/06/07 17:35:48.000   -492863.0685   5551481.7249   3092895.9526   2   9   0.0510   0.0440   0.0169  -0.0419  -0.0134   0.0185   0.00    0.0
2026/06/07 17:36:03.000   -492863.0173   5551481.6978   3092895.9594   2   9   0.0522   0.0444   0.0163  -0.0427  -0.0129   0.0186   0.00    0.0
2026/06/07 17:36:18.000   -492862.9751   5551481.6573   3092895.9365   2   9   0.0531   0.0450   0.0161  -0.0436  -0.0130   0.0178   0.00    0.0
2026/06/07 17:36:33.000   -492863.0167   5551481.6830   3092895.9811   2  10   0.0516   0.0440   0.0134  -0.0424  -0.0151   0.0186   0.00    0.0
2026/06/07 17:36:48.000   -492862.9992   5551481.6636   3092895.9412   2  11   0.0511   0.0442   0.0166  -0.0423  -0.0125   0.0169   0.00    0.0
2026/06/07 17:37:03.000   -492863.1695   5551481.7971   3092896.0169   2  11   0.0483   0.0419   0.0119  -0.0396  -0.0173   0.0206   0.00    0.0
2026/06/07 17:37:18.000   -492863.0902   5551481.7330   3092895.9628   2  12   0.0529   0.0449   0.0160  -0.0433  -0.0136   0.0196   0.00    0.0
2026/06/07 17:37:33.000   -492862.9863   5551481.6794   3092895.9804   2  12   0.0552   0.0455   0.0147  -0.0451  -0.0146   0.0190   0.00    0.0
2026/06/07 17:37:48.000   -492863.0348   5551481.6850   3092895.9281   2  10   0.0533   0.0449   0.0157  -0.0439  -0.0142   0.0187   0.00    0.0
2026/06/07 17:38:03.000   -492863.0889   5551481.6727   3092895.8620   2  10   0.0499   0.0443   0.0133  -0.0424  -0.0122   0.0131   0.00    0.0
2026/06/07 17:38:18.000   -492863.0453   5551481.6656   3092895.9336   2  10   0.0515   0.0450   0.0154  -0.0428  -0.0124   0.0173   0.00    0.0
2026/06/07 17:38:33.000   -492863.0326   5551481.6652   3092895.9320   2  11   0.0529   0.0454   0.0157  -0.0437  -0.0129   0.0180   0.00    0.0
2026/06/07 17:38:48.000   -492863.0230   5551481.6799   3092895.9490   2  10   0.0531   0.0458   0.0155  -0.0438  -0.0131   0.0180   0.00    0.0
2026/06/07 17:39:03.000   -492863.0857   5551481.7466   3092895.9469   2  10   0.0510   0.0442   0.0147  -0.0422  -0.0145   0.0181   0.00    0.0
2026/06/07 17:39:18.000   -492863.0685   5551481.7286   3092895.9238   2  10   0.0517   0.0458   0.0153  -0.0430  -0.0129   0.0169   0.00    0.0
2026/06/07 17:39:33.000   -492863.0793   5551481.7601   3092895.9364   2  10   0.0520   0.0460   0.0157  -0.0430  -0.0122   0.0180   0.00    0.0
2026/06/07 17:39:48.000   -492863.0854   5551481.7944   3092895.9307   2  11   0.0516   0.0449   0.0152  -0.0426  -0.0141   0.0183   0.00    0.0
2026/06/07 17:40:03.000   -492863.1084   5551481.8162   3092895.9313   2   9   0.0519   0.0452   0.0155  -0.0431  -0.0131   0.0169   0.00    0.0
2026/06/07 17:40:18.000   -492863.0844   5551481.8223   3092895.9114   2  11   0.0500   0.0442   0.0151  -0.0414  -0.0143   0.0176   0.00    0.0
2026/06/07 17:40:33.000   -492863.1362   5551481.8779   3092895.9305   2  11   0.0510   0.0448   0.0149  -0.0425  -0.0136   0.0163   0.00    0.0
2026/06/07 17:40:48.000   -492863.1709   5551481.8906   3092895.9295   2  11   0.0513   0.0450   0.0143  -0.0429  -0.0146   0.0166   0.00    0.0
2026/06/07 17:41:03.000   -492863.1549   5551481.8935   3092895.9322   2  11   0.0513   0.0447   0.0148  -0.0428  -0.0138   0.0166   0.00    0.0
2026/06/07 17:41:18.000   -492863.1601   5551481.8880   3092895.9172   2  12   0.0505   0.0445   0.0141  -0.0421  -0.0139   0.0165   0.00    0.0
2026/06/07 17:41:33.000   -492863.1722   5551481.9269   3092895.9364   2  12   0.0512   0.0449   0.0154  -0.0428  -0.0141   0.0168   0.00    0.0
2026/06/07 17:41:48.000   -492863.1639   5551481.8947   3092895.9330   2  12   0.0501   0.0441   0.0148  -0.0420  -0.0139   0.0164   0.00    0.0
2026/06/07 17:42:03.000   -492863.1157   5551481.8988   3092895.9669   2  11   0.0494   0.0440   0.0143  -0.0414  -0.0130   0.0163   0.00    0.0
2026/06/07 17:42:18.000   -492863.1244   5551481.9250   3092895.9684   2  11   0.0491   0.0439   0.0148  -0.0413  -0.0126   0.0162   0.00    0.0
2026/06/07 17:42:33.000   -492863.1372   5551481.9182   3092895.9742   2  11   0.0498   0.0443   0.0149  -0.0419  -0.0138   0.0163   0.00    0.0
2026/06/07 17:42:48.000   -492863.1504   5551481.8694   3092895.9357   2  11   0.0498   0.0442   0.0140  -0.0419  -0.0134   0.0161   0.00    0.0
2026/06/07 17:43:03.000   -492863.1739   5551481.8589   3092895.9873   2  10   0.0492   0.0443   0.0153  -0.0416  -0.0125   0.0156   0.00    0.0
2026/06/07 17:43:18.000   -492863.2036   5551481.9505   3092896.0299   2  12   0.0493   0.0461   0.0160  -0.0419  -0.0101   0.0150   0.00    0.0
2026/06/07 17:43:33.000   -492863.1192   5551481.8391   3092895.9904   2  12   0.0483   0.0445   0.0150  -0.0410  -0.0122   0.0162   0.00    0.0
2026/06/07 17:43:48.000   -492863.2189   5551481.9061   3092896.0359   2  12   0.0490   0.0454   0.0153  -0.0417  -0.0101   0.0150   0.00    0.0
2026/06/07 17:44:03.000   -492863.2178   5551481.8940   3092896.0491   2  11   0.0487   0.0445   0.0147  -0.0414  -0.0119   0.0151   0.00    0.0
2026/06/07 17:44:18.000   -492863.2705   5551481.8856   3092896.0140   2  11   0.0485   0.0445   0.0147  -0.0413  -0.0113   0.0148   0.00    0.0
2026/06/07 17:44:33.000   -492863.1153   5551481.6933   3092895.8544   2  10   0.0480   0.0436   0.0141  -0.0406  -0.0133   0.0168   0.00    0.0
2026/06/07 17:44:48.000   -492863.2215   5551481.8451   3092895.9799   2  12   0.0476   0.0438   0.0170  -0.0405  -0.0110   0.0145   0.00    0.0
2026/06/07 17:45:03.000   -492863.2205   5551481.8082   3092895.9491   2  11   0.0477   0.0447   0.0164  -0.0408  -0.0090   0.0141   0.00    0.0
2026/06/07 17:45:18.000   -492863.2241   5551481.8693   3092895.9704   2  10   0.0475   0.0442   0.0166  -0.0406  -0.0105   0.0145   0.00    0.0
2026/06/07 17:45:33.000   -492863.2380   5551481.8055   3092895.9409   2  10   0.0475   0.0455   0.0173  -0.0410  -0.0041   0.0127   0.00    0.0
2026/06/07 17:45:48.000   -492863.1937   5551481.7517   3092895.9369   2  12   0.0471   0.0443   0.0168  -0.0404  -0.0088   0.0138   0.00    0.0
2026/06/07 17:46:03.000   -492863.2321   5551481.7928   3092895.9330   2  12   0.0474   0.0439   0.0165  -0.0405  -0.0100   0.0137   0.00    0.0
2026/06/07 17:46:18.000   -492863.1913   5551481.7281   3092895.9184   2  12   0.0467   0.0436   0.0154  -0.0403  -0.0104   0.0131   0.00    0.0
2026/06/07 17:46:33.000   -492863.1968   5551481.7536   3092895.9213   2  12   0.0468   0.0434   0.0164  -0.0401  -0.0102   0.0138   0.00    0.0
2026/06/07 17:46:48.000   -492863.1946   5551481.7566   3092895.9330   2  12   0.0465   0.0432   0.0161  -0.0399  -0.0103   0.0132   0.00    0.0
2026/06/07 17:47:03.000   -492863.1993   5551481.7756   3092895.9327   2  12   0.0459   0.0429   0.0157  -0.0395  -0.0100   0.0129   0.00    0.0
2026/06/07 17:47:18.000   -492863.1864   5551481.7456   3092895.9531   2  11   0.0460   0.0434   0.0157  -0.0396  -0.0090   0.0132   0.00    0.0
2026/06/07 17:47:33.000   -492863.1769   5551481.7462   3092895.9552   2  10   0.0457   0.0435   0.0163  -0.0395  -0.0093   0.0123   0.00    0.0
2026/06/07 17:47:48.000   -492863.1965   5551481.7401   3092895.9327   2  10   0.0456   0.0435   0.0166  -0.0396  -0.0100   0.0124   0.00    0.0
2026/06/07 17:48:03.000   -492863.1664   5551481.6771   3092895.9251   2   9   0.0459   0.0487   0.0191  -0.0412   0.0110   0.0097   0.00    0.0
2026/06/07 17:48:18.000   -492863.1087   5551481.6482   3092895.9122   2  11   0.0455   0.0468   0.0181  -0.0402   0.0083   0.0111   0.00    0.0
2026/06/07 17:48:33.000   -492863.1090   5551481.6584   3092895.9266   2  11   0.0450   0.0450   0.0169  -0.0396  -0.0040   0.0111   0.00    0.0
2026/06/07 17:48:48.000   -492863.0236   5551481.6004   3092895.8909   2  11   0.0448   0.0452   0.0175  -0.0395   0.0007   0.0100   0.00    0.0
2026/06/07 17:49:03.000   -492863.4156   5551481.9001   3092896.3015   2  11   0.0447   0.0457   0.0182  -0.0395   0.0051   0.0105   0.00    0.0
2026/06/07 17:49:18.000   -492863.2416   5551481.8615   3092896.0556   2   9   0.0446   0.0459   0.0180  -0.0396   0.0067   0.0096   0.00    0.0
2026/06/07 17:49:33.000   -492863.4368   5551481.9774   3092896.3449   2  10   0.0444   0.0468   0.0187  -0.0397   0.0100   0.0097   0.00    0.0
2026/06/07 17:49:48.000   -492863.6031   5551481.8291   3092896.4457   2  10   0.0449   0.0475   0.0201  -0.0398   0.0106   0.0050   0.00    0.0
2026/06/07 17:50:03.000   -492863.4313   5551481.8967   3092896.2825   2  11   0.0441   0.0474   0.0192  -0.0397   0.0107   0.0082   0.00    0.0
2026/06/07 17:50:18.000   -492863.4386   5551481.9893   3092896.2963   2  10   0.0440   0.0485   0.0198  -0.0403   0.0134   0.0049   0.00    0.0
2026/06/07 17:50:33.000   -492863.4171   5551481.9699   3092896.2841   2  10   0.0438   0.0466   0.0191  -0.0393   0.0102   0.0081   0.00    0.0
2026/06/07 17:50:48.000   -492863.4173   5551481.9669   3092896.2801   2  10   0.0434   0.0459   0.0184  -0.0389   0.0092   0.0077   0.00    0.0
2026/06/07 17:51:03.000   -492863.2854   5551481.8666   3092896.1303   2  10   0.0436   0.0457   0.0197  -0.0390   0.0095   0.0072   0.00    0.0
2026/06/07 17:51:18.000   -492863.2706   5551481.8596   3092896.1207   2   9   0.0433   0.0453   0.0191  -0.0386   0.0084   0.0085   0.00    0.0
2026/06/07 17:51:33.000   -492863.2520   5551481.8964   3092896.1161   2   9   0.0430   0.0453   0.0196  -0.0383   0.0086   0.0057   0.00    0.0
2026/06/07 17:51:48.000   -492863.2437   5551481.8822   3092896.1166   2  10   0.0428   0.0447   0.0198  -0.0381   0.0091   0.0070   0.00    0.0
2026/06/07 17:52:03.000   -492863.1938   5551481.7566   3092896.0804   2  11   0.0427   0.0462   0.0197  -0.0386   0.0117   0.0053   0.00    0.0
2026/06/07 17:52:18.000   -492863.1895   5551481.7621   3092896.0888   2  11   0.0422   0.0443   0.0184  -0.0379   0.0075   0.0071   0.00    0.0
2026/06/07 17:52:33.000   -492863.1704   5551481.7320   3092896.0748   2  10   0.0419   0.0434   0.0179  -0.0374   0.0041   0.0077   0.00    0.0
2026/06/07 17:52:48.000   -492863.1567   5551481.7207   3092896.0599   2  12   0.0416   0.0428   0.0176  -0.0371  -0.0015   0.0088   0.00    0.0
2026/06/07 17:53:03.000   -492863.1797   5551481.8131   3092896.0855   2  11   0.0422   0.0467   0.0188  -0.0384   0.0089   0.0045   0.00    0.0
2026/06/07 17:53:18.000   -492863.1894   5551481.7992   3092896.0819   2  12   0.0426   0.0470   0.0225  -0.0382   0.0112  -0.0067   0.00    0.0
2026/06/07 17:53:33.000   -492863.1986   5551481.4781   3092896.0713   2  12   0.0418   0.0466   0.0183  -0.0375  -0.0028   0.0050   0.00    0.0
2026/06/07 17:53:48.000   -492863.2061   5551481.5771   3092896.0877   2  11   0.0419   0.0448   0.0177  -0.0374  -0.0065   0.0052   0.00    0.0
2026/06/07 17:54:03.000   -492863.2052   5551481.6434   3092896.1030   2  11   0.0417   0.0450   0.0177  -0.0374  -0.0066   0.0067   0.00    0.0
2026/06/07 17:54:18.000   -492863.2153   5551481.6872   3092896.1188   2  12   0.0419   0.0453   0.0179  -0.0376  -0.0054   0.0069   0.00    0.0
2026/06/07 17:54:33.000   -492863.0621   5551480.9645   3092895.9548   2  12   0.0416   0.0441   0.0172  -0.0373  -0.0070   0.0069   0.00    0.0
2026/06/07 17:54:48.000   -492863.1838   5551481.6254   3092896.1041   2  12   0.0415   0.0443   0.0171  -0.0372  -0.0080   0.0057   0.00    0.0
2026/06/07 17:55:03.000   -492863.1802   5551481.6364   3092896.1070   2  12   0.0415   0.0467   0.0170  -0.0368  -0.0077   0.0066   0.00    0.0
2026/06/07 17:55:18.000   -492863.1960   5551481.7505   3092896.1406   2  11   0.0415   0.0492   0.0179  -0.0375   0.0026   0.0053   0.00    0.0
2026/06/07 17:55:33.000   -492863.1226   5551483.2520   3092896.2474   2  10   0.0413   0.0453   0.0174  -0.0370  -0.0077   0.0074   0.00    0.0
2026/06/07 17:55:48.000   -492863.2168   5551481.9302   3092896.1654   2  11   0.0411   0.0467   0.0173  -0.0369  -0.0074   0.0064   0.00    0.0
2026/06/07 17:56:03.000   -492863.0664   5551483.1353   3092896.1984   2  11   0.0410   0.0450   0.0172  -0.0368  -0.0083   0.0062   0.00    0.0
2026/06/07 17:56:18.000   -492863.1588   5551481.9529   3092896.1305   2  11   0.0412   0.0465   0.0181  -0.0375  -0.0035   0.0053   0.00    0.0
2026/06/07 17:56:33.000   -492863.1784   5551481.7682   3092896.1253   2   7   0.0412   0.0463   0.0174  -0.0368  -0.0071   0.0045   0.00    0.0
2026/06/07 17:56:48.000   -492863.1948   5551481.8080   3092896.1232   2  10   0.0413   0.0482   0.0176  -0.0360  -0.0094   0.0035   0.00    0.0
2026/06/07 17:57:03.000   -492863.2031   5551481.7562   3092896.1550   2   6   0.0413   0.0481   0.0188  -0.0372  -0.0045  -0.0019   0.00    0.0
2026/06/07 17:57:18.000   -492863.2582   5551481.8044   3092896.2214   2   9   0.0411   0.0502   0.0189  -0.0368  -0.0079  -0.0020   0.00    0.0
2026/06/07 17:57:33.000   -492863.3238   5551481.6783   3092896.2553   2   9   0.0409   0.0466   0.0186  -0.0366  -0.0095   0.0031   0.00    0.0
2026/06/07 17:57:48.000   -492863.3530   5551481.8938   3092896.2933   2   8   0.0415   0.0484   0.0241  -0.0380   0.0095  -0.0104   0.00    0.0
2026/06/07 17:58:03.000   -492863.3315   5551481.8703   3092896.2575   2   9   0.0416   0.0481   0.0227  -0.0376   0.0069  -0.0095   0.00    0.0
2026/06/07 17:58:18.000   -492863.0850   5551483.1182   3092896.1676   2  11   0.0413   0.0464   0.0216  -0.0378   0.0063  -0.0087   0.00    0.0
2026/06/07 17:58:33.000   -492863.1914   5551482.0534   3092896.0829   2   9   0.0414   0.0487   0.0231  -0.0363  -0.0103  -0.0099   0.00    0.0
2026/06/07 17:58:48.000   -492863.1910   5551481.9727   3092896.0856   2  10   0.0413   0.0462   0.0214  -0.0367  -0.0084  -0.0079   0.00    0.0
2026/06/07 17:59:03.000   -492863.1706   5551481.8404   3092896.0602   2  10   0.0411   0.0473   0.0211  -0.0373  -0.0005  -0.0078   0.00    0.0
2026/06/07 17:59:18.000   -492863.1737   5551481.8294   3092896.0842   2  10   0.0410   0.0457   0.0204  -0.0371  -0.0057  -0.0073   0.00    0.0
2026/06/07 17:59:33.000   -492863.1692   5551481.8009   3092896.0871   2  11   0.0410   0.0468   0.0200  -0.0375   0.0049  -0.0082   0.00    0.0
2026/06/07 17:59:48.000   -492863.1633   5551481.7552   3092896.0894   2  10   0.0408   0.0454   0.0196  -0.0371  -0.0040  -0.0069   0.00    0.0
2026/06/07 18:00:03.000   -492863.1770   5551481.7735   3092896.1189   2   9   0.0410   0.0453   0.0196  -0.0373  -0.0022  -0.0058   0.00    0.0
