% program   : rnx2rtkp ver.EX 2.5.0
% inp file  : D:\code\rtklib_java\RTKLIB_EX_2.5.0\1.obs
% inp file  : D:\code\rtklib_java\RTKLIB_EX_2.5.0\1.nav
% obs start : 2026/06/07 17:00:18.0 GPST (week2422  61218.0s)
% obs end   : 2026/06/07 18:00:03.0 GPST (week2422  64803.0s)
%
% (lat/lon/height=WGS84/ellipsoidal,Q=1:fix,2:float,3:sbas,4:dgps,5:single,6:ppp,ns=# of satellites)
%  GPST          latitude(deg) longitude(deg)  height(m)   Q  ns   sdn(m)   sde(m)   sdu(m)  sdne(m)  sdeu(m)  sdun(m) age(s)  ratio
2422  61218.000   29.191509874   95.073474163   922.9322   5  11   2.0615   2.2564   7.0454   0.9937   1.9809  -1.7021   0.00    0.0
2422  61233.000   29.191508455   95.073505369   932.5958   5  11   2.4231   2.6622   8.8709  -1.4438   3.4158  -3.6087   0.00    0.0
2422  61248.000   29.191500965   95.073530653   941.7620   5  11   2.4240   2.6614   8.8646  -1.4445   3.4109  -3.6105   0.00    0.0
2422  61263.000   29.191433744   95.073653857   968.2491   5  10   2.9967   3.7446   9.9144  -2.5938   4.8305  -4.5705   0.00    0.0
2422  61278.000   29.191484183   95.073580202   961.2861   5  11   2.4258   2.6597   8.8514  -1.4457   3.4008  -3.6141   0.00    0.0
2422  61293.000   29.191494717   95.073450212   912.4264   5  10   2.7971   2.7496   8.8828  -1.0572   3.3097  -3.7707   0.00    0.0
2422  61308.000   29.191503416   95.073458270   915.7307   5  10   2.7971   2.7488   8.8760  -1.0585   3.3042  -3.7724   0.00    0.0
2422  61323.000   29.191520238   95.073450272   914.2134   5  11   2.1233   2.3801   6.9273   1.1738   1.8091  -2.0395   0.00    0.0
2422  61338.000   29.191532558   95.073454914   915.8226   5  11   2.1244   2.3795   6.9319   1.1713   1.8064  -2.0518   0.00    0.0
2422  61353.000   29.191529159   95.073450966   914.8977   5  11   2.1255   2.3790   6.9364   1.1689   1.8036  -2.0640   0.00    0.0
2422  61368.000   29.191525779   95.073453653   915.5785   5  11   2.1266   2.3785   6.9408   1.1664   1.8007  -2.0762   0.00    0.0
2422  61383.000   29.191515757   95.073458712   918.3214   5  11   2.1278   2.3780   6.9451   1.1640   1.7978  -2.0884   0.00    0.0
2422  61398.000   29.191487911   95.073479740   927.4238   5  10   2.7969   2.7437   8.8322  -1.0655   3.2691  -3.7815   0.00    0.0
2422  61413.000   29.191480084   95.073481114   930.2941   5  10   2.7969   2.7429   8.8244  -1.0666   3.2630  -3.7829   0.00    0.0
2422  61428.000   29.191472952   95.073481660   931.8047   5  10   2.7969   2.7420   8.8165  -1.0676   3.2569  -3.7842   0.00    0.0
2422  61443.000   29.191472116   95.073483828   932.1770   5  10   2.7969   2.7411   8.8084  -1.0685   3.2506  -3.7854   0.00    0.0
2422  61458.000   29.191467953   95.073468797   931.1895   5  12   1.8816   2.1452   6.9575   0.5474   1.6856  -2.2239   0.00    0.0
2422  61473.000   29.191453705   95.073457346   944.4494   5  12   1.8600   2.0582   5.8858  -0.2707   2.2590  -1.7222   0.00    0.0
2422  61488.000   29.191498016   95.073489484   948.1643   5  11   2.4092   2.5260   6.6545   1.5114   3.1210   1.6291   0.00    0.0
2422  61503.000   29.191500685   95.073490222   951.5315   5  11   2.4052   2.5229   6.6509   1.5033   3.1155   1.6085   0.00    0.0
2422  61518.000   29.191563996   95.073551112   939.3855   5  10   2.7810   2.8272   7.2298   2.0086   2.4548  -1.2117   0.00    0.0
2422  61533.000   29.191562155   95.073544198   937.0201   5  10   2.7800   2.8250   7.2285   2.0045   2.4456  -1.2474   0.00    0.0
2422  61548.000   29.191557465   95.073532002   932.8959   5  10   2.7791   2.8227   7.2272   2.0005   2.4363  -1.2820   0.00    0.0
2422  61563.000   29.191550223   95.073519812   930.9275   5  10   2.7783   2.8205   7.2258   1.9965   2.4269  -1.3158   0.00    0.0
2422  61578.000   29.191505581   95.073472689   927.6516   5  11   2.0888   2.2460   7.1148   0.9240   1.9264  -2.0281   0.00    0.0
2422  61593.000   29.191474241   95.073448561   924.4614   5  12   1.8986   2.1432   6.9908   0.5123   1.6757  -2.3081   0.00    0.0
2422  61608.000   29.191476620   95.073454620   926.0583   5  12   1.9006   2.1430   6.9940   0.5083   1.6744  -2.3172   0.00    0.0
2422  61623.000   29.191468111   95.073450902   925.6448   5  12   1.9026   2.1428   6.9971   0.5042   1.6730  -2.3263   0.00    0.0
2422  61638.000   29.191467413   95.073455648   926.7133   5  12   1.9046   2.1426   7.0000   0.5002   1.6716  -2.3354   0.00    0.0
2422  61653.000   29.191435714   95.073423016   946.0195   5  13   1.7752   2.0541   5.8620  -0.4211   2.2631  -1.6825   0.00    0.0
2422  61668.000   29.191467556   95.073440193   924.5364   5  12   1.9087   2.1421   7.0057   0.4920   1.6687  -2.3533   0.00    0.0
2422  61683.000   29.191473784   95.073435806   921.0978   5  11   2.1562   2.3671   7.0113   1.1157   1.7277  -2.3187   0.00    0.0
2422  61698.000   29.191412646   95.073453687   933.0879   5  10   2.7507   2.6535   8.6092  -1.3069   3.2363  -3.6194   0.00    0.0
2422  61713.000   29.191405474   95.073451030   931.8489   5  10   2.7511   2.6524   8.5987  -1.3073   3.2291  -3.6207   0.00    0.0
2422  61728.000   29.191445948   95.073439500   922.5391   5  11   2.1045   2.2412   7.1259   0.8949   1.8947  -2.1497   0.00    0.0
2422  61743.000   29.191493909   95.073487160   924.1529   5  10   2.7718   2.7937   7.2040   1.9499   2.3098  -1.6653   0.00    0.0
2422  61758.000   29.191486338   95.073476604   923.7735   5  10   2.7716   2.7915   7.2018   1.9462   2.2996  -1.6909   0.00    0.0
2422  61773.000   29.191485823   95.073471823   922.9116   5  10   2.7714   2.7893   7.1995   1.9425   2.2895  -1.7160   0.00    0.0
2422  61788.000   29.191484688   95.073474932   923.0094   5  10   2.7713   2.7872   7.1973   1.9388   2.2792  -1.7407   0.00    0.0
2422  61803.000   29.191487650   95.073482715   924.5439   5  10   2.7712   2.7850   7.1949   1.9351   2.2689  -1.7650   0.00    0.0
2422  61818.000   29.191491846   95.073490819   924.7246   5   9   2.9909   2.8137   7.2389   1.8063   2.1819  -1.5097   0.00    0.0
2422  61833.000   29.191443642   95.073517478   921.1075   5  10   2.7712   2.7806   7.1900   1.9279   2.2482  -1.8124   0.00    0.0
2422  61848.000   29.191443341   95.073495022   927.3618   5  12   2.1163   2.2207   6.2447   0.8554   2.1016  -2.1596   0.00    0.0
2422  61863.000   29.191426630   95.073553524   940.6612   5  11   2.7320   2.6408   7.4600  -1.3203   3.1996  -3.4251   0.00    0.0
2422  61878.000   29.191429865   95.073540485   937.3228   5  11   2.7327   2.6395   7.4599  -1.3215   3.1963  -3.4280   0.00    0.0
2422  61893.000   29.191472598   95.073465304   931.2592   5  14   1.7825   2.0467   5.4966  -0.5186   2.2934  -1.8761   0.00    0.0
2422  61908.000   29.191503613   95.073450793   920.0809   5  12   1.9925   2.2953   6.1901  -0.5305   1.9585  -2.3963   0.00    0.0
2422  61923.000   29.191516183   95.073467863   919.7308   5  12   2.1729   2.3242   6.2052   1.0348   2.0170  -2.3226   0.00    0.0
2422  61938.000   29.191510916   95.073466138   918.8114   5  12   2.1746   2.3230   6.2114   1.0315   2.0153  -2.3317   0.00    0.0
2422  61953.000   29.191508123   95.073467688   920.9776   5  11   2.2533   2.5885   6.7541   1.3136   2.6598  -1.9845   0.00    0.0
2422  61968.000   29.191495148   95.073445102   917.3332   5  12   2.1781   2.3204   6.2237   1.0249   2.0119  -2.3498   0.00    0.0
2422  61983.000   29.191487953   95.073429951   913.9591   5  12   2.1798   2.3191   6.2297   1.0216   2.0102  -2.3588   0.00    0.0
2422  61998.000   29.191542426   95.073554659   942.4523   5  12   2.1816   2.3178   6.2356   1.0183   2.0083  -2.3678   0.00    0.0
2422  62013.000   29.191560933   95.073598864   952.5790   5  12   2.1834   2.3165   6.2415   1.0150   2.0064  -2.3767   0.00    0.0
2422  62028.000   29.191560388   95.073606424   953.8022   5  12   2.1853   2.3152   6.2473   1.0117   2.0044  -2.3856   0.00    0.0
2422  62043.000   29.191497896   95.073486328   926.2118   5  12   2.1871   2.3139   6.2531   1.0084   2.0024  -2.3945   0.00    0.0
2422  62058.000   29.191485161   95.073477244   925.4567   5  12   2.1890   2.3126   6.2588   1.0051   2.0004  -2.4034   0.00    0.0
2422  62073.000   29.191486910   95.073493612   930.2763   5  12   2.1909   2.3113   6.2644   1.0018   1.9983  -2.4122   0.00    0.0
2422  62088.000   29.191475849   95.073476743   928.7858   5  12   2.4465   2.6031   7.4461  -1.4668   3.1422  -3.4643   0.00    0.0
2422  62103.000   29.191477476   95.073470786   927.1391   5  12   2.4476   2.6017   7.4442  -1.4669   3.1379  -3.4662   0.00    0.0
2422  62118.000   29.191479825   95.073466973   925.6024   5  12   2.4486   2.6003   7.4423  -1.4670   3.1335  -3.4680   0.00    0.0
2422  62133.000   29.191463298   95.073484241   930.0634   5  13   1.9723   2.1048   6.2805   0.2500   1.9260  -2.4988   0.00    0.0
2422  62148.000   29.191462707   95.073483896   930.5125   5  13   1.9747   2.1041   6.2860   0.2409   1.9251  -2.5062   0.00    0.0
2422  62163.000   29.191464544   95.073484679   929.8284   5  13   1.9772   2.1034   6.2913   0.2316   1.9242  -2.5135   0.00    0.0
2422  62178.000   29.191469341   95.073486845   928.0008   5  13   1.9796   2.1026   6.2966   0.2219   1.9231  -2.5208   0.00    0.0
2422  62193.000   29.191474467   95.073486958   926.4541   5  13   1.9820   2.1019   6.3019   0.2118   1.9221  -2.5280   0.00    0.0
2422  62208.000   29.191473677   95.073485778   926.7867   5  13   1.9845   2.1011   6.3070   0.2013   1.9209  -2.5352   0.00    0.0
2422  62223.000   29.191492838   95.073458686   920.5281   5  12   2.4559   2.5904   7.4254  -1.4670   3.1008  -3.4798   0.00    0.0
2422  62238.000   29.191483409   95.073468515   922.8612   5  13   1.9894   2.0996   6.3170   0.1786   1.9186  -2.5496   0.00    0.0
2422  62253.000   29.191485836   95.073463788   921.8017   5  13   1.9919   2.0989   6.3219   0.1662   1.9173  -2.5567   0.00    0.0
2422  62268.000   29.191488408   95.073459691   920.0488   5  13   1.9944   2.0981   6.3267   0.1529   1.9160  -2.5638   0.00    0.0
2422  62283.000   29.191486925   95.073458253   919.0209   5  13   1.9969   2.0973   6.3314   0.1384   1.9146  -2.5709   0.00    0.0
2422  62298.000   29.191485731   95.073459815   919.2449   5  13   1.9995   2.0966   6.3360   0.1223   1.9132  -2.5779   0.00    0.0
2422  62313.000   29.191490773   95.073462284   918.8870   5  13   2.0020   2.0958   6.3406   0.1038   1.9117  -2.5849   0.00    0.0
2422  62328.000   29.191497606   95.073463535   918.4334   5  13   2.0045   2.0950   6.3450   0.0815   1.9102  -2.5919   0.00    0.0
2422  62343.000   29.191504386   95.073466131   919.3213   5  13   2.0071   2.0942   6.3494   0.0502   1.9086  -2.5988   0.00    0.0
2422  62358.000   29.191510821   95.073463218   919.2707   5  13   2.0096   2.0934   6.3536  -0.0396   1.9070  -2.6057   0.00    0.0
2422  62373.000   29.191510788   95.073458516   917.8764   5  13   2.0122   2.0927   6.3578  -0.0750   1.9053  -2.6126   0.00    0.0
2422  62388.000   29.191509528   95.073450076   915.8499   5  13   2.0148   2.0919   6.3619  -0.0983   1.9036  -2.6194   0.00    0.0
2422  62403.000   29.191511043   95.073455329   916.7184   5  12   2.0307   2.2697   6.9371   0.4378   2.4596  -2.5011   0.00    0.0
2422  62418.000   29.191506774   95.073453769   917.2263   5  13   2.0200   2.0903   6.3699  -0.1328   1.9000  -2.6330   0.00    0.0
2422  62433.000   29.191498814   95.073447865   917.4131   5  13   2.0226   2.0895   6.3737  -0.1469   1.8981  -2.6397   0.00    0.0
2422  62448.000   29.191496335   95.073440888   917.3931   5  13   2.0252   2.0887   6.3774  -0.1597   1.8962  -2.6463   0.00    0.0
2422  62463.000   29.191491191   95.073431670   916.4593   5  13   2.0278   2.0879   6.3811  -0.1714   1.8942  -2.6530   0.00    0.0
2422  62478.000   29.191509897   95.073449641   915.9756   5  12   2.2480   2.2741   6.3857   0.9155   1.9204  -2.6379   0.00    0.0
2422  62493.000   29.191509726   95.073447346   916.5510   5  12   2.2503   2.2727   6.3891   0.9124   1.9168  -2.6457   0.00    0.0
2422  62508.000   29.191502574   95.073438448   916.9085   5  13   2.0357   2.0855   6.3915  -0.2021   1.8880  -2.6727   0.00    0.0
2422  62523.000   29.191504533   95.073443696   917.9860   5  13   2.0383   2.0846   6.3947  -0.2112   1.8858  -2.6792   0.00    0.0
2422  62538.000   29.191502597   95.073447517   919.5435   5  13   2.0410   2.0838   6.3979  -0.2199   1.8836  -2.6856   0.00    0.0
2422  62553.000   29.191501589   95.073453383   921.1535   5  13   2.0436   2.0830   6.4010  -0.2282   1.8813  -2.6920   0.00    0.0
2422  62568.000   29.191500878   95.073460686   923.3900   5  13   2.0463   2.0822   6.4040  -0.2361   1.8790  -2.6984   0.00    0.0
2422  62583.000   29.191496325   95.073463926   926.5009   5  13   2.0490   2.0814   6.4070  -0.2437   1.8767  -2.7047   0.00    0.0
2422  62598.000   29.191498752   95.073467043   925.5446   5  13   2.0517   2.0806   6.4098  -0.2510   1.8743  -2.7110   0.00    0.0
2422  62613.000   29.191501744   95.073467698   923.4750   5  13   2.0543   2.0797   6.4125  -0.2580   1.8718  -2.7172   0.00    0.0
2422  62628.000   29.191499156   95.073470623   924.1155   5  13   2.0570   2.0789   6.4152  -0.2648   1.8693  -2.7234   0.00    0.0
2422  62643.000   29.191496368   95.073476140   925.3863   5  14   1.9356   1.7797   5.0746   0.8258  -0.8548  -2.1642   0.00    0.0
2422  62658.000   29.191495801   95.073473264   924.5377   5  14   1.9370   1.7792   5.0780   0.8259  -0.8583  -2.1684   0.00    0.0
2422  62673.000   29.191492705   95.073480827   926.0156   5  13   2.0651   2.0764   6.4225  -0.2839   1.8615  -2.7417   0.00    0.0
2422  62688.000   29.191493841   95.073479277   924.0158   5  13   2.0678   2.0756   6.4248  -0.2898   1.8588  -2.7478   0.00    0.0
2422  62703.000   29.191490366   95.073473007   924.5961   5  12   2.2478   2.1093   7.1290   0.4951   1.5075  -3.2066   0.00    0.0
2422  62718.000   29.191495748   95.073468967   922.3130   5  13   2.0732   2.0740   6.4291  -0.3013   1.8533  -2.7597   0.00    0.0
2422  62733.000   29.191494504   95.073457229   921.9426   5  14   1.9442   1.7769   5.0943   0.8266  -0.8760  -2.1890   0.00    0.0
2422  62748.000   29.191497244   95.073456526   921.3829   5  14   1.9456   1.7765   5.0975   0.8267  -0.8795  -2.1930   0.00    0.0
2422  62763.000   29.191502036   95.073457243   920.3906   5  14   1.9470   1.7760   5.1006   0.8269  -0.8831  -2.1971   0.00    0.0
2422  62778.000   29.191504508   95.073458906   919.6712   5  14   1.9485   1.7756   5.1036   0.8270  -0.8866  -2.2011   0.00    0.0
2422  62793.000   29.191505692   95.073460985   920.2814   5  14   1.9499   1.7752   5.1066   0.8271  -0.8901  -2.2051   0.00    0.0
2422  62808.000   29.191508111   95.073453881   918.8356   5  13   2.0896   2.0690   6.4396  -0.3321   1.8357  -2.7944   0.00    0.0
2422  62823.000   29.191518355   95.073466154   918.7503   5  13   2.0923   2.0682   6.4411  -0.3367   1.8326  -2.8000   0.00    0.0
2422  62838.000   29.191513920   95.073459880   917.8454   5  13   2.0950   2.0673   6.4424  -0.3413   1.8295  -2.8056   0.00    0.0
2422  62853.000   29.191515617   95.073458152   916.6272   5  13   2.0978   2.0665   6.4437  -0.3458   1.8263  -2.8111   0.00    0.0
2422  62868.000   29.191515875   95.073455158   916.2544   5  13   2.1005   2.0657   6.4449  -0.3502   1.8231  -2.8166   0.00    0.0
2422  62883.000   29.191504934   95.073467052   922.3484   5  14   1.9587   1.7726   5.1239   0.8281  -0.9110  -2.2288   0.00    0.0
2422  62898.000   29.191493310   95.073459416   925.2471   5  13   2.1208   1.8465   5.7153   1.0515  -1.4648  -2.6515   0.00    0.0
2422  62913.000   29.191497788   95.073453197   924.2755   5  14   1.9616   1.7718   5.1293   0.8284  -0.9179  -2.2365   0.00    0.0
2422  62928.000   29.191498078   95.073445130   923.3761   5  14   1.9631   1.7714   5.1319   0.8286  -0.9214  -2.2403   0.00    0.0
2422  62943.000   29.191522291   95.073448563   922.9666   5  12   2.2863   2.1362   6.4733   0.5914   1.8905  -2.7570   0.00    0.0
2422  62958.000   29.191514488   95.073446181   923.6158   5  12   2.2890   2.1350   6.4733   0.5880   1.8859  -2.7634   0.00    0.0
2422  62973.000   29.191468525   95.073415469   920.8286   5  14   1.9676   1.7703   5.1396   0.8291  -0.9317  -2.2517   0.00    0.0
2422  62988.000   29.191451704   95.073412444   920.5360   5  13   2.0622   1.7749   5.1485   0.8773  -0.9533  -2.2901   0.00    0.0
2422  63003.000   29.191455213   95.073413958   920.7748   5  14   1.9705   1.7695   5.1445   0.8295  -0.9385  -2.2592   0.00    0.0
2422  63018.000   29.191458474   95.073413886   919.5184   5  14   1.9720   1.7691   5.1469   0.8297  -0.9419  -2.2630   0.00    0.0
2422  63033.000   29.191463017   95.073413232   918.4928   5  14   1.9735   1.7688   5.1492   0.8298  -0.9453  -2.2666   0.00    0.0
2422  63048.000   29.191462778   95.073410686   919.3081   5  14   1.9750   1.7684   5.1515   0.8300  -0.9487  -2.2703   0.00    0.0
2422  63063.000   29.191459458   95.073407996   920.0734   5  14   1.9765   1.7680   5.1537   0.8302  -0.9521  -2.2740   0.00    0.0
2422  63078.000   29.191462758   95.073408513   917.4057   5  14   1.9780   1.7677   5.1560   0.8304  -0.9555  -2.2776   0.00    0.0
2422  63093.000   29.191460126   95.073404030   912.1573   5  12   2.1432   2.2205   7.1180  -0.3050   2.3820  -2.8489   0.00    0.0
2422  63108.000   29.191469014   95.073417971   915.1328   5  11   2.1458   2.3046   8.6759  -0.2984   2.9563  -2.8425   0.00    0.0
2422  63123.000   29.191494946   95.073442287   919.3807   5  10   2.3456   2.4729   9.0039   0.8652   3.2958  -2.4340   0.00    0.0
2422  63138.000   29.191507308   95.073484487   963.5123   5  12   2.3221   2.1206   6.4671   0.5486   1.8273  -2.8371   0.00    0.0
2422  63153.000   29.191490974   95.073462201   927.8634   5  12   2.2052   1.8359   5.5327   1.0591  -0.9664  -2.0966   0.00    0.0
2422  63168.000   29.191496439   95.073456122   926.4313   5  12   2.2061   1.8355   5.5378   1.0590  -0.9717  -2.1016   0.00    0.0
2422  63183.000   29.191499861   95.073454186   924.3934   5  12   2.2071   1.8352   5.5428   1.0590  -0.9770  -2.1067   0.00    0.0
2422  63198.000   29.191500894   95.073452146   922.3672   5  12   2.2080   1.8348   5.5478   1.0589  -0.9824  -2.1117   0.00    0.0
2422  63213.000   29.191478332   95.073437472   921.5189   5  13   2.0010   1.7692   5.5299   0.8171  -1.1043  -2.2252   0.00    0.0
2422  63228.000   29.191477874   95.073431635   917.4151   5  12   2.1667   2.0545   7.2085  -0.4440   1.8963  -2.9656   0.00    0.0
2422  63243.000   29.191467513   95.073440091   920.7485   5  12   2.0539   1.8021   5.8751   0.9083  -0.7499  -2.0262   0.00    0.0
2422  63258.000   29.191466431   95.073440060   918.7753   5  12   2.0546   1.8017   5.8828   0.9079  -0.7554  -2.0309   0.00    0.0
2422  63273.000   29.191474787   95.073478257   936.1621   5  12   2.1752   2.0520   7.2208  -0.4541   1.8848  -2.9857   0.00    0.0
2422  63288.000   29.191473013   95.073481230   937.3360   5  12   2.1780   2.0511   7.2246  -0.4573   1.8808  -2.9922   0.00    0.0
2422  63303.000   29.191474280   95.073467427   929.1496   5  11   2.3851   2.2088   7.2289   0.7625   1.8581  -3.0124   0.00    0.0
2422  63318.000   29.191470953   95.073426872   913.5395   5  10   2.3985   2.5271   8.9049   0.9255   3.1341  -2.8179   0.00    0.0
2422  63333.000   29.191492212   95.073507834   945.9249   5  11   2.3904   2.2060   7.2362   0.7566   1.8465  -3.0278   0.00    0.0
2422  63348.000   29.191506640   95.073515330   944.4152   5  11   2.3930   2.2046   7.2396   0.7537   1.8405  -3.0354   0.00    0.0
2422  63363.000   29.191473945   95.073488992   945.3769   5  12   2.1922   2.0471   7.2421  -0.4727   1.8602  -3.0244   0.00    0.0
2422  63378.000   29.191466644   95.073491886   949.8064   5  12   2.1950   2.0463   7.2452  -0.4756   1.8559  -3.0307   0.00    0.0
2422  63393.000   29.191460682   95.073433066   921.3927   5  12   2.0617   1.7979   5.9501   0.9050  -0.8045  -2.0734   0.00    0.0
2422  63408.000   29.191496277   95.073474547   945.3341   5  13   2.0172   1.7662   5.5926   0.8214  -1.1585  -2.2804   0.00    0.0
2422  63423.000   29.191496526   95.073474210   945.4195   5  13   2.0185   1.7660   5.5971   0.8218  -1.1627  -2.2845   0.00    0.0
2422  63438.000   29.191498296   95.073473374   943.7008   5  13   2.0198   1.7658   5.6015   0.8221  -1.1668  -2.2886   0.00    0.0
2422  63453.000   29.191496974   95.073469948   940.0711   5  13   2.0211   1.7656   5.6059   0.8225  -1.1709  -2.2928   0.00    0.0
2422  63468.000   29.191476993   95.073486595   946.7856   5  12   2.2122   2.0415   7.2612  -0.4919   1.8290  -3.0673   0.00    0.0
2422  63483.000   29.191477888   95.073476997   942.4049   5  12   2.2150   2.0407   7.2634  -0.4944   1.8243  -3.0732   0.00    0.0
2422  63498.000   29.191480266   95.073472114   937.7635   5  12   2.2179   2.0399   7.2655  -0.4969   1.8196  -3.0791   0.00    0.0
2422  63513.000   29.191462473   95.073483482   942.6325   5  13   2.0262   1.7649   5.6228   0.8240  -1.1871  -2.3091   0.00    0.0
2422  63528.000   29.191450273   95.073475098   943.3677   5  12   2.2115   1.8438   6.1090   1.0729  -1.6399  -2.7296   0.00    0.0
2422  63543.000   29.191563308   95.073545952   907.4894   5  13   2.0288   1.7646   5.6310   0.8247  -1.1952  -2.3171   0.00    0.0
2422  63558.000   29.191602560   95.073517209   888.7217   5  13   2.0301   1.7644   5.6350   0.8251  -1.1992  -2.3211   0.00    0.0
2422  63573.000   29.191615415   95.073523955   885.8395   5  13   2.0314   1.7643   5.6389   0.8254  -1.2032  -2.3251   0.00    0.0
2422  63588.000   29.191536091   95.073467299   910.8759   5  13   2.0327   1.7641   5.6428   0.8258  -1.2072  -2.3291   0.00    0.0
2422  63603.000   29.191505923   95.073445111   922.3084   5  11   2.3480   1.8515   6.1168   1.1368  -1.6381  -2.7151   0.00    0.0
2422  63618.000   29.191564063   95.073483548   909.9799   5  13   2.0353   1.7638   5.6503   0.8266  -1.2152  -2.3370   0.00    0.0
2422  63633.000   29.191522936   95.073458366   923.3964   5  12   2.2235   1.8429   6.1146   1.0774  -1.6525  -2.7490   0.00    0.0
2422  63648.000   29.191600221   95.073511471   896.8580   5  12   2.0761   1.7918   6.0649   0.8999  -0.8965  -2.1524   0.00    0.0
2422  63663.000   29.191505696   95.073450917   918.3244   5  11   2.2792   1.8796   6.4255   1.1590  -1.4179  -2.5744   0.00    0.0
2422  63678.000   29.191496559   95.073445220   920.2871   5  12   2.0778   1.7911   6.0772   0.8994  -0.9072  -2.1615   0.00    0.0
2422  63693.000   29.191493666   95.073447314   919.3539   5  12   2.0787   1.7908   6.0833   0.8991  -0.9125  -2.1661   0.00    0.0
2422  63708.000   29.191498022   95.073458763   917.6698   5  12   2.0796   1.7905   6.0893   0.8988  -0.9179  -2.1706   0.00    0.0
2422  63723.000   29.191503762   95.073440821   910.5784   5  11   2.2642   2.2459   9.0214  -0.6356   2.8578  -3.2669   0.00    0.0
2422  63738.000   29.191504748   95.073437393   912.4442   5  12   2.2634   2.0279   7.2823  -0.5313   1.7369  -3.1655   0.00    0.0
2422  63753.000   29.191505097   95.073437747   914.3867   5  12   2.2662   2.0272   7.2823  -0.5331   1.7313  -3.1705   0.00    0.0
2422  63768.000   29.191507812   95.073444551   918.6128   5  12   2.2690   2.0265   7.2822  -0.5350   1.7257  -3.1753   0.00    0.0
2422  63783.000   29.191498642   95.073446833   915.8715   5  11   2.4704   2.1670   7.2893   0.6771   1.6450  -3.2298   0.00    0.0
2422  63798.000   29.191442299   95.073410738   922.9776   5  13   2.0512   1.7625   5.6909   0.8311  -1.2617  -2.3826   0.00    0.0
2422  63813.000   29.191441279   95.073407961   921.4622   5  13   2.0525   1.7624   5.6939   0.8315  -1.2655  -2.3863   0.00    0.0
2422  63828.000   29.191440035   95.073409172   918.8696   5  12   2.0870   1.7882   6.1346   0.8968  -0.9602  -2.2064   0.00    0.0
2422  63843.000   29.191486434   95.073449913   948.3513   5  13   2.0552   1.7623   5.6997   0.8323  -1.2730  -2.3935   0.00    0.0
2422  63858.000   29.191427818   95.073536439   989.2064   5  12   2.2859   2.0225   7.2789  -0.5451   1.6910  -3.2033   0.00    0.0
2422  63873.000   29.191482562   95.073601957  1017.9195   5  12   2.4790   2.1598   6.5335   0.6578   1.6366  -3.1676   0.00    0.0
2422  63888.000   29.191526592   95.073474398   912.4067   5  14   2.0580   1.7397   5.2765   0.8452  -1.0197  -2.4359   0.00    0.0
2422  63903.000   29.191496896   95.073457008   917.2080   5  14   2.0593   1.7395   5.2813   0.8456  -1.0238  -2.4395   0.00    0.0
2422  63918.000   29.191488385   95.073452192   918.7847   5  12   2.4871   2.1562   6.5492   0.6494   1.6244  -3.1860   0.00    0.0
2422  63933.000   29.191471883   95.073456295   922.1470   5  12   2.3668   1.9001   5.3189   1.2493  -1.1324  -2.4756   0.00    0.0
2422  63948.000   29.191471962   95.073437149   924.1094   5  14   2.0633   1.7388   5.2956   0.8471  -1.0360  -2.4501   0.00    0.0
2422  63963.000   29.191469653   95.073430649   922.7096   5  14   2.0646   1.7386   5.3003   0.8476  -1.0401  -2.4536   0.00    0.0
2422  63978.000   29.191468471   95.073432381   921.3979   5  14   2.0659   1.7384   5.3050   0.8481  -1.0442  -2.4571   0.00    0.0
2422  63993.000   29.191465431   95.073433855   921.0027   5  14   2.0672   1.7382   5.3096   0.8486  -1.0482  -2.4606   0.00    0.0
2422  64008.000   29.191456223   95.073430215   921.9347   5  13   2.0917   1.7746   5.5653   0.9123  -0.7173  -2.3577   0.00    0.0
2422  64023.000   29.191456693   95.073432652   923.0752   5  13   2.0927   1.7742   5.5720   0.9122  -0.7223  -2.3615   0.00    0.0
2422  64038.000   29.191459673   95.073442887   924.5213   5  12   2.3168   2.1854   7.4785  -0.6591   2.4143  -3.2459   0.00    0.0
2422  64053.000   29.191441716   95.073488164   933.7989   5  12   2.5672   2.4649   6.9335  -1.3795   2.4298  -3.5405   0.00    0.0
2422  64068.000   29.191454485   95.073466901   929.2127   5  13   2.3190   2.0128   6.5843  -0.5751   1.6690  -3.1856   0.00    0.0
2422  64083.000   29.191480298   95.073476615   927.9756   5  11   2.5417   2.0874   6.6864   0.4875   1.7896  -3.0809   0.00    0.0
2422  64098.000   29.191514970   95.073459500   923.8890   5  13   2.2642   1.8012   5.3458   1.0756  -1.0233  -2.4415   0.00    0.0
2422  64113.000   29.191512006   95.073460521   927.4184   5  13   2.2653   1.8009   5.3500   1.0757  -1.0279  -2.4451   0.00    0.0
2422  64128.000   29.191492795   95.073444425   927.4443   5  14   2.0791   1.7365   5.3491   0.8531  -1.0846  -2.4910   0.00    0.0
2422  64143.000   29.191475373   95.073437296   923.8537   5  14   2.0804   1.7363   5.3533   0.8537  -1.0887  -2.4943   0.00    0.0
2422  64158.000   29.191472128   95.073459854   923.4298   5  13   2.1264   1.8919   5.3576   0.6353  -1.1077  -2.4938   0.00    0.0
2422  64173.000   29.191480947   95.073462350   921.6548   5  13   2.1269   1.8923   5.3618   0.6378  -1.1146  -2.4963   0.00    0.0
2422  64188.000   29.191495339   95.073467991   919.0011   5  13   2.1274   1.8927   5.3659   0.6402  -1.1215  -2.4988   0.00    0.0
2422  64203.000   29.191480545   95.073513970   918.1645   5  14   2.0856   1.7357   5.3695   0.8557  -1.1047  -2.5073   0.00    0.0
2422  64218.000   29.191445437   95.073505364   914.8025   5  13   2.1431   1.7386   5.4139   0.8850  -1.0777  -2.4455   0.00    0.0
2422  64233.000   29.191487030   95.073509420   923.4392   5  14   2.0882   1.7354   5.3774   0.8568  -1.1127  -2.5136   0.00    0.0
2422  64248.000   29.191486904   95.073506424   924.6777   5  14   2.0895   1.7352   5.3812   0.8573  -1.1167  -2.5167   0.00    0.0
2422  64263.000   29.191387018   95.073490771   956.9920   5  12   2.5480   2.1301   6.6431   0.5903   1.5152  -3.3133   0.00    0.0
2422  64278.000   29.191447254   95.073510972   943.8631   5  11   2.7748   2.2116   6.9776   1.0000   1.0036  -3.6515   0.00    0.0
2422  64293.000   29.191430804   95.073474818   932.8829   5  11   2.5710   2.0742   6.7733   0.4270   1.7497  -3.1521   0.00    0.0
2422  64308.000   29.191451889   95.073481653   938.1361   5  12   2.5404   2.0501   6.6361   0.2285   1.6195  -3.2455   0.00    0.0
2422  64323.000   29.191479403   95.073452950   929.9424   5  13   2.2795   1.7971   5.4040   1.0771  -1.0909  -2.4935   0.00    0.0
2422  64338.000   29.191482885   95.073457338   928.5266   5  13   2.2805   1.7968   5.4075   1.0772  -1.0953  -2.4968   0.00    0.0
2422  64353.000   29.191459115   95.073447519   936.2305   5  11   2.5493   1.9486   5.9614   1.4137  -1.1979  -2.6813   0.00    0.0
2422  64368.000   29.191520568   95.073495028   927.2338   5  12   2.3201   1.8449   5.7380   1.1557  -0.6483  -2.3402   0.00    0.0
2422  64383.000   29.191511943   95.073531985   934.2482   5  11   2.5698   2.3170   7.6450   0.4994   2.3775  -3.3977   0.00    0.0
2422  64398.000   29.191545608   95.073538462   949.8326   5  13   2.3099   1.8786   5.4344   1.1980  -1.2850  -2.6274   0.00    0.0
2422  64413.000   29.191534016   95.073538071   951.7704   5  13   2.3107   1.8783   5.4378   1.1978  -1.2888  -2.6304   0.00    0.0
2422  64428.000   29.191458656   95.073604618   978.8150   5  12   2.5759   2.1187   6.6705   0.5653   1.4539  -3.3647   0.00    0.0
2422  64443.000   29.191457746   95.073581743   971.3270   5  12   2.5784   2.1177   6.6725   0.5631   1.4480  -3.3690   0.00    0.0
2422  64458.000   29.191460802   95.073485775   935.7004   5  12   2.3439   1.9260   5.7495   1.2636  -0.9485  -2.5038   0.00    0.0
2422  64473.000   29.191459848   95.073472035   932.9978   5  12   2.3442   1.9254   5.7548   1.2628  -0.9534  -2.5072   0.00    0.0
2422  64488.000   29.191462035   95.073465282   932.5240   5  12   2.3446   1.9247   5.7600   1.2620  -0.9583  -2.5107   0.00    0.0
2422  64503.000   29.191452810   95.073425779   926.3499   5  12   2.2594   1.7692   6.1720   0.8526  -0.6955  -2.7974   0.00    0.0
2422  64518.000   29.191460210   95.073422074   923.8497   5  12   2.2608   1.7689   6.1779   0.8529  -0.7028  -2.8012   0.00    0.0
2422  64533.000   29.191422409   95.073394062   930.4638   5  11   2.5540   1.8531   6.5557   1.1763  -1.3071  -3.2325   0.00    0.0
2422  64548.000   29.191519057   95.073439234   908.5322   5  12   2.2636   1.7683   6.1895   0.8534  -0.7172  -2.8088   0.00    0.0
2422  64563.000   29.191495491   95.073429316   912.6355   5  12   2.2650   1.7680   6.1952   0.8537  -0.7244  -2.8126   0.00    0.0
2422  64578.000   29.191476812   95.073422106   916.0448   5  12   2.2663   1.7677   6.2008   0.8540  -0.7316  -2.8163   0.00    0.0
2422  64593.000   29.191467738   95.073435319   923.2402   5   8   4.5116   2.6546  11.9456   1.8528  -1.0109  -6.7236   0.00    0.0
2422  64608.000   29.191487890   95.073513672   934.5089   5  11   2.4571   1.9272   6.2124   1.2063  -0.7880  -2.8377   0.00    0.0
2422  64623.000   29.191488128   95.073439947   925.1072   5   8   4.5142   2.6518  11.9342   1.8513  -1.0293  -6.7234   0.00    0.0
2422  64638.000   29.191425995   95.073411143   945.3196   5  11   2.4587   1.9259   6.2232   1.2050  -0.8023  -2.8452   0.00    0.0
2422  64653.000   29.191472090   95.073443635   943.1009   5  11   2.4594   1.9252   6.2284   1.2044  -0.8095  -2.8490   0.00    0.0
2422  64668.000   29.191458768   95.073419403   916.4851   5   8   3.4386   2.5513  10.7692   0.6750   2.9433  -5.0740   0.00    0.0
2422  64683.000   29.191428666   95.073445004   933.8371   5   9   3.8625   2.4304   8.7072   2.4225  -3.1036  -5.1114   0.00    0.0
2422  64698.000   29.191422794   95.073435414   932.9213   5  11   2.4618   1.9233   6.2437   1.2026  -0.8307  -2.8600   0.00    0.0
2422  64713.000   29.191492734   95.073458148   920.1480   5   9   3.3820   2.3173  10.2108  -0.4811   2.5238  -5.1034   0.00    0.0
2422  64728.000   29.191489109   95.073461870   922.2465   5  10   2.8159   1.9537   7.2399   1.4523  -1.6231  -3.5441   0.00    0.0
2422  64743.000   29.191430929   95.073501640   945.6312   5  10   2.8179   1.9537   7.2480   1.4533  -1.6299  -3.5499   0.00    0.0
2422  64758.000   29.191548646   95.073496983   924.3263   5  10   3.2897   2.2387  10.2022  -0.8511   2.4044  -5.1979   0.00    0.0
2422  64773.000   29.191465862   95.073459798   924.1095   5  11   2.6702   1.8781   7.2413   1.2751  -1.7346  -3.6342   0.00    0.0
2422  64788.000   29.191485288   95.073447561   915.4028   5  10   3.3008   2.2361  10.2168  -0.8487   2.3885  -5.2147   0.00    0.0
2422  64803.000   29.191481139   95.073439381   912.3833   5   9   3.3064   2.3388  10.9928  -0.8407   2.9073  -5.2166   0.00    0.0
