% program   : rnx2rtkp ver.EX 2.5.0
% inp file  : D:\code\rtklib_java\temp_rinex\ROVER.obs
% inp file  : D:\code\rtklib_java\temp_rinex\ROVER.nav
% obs start : 2026/06/07 17:00:18.0 GPST (week2422  61218.0s)
% obs end   : 2026/06/07 18:00:03.0 GPST (week2422  64803.0s)
%
% (x/y/z-ecef=WGS84,Q=1:fix,2:float,3:sbas,4:dgps,5:single,6:ppp,ns=# of satellites)
%  GPST              x-ecef(m)      y-ecef(m)      z-ecef(m)   Q  ns   sdx(m)   sdy(m)   sdz(m)  sdxy(m)  sdyz(m)  sdzx(m) age(s)  ratio
2422  61218.000   -492866.4704   5551486.4792   3092899.1779   5  11   2.4276   6.3644   3.5468  -2.4674   4.1822  -2.0832   0.00    0.0
2422  61233.000   -492870.2468   5551494.6904   3092903.7538   5  11   3.0939   8.3651   3.4792  -4.0971   4.8726  -2.4483   0.00    0.0
2422  61248.000   -492873.4400   5551502.8470   3092907.4995   5  11   3.0923   8.3610   3.4742  -4.0929   4.8670  -2.4436   0.00    0.0
2422  61263.000   -492887.7440   5551528.4400   3092913.9128   5  10   4.3383   9.4889   3.5267  -5.5137   5.1463  -2.8072   0.00    0.0
2422  61278.000   -492879.8285   5551520.3022   3092915.3980   5  11   3.0890   8.3526   3.4640  -4.0843   4.8554  -2.4339   0.00    0.0
2422  61293.000   -492863.4111   5551478.3660   3092892.5870   5  10   3.1403   8.4736   3.5532  -3.9764   4.7261  -2.5233   0.00    0.0
2422  61308.000   -492864.4053   5551480.7016   3092895.0405   5  10   3.1386   8.4692   3.5476  -3.9717   4.7202  -2.5183   0.00    0.0
2422  61323.000   -492863.4328   5551478.5449   3092895.9284   5  11   2.5154   6.3659   3.3629  -2.2978   4.0026  -2.0573   0.00    0.0
2422  61338.000   -492863.9479   5551479.2407   3092897.9056   5  11   2.5149   6.3731   3.3593  -2.2984   4.0026  -2.0549   0.00    0.0
2422  61353.000   -492863.5102   5551478.6535   3092897.1255   5  11   2.5143   6.3804   3.3557  -2.2989   4.0024  -2.0524   0.00    0.0
2422  61368.000   -492863.8393   5551479.4044   3092897.1305   5  11   2.5138   6.3875   3.3520  -2.2994   4.0022  -2.0499   0.00    0.0
2422  61383.000   -492864.5891   5551482.2858   3092897.4984   5  11   2.5132   6.3946   3.3482  -2.2998   4.0020  -2.0474   0.00    0.0
2422  61398.000   -492867.4625   5551491.5198   3092899.2431   5  10   3.1281   8.4400   3.5130  -3.9420   4.6826  -2.4869   0.00    0.0
2422  61413.000   -492867.8546   5551494.4256   3092899.8855   5  10   3.1263   8.4347   3.5071  -3.9368   4.6760  -2.4815   0.00    0.0
2422  61428.000   -492868.0582   5551496.1186   3092899.9321   5  10   3.1245   8.4292   3.5011  -3.9315   4.6693  -2.4760   0.00    0.0
2422  61443.000   -492868.3011   5551496.4686   3092900.0328   5  10   3.1226   8.4237   3.4951  -3.9261   4.6625  -2.4705   0.00    0.0
2422  61458.000   -492866.7883   5551495.9633   3092899.1483   5  12   2.3033   6.4220   3.1626  -2.3637   4.0374  -1.7610   0.00    0.0
2422  61473.000   -492866.7706   5551508.3596   3092904.2366   5  12   2.2863   5.3628   2.8900  -2.5822   3.3856  -1.8580   0.00    0.0
2422  61488.000   -492869.9595   5551508.9271   3092910.3368   5  11   2.8089   5.6001   4.1494  -3.0995   4.1363  -2.8793   0.00    0.0
2422  61503.000   -492870.2782   5551511.7051   3092912.2374   5  11   2.8056   5.6016   4.1394  -3.0971   4.1310  -2.8720   0.00    0.0
2422  61518.000   -492874.9375   5551497.2099   3092912.4404   5  10   2.9743   6.4864   4.1326  -2.5137   4.1894  -2.8363   0.00    0.0
2422  61533.000   -492874.0938   5551495.3116   3092911.1086   5  10   2.9713   6.4913   4.1225  -2.5088   4.1836  -2.8291   0.00    0.0
2422  61548.000   -492872.6162   5551492.0828   3092908.6432   5  10   2.9683   6.4962   4.1124  -2.5038   4.1778  -2.8219   0.00    0.0
2422  61563.000   -492871.3177   5551490.8659   3092906.9823   5  10   2.9654   6.5011   4.1023  -2.4988   4.1719  -2.8147   0.00    0.0
2422  61578.000   -492866.7124   5551490.8269   3092901.0643   5  11   2.4166   6.5057   3.4444  -2.4765   4.1527  -2.0239   0.00    0.0
2422  61593.000   -492864.2781   5551489.9482   3092896.4753   5  12   2.3022   6.4756   3.1363  -2.3745   4.0343  -1.7464   0.00    0.0
2422  61608.000   -492864.9771   5551491.1565   3092897.4844   5  12   2.3021   6.4811   3.1331  -2.3755   4.0335  -1.7446   0.00    0.0
2422  61623.000   -492864.6256   5551491.2872   3092896.4593   5  12   2.3019   6.4865   3.1300  -2.3764   4.0327  -1.7428   0.00    0.0
2422  61638.000   -492865.1713   5551492.2131   3092896.9129   5  12   2.3018   6.4919   3.1267  -2.3773   4.0318  -1.7409   0.00    0.0
2422  61653.000   -492863.6515   5551510.9891   3092903.2613   5  13   2.2844   5.3244   2.8575  -2.5884   3.3988  -1.8379   0.00    0.0
2422  61668.000   -492863.5051   5551490.4454   3092895.8650   5  12   2.3014   6.5023   3.1201  -2.3789   4.0298  -1.7370   0.00    0.0
2422  61683.000   -492862.7848   5551487.1577   3092894.7905   5  11   2.4998   6.5194   3.2648  -2.2967   3.9805  -1.9898   0.00    0.0
2422  61698.000   -492865.7353   5551500.7228   3092894.7218   5  10   3.0474   8.1974   3.4989  -3.9137   4.5897  -2.3456   0.00    0.0
2422  61713.000   -492865.4165   5551500.0545   3092893.4235   5  10   3.0452   8.1900   3.4919  -3.9073   4.5809  -2.3390   0.00    0.0
2422  61728.000   -492863.3871   5551489.8782   3092892.7997   5  11   2.4102   6.5500   3.3940  -2.4711   4.1265  -1.9928   0.00    0.0
2422  61743.000   -492867.9002   5551488.2886   3092898.2283   5  10   2.9291   6.5549   3.9798  -2.4341   4.0964  -2.7266   0.00    0.0
2422  61758.000   -492866.8844   5551488.4573   3092897.3106   5  10   2.9261   6.5590   3.9696  -2.4284   4.0897  -2.7192   0.00    0.0
2422  61773.000   -492866.3571   5551487.7767   3092896.8404   5  10   2.9231   6.5631   3.9593  -2.4226   4.0830  -2.7117   0.00    0.0
2422  61788.000   -492866.6712   5551487.8961   3092896.7781   5  10   2.9200   6.5671   3.9491  -2.4168   4.0762  -2.7043   0.00    0.0
2422  61803.000   -492867.5297   5551489.0040   3092897.8133   5  10   2.9170   6.5711   3.9388  -2.4109   4.0694  -2.6968   0.00    0.0
2422  61818.000   -492868.3087   5551488.8655   3092898.3075   5   9   2.9412   6.5781   4.1644  -2.3882   4.0967  -2.5847   0.00    0.0
2422  61833.000   -492870.8430   5551488.0868   3092891.8783   5  10   2.9109   6.5789   3.9183  -2.3991   4.0556  -2.6819   0.00    0.0
2422  61848.000   -492869.1515   5551493.7348   3092894.8995   5  12   2.4044   5.8230   2.9526  -2.4640   3.4579  -1.9661   0.00    0.0
2422  61863.000   -492875.9266   5551505.6963   3092899.7688   5  11   3.0112   7.2170   2.9894  -3.7138   3.7422  -2.1744   0.00    0.0
2422  61878.000   -492874.3900   5551502.7313   3092898.4537   5  11   3.0096   7.2183   2.9869  -3.7119   3.7407  -2.1712   0.00    0.0
2422  61893.000   -492866.4330   5551495.8038   3092899.6318   5  14   2.2798   5.0764   2.5712  -2.5766   3.0696  -1.7822   0.00    0.0
2422  61908.000   -492864.0158   5551484.5380   3092897.1813   5  12   2.4730   5.8472   2.6927  -2.4604   3.3801  -1.6266   0.00    0.0
2422  61923.000   -492865.5826   5551483.4098   3092898.2270   5  12   2.4835   5.8563   2.8572  -2.3653   3.3545  -1.9823   0.00    0.0
2422  61938.000   -492865.3696   5551482.9088   3092897.2689   5  12   2.4824   5.8645   2.8551  -2.3667   3.3558  -1.9801   0.00    0.0
2422  61953.000   -492865.7004   5551484.9295   3092898.0550   5  11   2.8099   6.1752   3.3716  -2.8504   3.8339  -2.5063   0.00    0.0
2422  61968.000   -492863.2927   5551482.6535   3092895.0219   5  12   2.4801   5.8808   2.8509  -2.3694   3.3581  -1.9758   0.00    0.0
2422  61983.000   -492861.5986   5551480.2373   3092892.6800   5  12   2.4790   5.8889   2.8487  -2.3706   3.3592  -1.9736   0.00    0.0
2422  61998.000   -492875.6211   5551501.0077   3092911.8486   5  12   2.4778   5.8969   2.8465  -2.3718   3.3602  -1.9713   0.00    0.0
2422  62013.000   -492880.5975   5551508.4367   3092918.5788   5  12   2.4766   5.9048   2.8443  -2.3730   3.3612  -1.9690   0.00    0.0
2422  62028.000   -492881.4271   5551509.4647   3092919.1226   5  12   2.4755   5.9127   2.8421  -2.3741   3.3621  -1.9667   0.00    0.0
2422  62043.000   -492867.9594   5551489.8714   3092899.6183   5  12   2.4743   5.9205   2.8398  -2.3751   3.3629  -1.9643   0.00    0.0
2422  62058.000   -492867.0818   5551489.9788   3092898.0175   5  12   2.4730   5.9283   2.8375  -2.3761   3.3637  -1.9619   0.00    0.0
2422  62073.000   -492869.0315   5551493.9349   3092900.5374   5  12   2.4718   5.9360   2.8351  -2.3771   3.3644  -1.9595   0.00    0.0
2422  62088.000   -492867.3349   5551493.3796   3092898.7400   5  12   2.9746   7.1991   2.7442  -3.6971   3.8013  -2.0571   0.00    0.0
2422  62103.000   -492866.6228   5551491.9113   3092898.0944   5  12   2.9727   7.1988   2.7417  -3.6940   3.7987  -2.0534   0.00    0.0
2422  62118.000   -492866.1235   5551490.4813   3092897.5722   5  12   2.9707   7.1984   2.7392  -3.6907   3.7961  -2.0496   0.00    0.0
2422  62133.000   -492868.2200   5551495.1019   3092898.1485   5  13   2.2901   5.9573   2.6515  -2.4424   3.4138  -1.7046   0.00    0.0
2422  62148.000   -492868.2241   5551495.5273   3092898.3104   5  13   2.2896   5.9645   2.6500  -2.4439   3.4147  -1.7032   0.00    0.0
2422  62163.000   -492868.2384   5551494.8267   3092898.1545   5  13   2.2890   5.9716   2.6486  -2.4452   3.4156  -1.7016   0.00    0.0
2422  62178.000   -492868.2842   5551492.9605   3092897.7274   5  13   2.2884   5.9786   2.6470  -2.4465   3.4164  -1.7001   0.00    0.0
2422  62193.000   -492868.1513   5551491.3385   3092897.4691   5  13   2.2878   5.9856   2.6455  -2.4478   3.4172  -1.6985   0.00    0.0
2422  62208.000   -492868.0663   5551491.6805   3092897.5549   5  13   2.2872   5.9924   2.6439  -2.4490   3.4179  -1.6969   0.00    0.0
2422  62223.000   -492864.8666   5551485.4393   3092896.3567   5  12   2.9567   7.1927   2.7205  -3.6662   3.7755  -2.0217   0.00    0.0
2422  62238.000   -492866.0441   5551487.8913   3092896.5821   5  13   2.2860   6.0060   2.6407  -2.4513   3.4191  -1.6935   0.00    0.0
2422  62253.000   -492865.4927   5551486.8799   3092896.3002   5  13   2.2854   6.0126   2.6390  -2.4524   3.4196  -1.6918   0.00    0.0
2422  62268.000   -492864.9481   5551485.2524   3092895.6942   5  13   2.2847   6.0192   2.6373  -2.4534   3.4200  -1.6901   0.00    0.0
2422  62283.000   -492864.7365   5551484.4508   3092895.0493   5  13   2.2840   6.0258   2.6356  -2.4543   3.4204  -1.6883   0.00    0.0
2422  62298.000   -492864.9109   5551484.6965   3092895.0431   5  13   2.2834   6.0322   2.6339  -2.4553   3.4207  -1.6865   0.00    0.0
2422  62313.000   -492865.0984   5551484.0924   3092895.3564   5  13   2.2827   6.0386   2.6321  -2.4561   3.4210  -1.6846   0.00    0.0
2422  62328.000   -492865.1519   5551483.3192   3092895.7964   5  13   2.2820   6.0449   2.6303  -2.4569   3.4212  -1.6827   0.00    0.0
2422  62343.000   -492865.4396   5551483.7039   3092896.8857   5  13   2.2813   6.0511   2.6284  -2.4577   3.4213  -1.6808   0.00    0.0
2422  62358.000   -492865.1226   5551483.3383   3092897.4837   5  13   2.2806   6.0572   2.6266  -2.4584   3.4214  -1.6788   0.00    0.0
2422  62373.000   -492864.5596   5551482.1681   3092896.8005   5  13   2.2798   6.0633   2.6247  -2.4590   3.4214  -1.6769   0.00    0.0
2422  62388.000   -492863.5913   5551480.5464   3092895.6901   5  13   2.2791   6.0693   2.6228  -2.4597   3.4214  -1.6748   0.00    0.0
2422  62403.000   -492864.1602   5551481.1748   3092896.2603   5  12   2.5222   6.4633   3.0436  -2.9050   3.8883  -2.1148   0.00    0.0
2422  62418.000   -492864.0687   5551481.8598   3092896.0949   5  13   2.2776   6.0810   2.6188  -2.4607   3.4211  -1.6707   0.00    0.0
2422  62433.000   -492863.5490   5551482.5018   3092895.4158   5  13   2.2768   6.0868   2.6168  -2.4612   3.4208  -1.6686   0.00    0.0
2422  62448.000   -492862.8833   5551482.6779   3092895.1661   5  13   2.2760   6.0925   2.6148  -2.4616   3.4205  -1.6664   0.00    0.0
2422  62463.000   -492861.9427   5551482.2222   3092894.2128   5  13   2.2752   6.0981   2.6127  -2.4619   3.4202  -1.6642   0.00    0.0
2422  62478.000   -492863.5572   5551480.6397   3092895.7871   5  12   2.4341   6.1198   2.7615  -2.3826   3.3606  -1.8823   0.00    0.0
2422  62493.000   -492863.3800   5551481.1689   3092896.0512   5  12   2.4326   6.1256   2.7584  -2.3820   3.3596  -1.8790   0.00    0.0
2422  62508.000   -492862.5797   5551481.9415   3092895.5335   5  13   2.2728   6.1144   2.6063  -2.4627   3.4187  -1.6575   0.00    0.0
2422  62523.000   -492863.1620   5551482.7278   3092896.2486   5  13   2.2720   6.1196   2.6041  -2.4628   3.4181  -1.6551   0.00    0.0
2422  62538.000   -492863.6617   5551484.1536   3092896.8209   5  13   2.2711   6.1248   2.6019  -2.4629   3.4174  -1.6528   0.00    0.0
2422  62553.000   -492864.3592   5551485.5574   3092897.5085   5  13   2.2703   6.1299   2.5997  -2.4629   3.4166  -1.6504   0.00    0.0
2422  62568.000   -492865.2429   5551487.4777   3092898.5305   5  13   2.2694   6.1350   2.5974  -2.4629   3.4158  -1.6480   0.00    0.0
2422  62583.000   -492865.8187   5551490.4001   3092899.6072   5  13   2.2685   6.1399   2.5952  -2.4629   3.4149  -1.6455   0.00    0.0
2422  62598.000   -492866.0353   5551489.4111   3092899.3757   5  13   2.2676   6.1448   2.5929  -2.4628   3.4140  -1.6431   0.00    0.0
2422  62613.000   -492865.9247   5551487.4447   3092898.6558   5  13   2.2668   6.1496   2.5905  -2.4626   3.4130  -1.6405   0.00    0.0
2422  62628.000   -492866.2700   5551488.1158   3092898.7178   5  13   2.2659   6.1543   2.5881  -2.4624   3.4119  -1.6380   0.00    0.0
2422  62643.000   -492866.9159   5551489.3236   3092899.0677   5  14   1.7785   4.9507   2.2344  -0.9614   2.6202  -0.9216   0.00    0.0
2422  62658.000   -492866.5744   5551488.6410   3092898.5990   5  14   1.7779   4.9551   2.2337  -0.9607   2.6208  -0.9203   0.00    0.0
2422  62673.000   -492867.4362   5551490.0277   3092899.0202   5  13   2.2631   6.1679   2.5809  -2.4615   3.4084  -1.6302   0.00    0.0
2422  62688.000   -492867.1261   5551488.2410   3092898.1548   5  13   2.2622   6.1722   2.5784  -2.4611   3.4071  -1.6275   0.00    0.0
2422  62703.000   -492866.5801   5551488.9867   3092898.1015   5  12   2.2636   6.9294   2.6804  -2.3942   3.7317  -1.6012   0.00    0.0
2422  62718.000   -492865.9866   5551486.7462   3092897.5088   5  13   2.2603   6.1807   2.5734  -2.4602   3.4043  -1.6221   0.00    0.0
2422  62733.000   -492864.8266   5551486.5921   3092897.2078   5  14   1.7747   4.9765   2.2302  -0.9567   2.6233  -0.9132   0.00    0.0
2422  62748.000   -492864.7022   5551485.9639   3092897.2000   5  14   1.7741   4.9807   2.2295  -0.9558   2.6238  -0.9118   0.00    0.0
2422  62763.000   -492864.6722   5551484.8368   3092897.1798   5  14   1.7735   4.9848   2.2287  -0.9549   2.6241  -0.9103   0.00    0.0
2422  62778.000   -492864.7659   5551484.0638   3092897.0681   5  14   1.7729   4.9889   2.2280  -0.9540   2.6245  -0.9089   0.00    0.0
2422  62793.000   -492865.0088   5551484.5127   3092897.4803   5  14   1.7722   4.9930   2.2272  -0.9530   2.6248  -0.9074   0.00    0.0
2422  62808.000   -492864.1973   5551483.1863   3092897.0093   5  13   2.2544   6.2041   2.5579  -2.4562   3.3943  -1.6051   0.00    0.0
2422  62823.000   -492865.3309   5551482.4548   3092897.9590   5  13   2.2534   6.2077   2.5552  -2.4553   3.3925  -1.6021   0.00    0.0
2422  62838.000   -492864.6744   5551481.9608   3092897.0885   5  13   2.2524   6.2112   2.5525  -2.4545   3.3906  -1.5992   0.00    0.0
2422  62853.000   -492864.4047   5551480.8250   3092896.6586   5  13   2.2514   6.2147   2.5498  -2.4535   3.3886  -1.5962   0.00    0.0
2422  62868.000   -492864.0847   5551480.5126   3092896.5016   5  13   2.2503   6.2180   2.5471  -2.4526   3.3865  -1.5931   0.00    0.0
2422  62883.000   -492865.7599   5551486.2987   3092898.4151   5  14   1.7686   5.0166   2.2224  -0.9467   2.6262  -0.8983   0.00    0.0
2422  62898.000   -492865.2994   5551489.5111   3092898.7039   5  13   1.7910   5.6704   2.2829  -0.3736   2.8779  -0.8085   0.00    0.0
2422  62913.000   -492864.6004   5551488.4786   3092898.6634   5  14   1.7674   5.0241   2.2208  -0.9444   2.6264  -0.8952   0.00    0.0
2422  62928.000   -492863.7479   5551487.7502   3092898.2528   5  14   1.7668   5.0278   2.2199  -0.9433   2.6264  -0.8936   0.00    0.0
2422  62943.000   -492863.9332   5551486.0606   3092900.3963   5  12   2.3146   6.2336   2.7348  -2.4483   3.3771  -1.7519   0.00    0.0
2422  62958.000   -492863.7898   5551487.0658   3092899.9579   5  12   2.3130   6.2364   2.7310  -2.4463   3.3737  -1.7478   0.00    0.0
2422  62973.000   -492860.8186   5551487.3817   3092894.1503   5  14   1.7650   5.0388   2.2173  -0.9396   2.6264  -0.8887   0.00    0.0
2422  62988.000   -492860.5834   5551488.0592   3092892.3798   5  13   1.7665   5.0704   2.2539  -0.9133   2.5845  -0.9069   0.00    0.0
2422  63003.000   -492860.7318   5551488.0649   3092892.8358   5  14   1.7638   5.0458   2.2155  -0.9370   2.6263  -0.8855   0.00    0.0
2422  63018.000   -492860.6122   5551486.7974   3092892.5386   5  14   1.7632   5.0493   2.2146  -0.9356   2.6262  -0.8838   0.00    0.0
2422  63033.000   -492860.4479   5551485.6664   3092892.4780   5  14   1.7626   5.0528   2.2137  -0.9343   2.6260  -0.8821   0.00    0.0
2422  63048.000   -492860.2653   5551486.4102   3092892.8525   5  14   1.7621   5.0561   2.2127  -0.9329   2.6258  -0.8805   0.00    0.0
2422  63063.000   -492860.0796   5551487.2775   3092892.9045   5  14   1.7615   5.0595   2.2118  -0.9314   2.6256  -0.8788   0.00    0.0
2422  63078.000   -492859.9080   5551484.7756   3092891.9228   5  14   1.7609   5.0628   2.2109  -0.9300   2.6254  -0.8771   0.00    0.0
2422  63093.000   -492859.0810   5551480.3921   3092889.1082   5  12   2.4774   6.7388   2.9396  -2.9313   3.8813  -2.0085   0.00    0.0
2422  63108.000   -492860.6190   5551482.3809   3092891.4196   5  11   2.6707   7.9700   3.8124  -3.5835   5.0381  -2.5406   0.00    0.0
2422  63123.000   -492863.1790   5551484.4691   3092896.0010   5  10   2.8647   8.1270   4.2934  -3.7998   5.3320  -2.9153   0.00    0.0
2422  63138.000   -492870.6158   5551521.8160   3092918.7217   5  12   2.2940   6.2647   2.6841  -2.4193   3.3288  -1.6978   0.00    0.0
2422  63153.000   -492865.7824   5551491.8880   3092899.7540   5  12   1.8235   5.3174   2.6916  -0.9212   2.9289  -1.1346   0.00    0.0
2422  63168.000   -492865.0567   5551490.4006   3092899.5843   5  12   1.8228   5.3233   2.6913  -0.9195   2.9309  -1.1328   0.00    0.0
2422  63183.000   -492864.6954   5551488.4610   3092898.9216   5  12   1.8221   5.3292   2.6910  -0.9176   2.9328  -1.1310   0.00    0.0
2422  63198.000   -492864.3364   5551486.6609   3092898.0333   5  12   1.8214   5.3351   2.6906  -0.9158   2.9347  -1.1291   0.00    0.0
2422  63213.000   -492862.9570   5551487.2646   3092895.4360   5  13   1.7559   5.3406   2.4717  -0.9295   2.9473  -0.8713   0.00    0.0
2422  63228.000   -492862.0768   5551483.7709   3092893.3902   5  12   2.2660   6.8771   2.9067  -2.6570   3.9134  -1.7169   0.00    0.0
2422  63243.000   -492863.2029   5551487.1548   3092894.0133   5  12   1.8182   5.5450   2.8160  -1.2442   3.2660  -1.1810   0.00    0.0
2422  63258.000   -492863.0528   5551485.4974   3092892.9462   5  12   1.8176   5.5528   2.8173  -1.2446   3.2702  -1.1801   0.00    0.0
2422  63273.000   -492868.0562   5551499.8380   3092902.2349   5  12   2.2629   6.8952   2.9014  -2.6550   3.9134  -1.7083   0.00    0.0
2422  63288.000   -492868.4433   5551500.9288   3092902.6358   5  12   2.2618   6.9010   2.8995  -2.6542   3.9132  -1.7054   0.00    0.0
2422  63303.000   -492866.4678   5551493.8606   3092898.7656   5  11   2.3884   6.9341   3.0064  -2.5624   3.8494  -1.8750   0.00    0.0
2422  63318.000   -492861.3492   5551480.8144   3092890.8301   5  10   2.8826   8.1634   4.0602  -3.6751   5.1532  -2.8138   0.00    0.0
2422  63333.000   -492871.5922   5551507.1346   3092908.6828   5  11   2.3848   6.9463   3.0006  -2.5591   3.8479  -1.8670   0.00    0.0
2422  63348.000   -492872.1330   5551504.9803   3092909.3428   5  11   2.3831   6.9523   2.9977  -2.5573   3.8470  -1.8629   0.00    0.0
2422  63363.000   -492869.8117   5551507.8040   3092906.6477   5  12   2.2564   6.9284   2.8895  -2.6494   3.9112  -1.6902   0.00    0.0
2422  63378.000   -492870.4690   5551512.0240   3092908.1017   5  12   2.2553   6.9335   2.8874  -2.6483   3.9105  -1.6870   0.00    0.0
2422  63393.000   -492862.6047   5551488.1432   3092893.6664   5  12   1.8124   5.6215   2.8285  -1.2467   3.3064  -1.1711   0.00    0.0
2422  63408.000   -492868.3020   5551506.6883   3092908.7881   5  13   1.7491   5.4124   2.4725  -0.9071   2.9715  -0.8474   0.00    0.0
2422  63423.000   -492868.2747   5551506.7520   3092908.8539   5  13   1.7485   5.4176   2.4725  -0.9052   2.9731  -0.8454   0.00    0.0
2422  63438.000   -492868.0526   5551505.1694   3092908.1869   5  13   1.7480   5.4228   2.4724  -0.9032   2.9747  -0.8435   0.00    0.0
2422  63453.000   -492867.4467   5551502.1137   3092906.2886   5  13   1.7475   5.4279   2.4723  -0.9012   2.9762  -0.8415   0.00    0.0
2422  63468.000   -492869.6736   5551508.8854   3092907.6298   5  12   2.2486   6.9620   2.8740  -2.6404   3.9048  -1.6672   0.00    0.0
2422  63483.000   -492868.4012   5551505.1104   3092905.5798   5  12   2.2475   6.9664   2.8716  -2.6388   3.9036  -1.6638   0.00    0.0
2422  63498.000   -492867.5583   5551500.9883   3092903.5462   5  12   2.2463   6.9706   2.8692  -2.6373   3.9023  -1.6603   0.00    0.0
2422  63513.000   -492869.1208   5551506.0827   3092904.1990   5  13   1.7456   5.4479   2.4717  -0.8928   2.9819  -0.8333   0.00    0.0
2422  63528.000   -492868.4236   5551507.4512   3092903.3770   5  12   1.7724   6.0173   2.5020  -0.0606   3.1448  -0.7551   0.00    0.0
2422  63543.000   -492871.9783   5551469.5552   3092896.8171   5  13   1.7446   5.4577   2.4713  -0.8884   2.9846  -0.8291   0.00    0.0
2422  63558.000   -492867.5568   5551451.3687   3092891.4621   5  13   1.7441   5.4625   2.4711  -0.8862   2.9858  -0.8270   0.00    0.0
2422  63573.000   -492867.9265   5551448.1121   3092891.3004   5  13   1.7436   5.4673   2.4709  -0.8839   2.9870  -0.8249   0.00    0.0
2422  63588.000   -492864.7491   5551474.6425   3092895.8348   5  13   1.7431   5.4719   2.4706  -0.8816   2.9882  -0.8227   0.00    0.0
2422  63603.000   -492863.6262   5551486.3995   3092898.4913   5  11   1.7776   6.0309   2.6123   0.2192   3.1140  -0.8244   0.00    0.0
2422  63618.000   -492866.1206   5551472.2171   3092898.1048   5  13   1.7422   5.4812   2.4700  -0.8768   2.9904  -0.8184   0.00    0.0
2422  63633.000   -492864.9131   5551486.3153   3092900.6684   5  12   1.7699   6.0307   2.4953   0.1501   3.1373  -0.7443   0.00    0.0
2422  63648.000   -492867.6402   5551458.6192   3092895.2041   5  12   1.8029   5.7414   2.8442  -1.2429   3.3653  -1.1497   0.00    0.0
2422  63663.000   -492863.8822   5551482.8974   3092896.5262   5  11   1.8386   6.2046   2.8524  -0.8329   3.4394  -1.1150   0.00    0.0
2422  63678.000   -492863.5255   5551485.1451   3092896.5992   5  12   1.8017   5.7545   2.8456  -1.2418   3.3714  -1.1467   0.00    0.0
2422  63693.000   -492863.6701   5551484.4714   3092895.8641   5  12   1.8012   5.7610   2.8462  -1.2412   3.3743  -1.1453   0.00    0.0
2422  63708.000   -492864.6286   5551482.6739   3092895.4643   5  12   1.8006   5.7675   2.8468  -1.2406   3.3772  -1.1437   0.00    0.0
2422  63723.000   -492862.3152   5551476.3526   3092892.5610   5  11   2.6193   8.3974   3.7655  -3.6249   5.1428  -2.4481   0.00    0.0
2422  63738.000   -492862.1225   5551477.9515   3092893.5665   5  12   2.2273   7.0228   2.8260  -2.6048   3.8702  -1.5999   0.00    0.0
2422  63753.000   -492862.3050   5551479.6188   3092894.5476   5  12   2.2261   7.0251   2.8230  -2.6023   3.8675  -1.5958   0.00    0.0
2422  63768.000   -492863.2775   5551483.0890   3092896.8716   5  12   2.2249   7.0273   2.8200  -2.5998   3.8647  -1.5917   0.00    0.0
2422  63783.000   -492863.3308   5551481.1794   3092894.6472   5  11   2.3310   7.0776   2.8996  -2.4838   3.7878  -1.7322   0.00    0.0
2422  63798.000   -492860.6516   5551490.7035   3092892.6604   5  13   1.7368   5.5324   2.4650  -0.8455   3.0004  -0.7907   0.00    0.0
2422  63813.000   -492860.2704   5551489.4646   3092891.8225   5  13   1.7364   5.5363   2.4645  -0.8427   3.0009  -0.7883   0.00    0.0
2422  63828.000   -492860.1935   5551487.2667   3092890.4377   5  12   1.7963   5.8167   2.8506  -1.2340   3.3984  -1.1309   0.00    0.0
2422  63843.000   -492866.1952   5551510.0540   3092909.3071   5  13   1.7356   5.5440   2.4634  -0.8369   3.0019  -0.7834   0.00    0.0
2422  63858.000   -492878.0133   5551547.9930   3092923.5606   5  12   2.2176   7.0379   2.8014  -2.5837   3.8465  -1.5663   0.00    0.0
2422  63873.000   -492886.3164   5551569.4492   3092942.8629   5  12   2.3099   6.4705   2.5087  -2.3303   3.1796  -1.6088   0.00    0.0
2422  63888.000   -492865.6006   5551476.4241   3092895.6621   5  14   1.7306   5.2259   2.1904  -0.9485   2.6274  -0.8542   0.00    0.0
2422  63903.000   -492864.4283   5551482.3480   3092895.1300   5  14   1.7301   5.2313   2.1907  -0.9472   2.6294  -0.8528   0.00    0.0
2422  63918.000   -492864.1241   5551484.2189   3092895.0754   5  12   2.3059   6.4912   2.5047  -2.3294   3.1814  -1.6000   0.00    0.0
2422  63933.000   -492864.8601   5551487.9961   3092895.1183   5  12   1.8630   5.3152   2.4042  -0.5540   2.5214  -1.1421   0.00    0.0
2422  63948.000   -492863.1561   5551489.8630   3092896.0830   5  14   1.7286   5.2472   2.1917  -0.9428   2.6353  -0.8485   0.00    0.0
2422  63963.000   -492862.4293   5551488.8260   3092895.1769   5  14   1.7281   5.2524   2.1920  -0.9413   2.6372  -0.8470   0.00    0.0
2422  63978.000   -492862.5015   5551487.7342   3092894.4227   5  14   1.7276   5.2576   2.1922  -0.9398   2.6390  -0.8455   0.00    0.0
2422  63993.000   -492862.6283   5551487.5415   3092893.9358   5  14   1.7271   5.2627   2.1925  -0.9382   2.6409  -0.8440   0.00    0.0
2422  64008.000   -492862.3916   5551488.8792   3092893.4992   5  13   1.7898   5.4152   2.4430  -1.2119   2.8872  -1.1034   0.00    0.0
2422  64023.000   -492862.7136   5551489.8246   3092894.1010   5  13   1.7893   5.4220   2.4442  -1.2121   2.8907  -1.1026   0.00    0.0
2422  64038.000   -492863.8026   5551490.8336   3092895.0946   5  12   2.4669   7.1807   2.9023  -3.0748   3.9654  -1.9671   0.00    0.0
2422  64053.000   -492868.9917   5551499.4788   3092897.8818   5  12   2.7353   6.8902   2.4050  -3.1237   3.3076  -1.4813   0.00    0.0
2422  64068.000   -492866.5164   5551494.9860   3092896.8808   5  13   2.1937   6.4961   2.4020  -2.4454   3.2729  -1.4231   0.00    0.0
2422  64083.000   -492867.2387   5551492.4365   3092898.7754   5  11   2.2665   6.5508   2.7342  -2.4704   3.3329  -1.6622   0.00    0.0
2422  64098.000   -492865.0991   5551487.1629   3092900.1377   5  13   1.7827   5.3048   2.3726  -0.8555   2.6056  -1.0507   0.00    0.0
2422  64113.000   -492865.4847   5551490.3828   3092901.5722   5  13   1.7821   5.3097   2.3724  -0.8534   2.6072  -1.0490   0.00    0.0
2422  64128.000   -492864.0189   5551491.5784   3092899.7257   5  14   1.7228   5.3072   2.1947  -0.9224   2.6564  -0.8297   0.00    0.0
2422  64143.000   -492863.1343   5551489.4557   3092896.2885   5  14   1.7224   5.3119   2.1949  -0.9205   2.6579  -0.8280   0.00    0.0
2422  64158.000   -492865.3028   5551489.0678   3092895.7676   5  13   1.8838   5.3177   2.2312  -0.9616   2.6515  -0.6141   0.00    0.0
2422  64173.000   -492865.3654   5551487.0279   3092895.7554   5  13   1.8836   5.3222   2.2315  -0.9560   2.6537  -0.6111   0.00    0.0
2422  64188.000   -492865.6383   5551483.8967   3092895.8539   5  13   1.8834   5.3266   2.2318  -0.9503   2.6559  -0.6080   0.00    0.0
2422  64203.000   -492870.0995   5551483.5704   3092894.0141   5  14   1.7205   5.3304   2.1955  -0.9125   2.6640  -0.8212   0.00    0.0
2422  64218.000   -492869.1739   5551482.6117   3092888.9769   5  13   1.7251   5.3451   2.3194  -0.9340   2.7111  -0.8777   0.00    0.0
2422  64233.000   -492870.0348   5551487.8471   3092897.2144   5  14   1.7196   5.3394   2.1958  -0.9082   2.6668  -0.8176   0.00    0.0
2422  64248.000   -492869.8407   5551488.9566   3092897.8062   5  14   1.7192   5.3439   2.1959  -0.9061   2.6682  -0.8159   0.00    0.0
2422  64263.000   -492871.2964   5551522.5703   3092903.9003   5  12   2.2745   6.6249   2.4692  -2.3082   3.1787  -1.5253   0.00    0.0
2422  64278.000   -492871.9521   5551507.7359   3092903.3264   5  11   2.3055   7.0617   2.4689  -2.0939   3.2094  -1.5113   0.00    0.0
2422  64293.000   -492867.6801   5551499.3848   3092896.3791   5  11   2.2529   6.6501   2.7368  -2.4755   3.3644  -1.6321   0.00    0.0
2422  64308.000   -492868.6471   5551502.7585   3092900.9817   5  12   2.2167   6.5846   2.5346  -2.3959   3.2129  -1.4988   0.00    0.0
2422  64323.000   -492865.1018   5551494.3986   3092899.6481   5  13   1.7739   5.3731   2.3690  -0.8195   2.6262  -1.0230   0.00    0.0
2422  64338.000   -492865.4010   5551492.9421   3092899.2945   5  13   1.7733   5.3773   2.3687  -0.8168   2.6273  -1.0210   0.00    0.0
2422  64353.000   -492865.1581   5551501.0059   3092900.7516   5  11   1.9096   5.9079   2.6990  -0.7309   2.9102  -1.3420   0.00    0.0
2422  64368.000   -492868.7729   5551489.4643   3092902.3108   5  12   1.8548   5.5678   2.6965  -1.1965   2.9557  -1.3193   0.00    0.0
2422  64383.000   -492872.9365   5551495.7103   3092904.8972   5  11   2.5714   7.3960   3.0175  -3.0319   3.9618  -2.0928   0.00    0.0
2422  64398.000   -492874.6063   5551507.3935   3092915.7562   5  13   1.8320   5.4616   2.2832  -0.4397   2.5726  -1.0182   0.00    0.0
2422  64413.000   -492874.7734   5551509.7062   3092915.5795   5  13   1.8314   5.4655   2.2828  -0.4347   2.5738  -1.0160   0.00    0.0
2422  64428.000   -492883.6696   5551536.7096   3092921.4769   5  12   2.2593   6.6719   2.4497  -2.2898   3.1670  -1.4851   0.00    0.0
2422  64443.000   -492880.8794   5551530.4440   3092917.7367   5  12   2.2579   6.6756   2.4479  -2.2878   3.1656  -1.4813   0.00    0.0
2422  64458.000   -492868.8158   5551500.1249   3092900.6563   5  12   1.9115   5.6475   2.5907  -0.9686   2.8865  -1.3033   0.00    0.0
2422  64473.000   -492867.2804   5551497.9444   3092899.2458   5  12   1.9107   5.6530   2.5909  -0.9679   2.8893  -1.3014   0.00    0.0
2422  64488.000   -492866.5791   5551497.4728   3092899.2264   5  12   1.9098   5.6584   2.5911  -0.9671   2.8922  -1.2996   0.00    0.0
2422  64503.000   -492862.3190   5551492.9405   3092895.3223   5  12   1.8048   6.0649   2.5076  -1.4869   3.1416  -1.1298   0.00    0.0
2422  64518.000   -492861.7316   5551490.3998   3092894.8190   5  12   1.8042   6.0712   2.5084  -1.4862   3.1444  -1.1285   0.00    0.0
2422  64533.000   -492859.7088   5551498.4279   3092894.3867   5  11   1.8340   6.5783   2.5093  -1.1707   3.1578  -1.1231   0.00    0.0
2422  64548.000   -492861.9304   5551473.7632   3092893.0432   5  12   1.8031   6.0836   2.5099  -1.4845   3.1498  -1.1257   0.00    0.0
2422  64563.000   -492861.3989   5551478.6858   3092892.7639   5  12   1.8025   6.0897   2.5106  -1.4837   3.1524  -1.1243   0.00    0.0
2422  64578.000   -492861.0528   5551482.7184   3092892.6190   5  12   1.8019   6.0957   2.5113  -1.4828   3.1550  -1.1229   0.00    0.0
2422  64593.000   -492862.9318   5551489.3504   3092895.2503   5   8   2.7801  12.3048   3.3106  -3.2016   5.2972  -2.2359   0.00    0.0
2422  64608.000   -492871.2973   5551497.3901   3092902.6966   5  11   1.9389   6.1369   2.6315  -1.3275   3.0850  -1.3477   0.00    0.0
2422  64623.000   -492863.4269   5551489.8360   3092898.1341   5   8   2.7763  12.2968   3.3039  -3.1943   5.2857  -2.2283   0.00    0.0
2422  64638.000   -492862.4936   5551511.0061   3092901.9794   5  11   1.9371   6.1485   2.6317  -1.3254   3.0902  -1.3436   0.00    0.0
2422  64653.000   -492865.2501   5551506.3148   3092905.3581   5  11   1.9361   6.1542   2.6318  -1.3243   3.0928  -1.3415   0.00    0.0
2422  64668.000   -492860.9111   5551484.0963   3092891.0875   5   8   2.9388  10.5355   3.8308  -4.0764   5.5063  -2.7079   0.00    0.0
2422  64683.000   -492864.8751   5551500.5862   3092896.6375   5   9   2.1280   9.2172   2.6752   2.0623   3.4853  -1.2269   0.00    0.0
2422  64698.000   -492863.9033   5551500.1885   3092895.6225   5  11   1.9333   6.1708   2.6319  -1.3208   3.1001  -1.3353   0.00    0.0
2422  64713.000   -492864.7856   5551485.1188   3092896.1612   5   9   2.6728  10.1284   3.3674  -3.7821   5.0508  -2.2762   0.00    0.0
2422  64728.000   -492865.3256   5551487.1070   3092896.8339   5  10   1.9004   7.2619   2.7956  -1.0071   3.5014  -1.2834   0.00    0.0
2422  64743.000   -492871.2625   5551510.2329   3092902.6088   5  10   1.8997   7.2709   2.7959  -1.0027   3.5048  -1.2810   0.00    0.0
2422  64758.000   -492868.6036   5551485.4069   3092903.6099   5  10   2.5970  10.1575   3.1622  -3.7570   5.0252  -2.1066   0.00    0.0
2422  64773.000   -492865.3798   5551489.9967   3092895.4927   5  11   1.8196   7.2885   2.5807  -0.9916   3.5104  -1.0226   0.00    0.0
2422  64788.000   -492863.4290   5551481.4846   3092893.1262   5  10   2.5930  10.1773   3.1588  -3.7528   5.0259  -2.0987   0.00    0.0
2422  64803.000   -492862.4232   5551479.1528   3092891.2519   5   9   2.7766  10.7531   3.7288  -4.1837   5.6652  -2.5236   0.00    0.0
