     3.02           OBSERVATION DATA    M                   RINEX VERSION / TYPE
rtklib_java         USER                20260627 015857     PGM / RUN BY / DATE 
ROVER                                                       MARKER NAME         
ROVER                                                                           MARKER NUMBER       
USER                AGENCY                                  OBSERVER / AGENCY   
                    UNKNOWN                                 REC # / TYPE / VERS 
                    UNKNOWN                                                     ANT # / TYPE        
  -492860.3329  5551481.2314  3092889.6323                  APPROX POSITION XYZ 
        0.0000        0.0000        0.0000                  ANTENNA: DELTA H/E/N
C   10 C2I L2I C7I L7I C5P L5P C6I L6I C1P L1P              SYS / # / OBS TYPES 
  2026    06    07    17    00 18.0000000 2422                    TIME OF FIRST OBS   
                                                            END OF HEADER       
> 2026 06 07 17 00 18.0000000  0 13
C01  38582162.03800 200907540.10200                                                                  38582157.28500 163253741.86600                                
C02  36961861.07700 192470049.90700                                                                  36961844.56600 156397675.42200                                
C03  37001066.89200 192674235.16300                                                                  37001048.30900 156563557.15500                                
C07  37175104.26100 193580527.60900                                                                  37175093.96800 157299992.52100                                
C08  38355126.52300 199725211.63500                                                                  38355122.62800 162293106.72000                                
C09  38634669.12600 201180806.80000  38634677.61300 155565788.52800                                                                                                
C10                                  37314548.80900 150250203.69400                                  37314544.59200 157890082.62200                                
C12  22691289.91200 118159482.59500                                                                  22691285.30200  96014238.40500                                
C19  22249106.01800 115856981.63600                                  22249105.30400  87310262.60700  22249097.74500  94143186.73300  22249100.64000 116919821.08200
C20  24451758.43800 127326786.26100                                  24451761.15400  95953940.68300  24451753.13100 103463312.62100  24451753.25600 128494946.06800
C22  23574002.06400 122756002.76400                                                                  23573995.64900  99749284.74000  23574002.51000 123882211.39100
C36  22570957.35600 117532851.18500                                  22570962.50300  88573487.17700  22570982.15900  95505137.05500  22570953.40700 118611070.36100
C39  26358757.25900 137256812.47200                                  26358767.10400 103437434.45200  26358765.38900 111532563.46100  26358757.68800 138516269.45500
> 2026 06 07 17 00 33.0000000  0 13
C01  38582143.36500 200907443.18000                                                                  38582138.68300 163253663.12300                                
C02  36962066.23100 192471118.37100                                                                  36962049.82700 156398543.66700                                
C03  37001221.13800 192675039.67300                                                                  37001202.87600 156564210.88100                                
C07  37175127.45500 193580652.57900                                                                                                                                
C08  38350156.84400 199699334.62500                                                                  38350153.12800 162272079.60300                                
C09  38640199.39200 201209577.22300  38640201.51800 155588035.55200                                                                                                
C10  37314599.55700 194306910.88300  37314601.54000 150250418.12600                                  37314597.85900 157890307.94400                                
C12  22698517.68200 118197114.97800                                                                  22698512.50000  96044817.74900                                
C19  22252162.39000 115872896.66400                                  22252162.72900  87322256.24100  22252153.97300  94156118.97800  22252156.81500 116935882.11900
C20  24460829.54000 127374023.86300                                  24460832.20300  95989539.12700  24460824.41200 103501697.06500  24460825.73400 128542617.07200
C22                                                                                                                                  23568279.79500 123852139.92100
C36  22568800.86900 117521624.05400                                  22568805.08600  88565026.42400  22568800.15400  95495978.48210  22568796.54500 118599740.26400
C39  26352785.59200 137225715.49500                                  26352792.34700 103413999.53200  26352787.93300 111507294.59800  26352784.35900 138484887.14900
> 2026 06 07 17 00 48.0000000  0 13
C01  38582125.97800 200907352.83300                                                                  38582121.33200 163253589.75400                                
C02  36962272.69000 192472193.63000                                                                  36962256.42900 156399417.39600                                
C03  37001376.68800 192675850.82800                                                                  37001358.69400 156564870.01100                                
C07  37175149.48700 193580769.08500                                                                                                                                
C08  38345191.72200 199673478.65800                                                                  38345188.13000 162251069.58100                                
C09  38645734.53600 201238365.92100  38645728.97900 155610296.68500                                                                                                
C10  37314652.68200 194307176.89800  37314652.05600 150250623.84100                                  37314648.42900 157890524.16100                                
C12  22705762.14100 118234834.29500                                                                  22705756.13700  96075467.69900                                
C19  22255243.22400 115888939.44200                                  22255243.65300  87334346.14400  22255234.71800  94169155.03000  22255236.98700 116952072.04900
C20  24469911.22100 127421313.68500                                  24469913.15100  96025176.91800  24469904.68100 103540123.91800  24469905.71800 128590340.71600
C22                                                                                                                                  23562567.64000 123822145.11310
C36  22566655.44300 117510450.54400                                  22566659.05200  88556606.08100  22566657.44400  95486899.13400  22566650.88600 118588464.31200
C39  26346821.23400 137194656.72500                                  26346812.49600 103390593.86600  26346818.41000 111482056.76600  26346818.92900 138453543.55700
> 2026 06 07 17 01 03.0000000  0 12
C01  38582106.17900 200907249.89800                                                                  38582101.46200 163253506.13600                                
C02  36962476.75400 192473256.48200                                                                  36962460.92200 156400281.05000                                
C03  37001529.73600 192676649.33400                                                                  37001512.01000 156565518.90300                                
C07  37175166.60600 193580857.69600                                                                                                                                
C08  38340226.97500 199647624.62600                                                                  38340223.77600 162230061.10900                                
C09  38651269.12600 201267153.61000  38651256.08200 155632557.02900                                                                                                
C10  37314698.42600 194307412.48900  37314696.81800 150250805.94100                                  37314692.99400 157890715.56200                                
C12  22713016.98200 118272621.03100                                                                  22713012.62200  96106172.46300                                
C19  22258344.98200 115905090.66200                                  22258344.53600  87346517.76000  22258336.81600  94182279.19100  22258337.85300 116968371.44900
C20  24478999.19200 127468636.23800                                  24478998.51300  96060839.31700  24478990.88300 103578577.31800  24478994.11700 128638097.41200
C36                                                                  22564519.38000  88548211.65000  22564518.73600  95477847.68100  22564511.78500 118577223.09400
C39  26340859.18100 137163617.03100                                  26340851.14000 103367202.24400  26340855.03500 111456834.42000  26340856.23200 138422218.91900
> 2026 06 07 17 01 18.0000000  0 12
C01  38582082.80700 200907128.40800                                                                  38582078.12500 163253407.37800                                
C02  36962677.28000 192474300.92700                                                                  36962661.75200 156401129.79300                                
C03  37001679.22800 192677429.31200                                                                  37001661.73400 156566152.70300                                
C07  37175177.13100 193580912.60100                                                                  37175174.82600 157300320.32710                                
C08  38335261.33400 199621766.58900                                                                  38335258.70700 162209049.38600                                
C09  38656802.26900 201295934.17000  38656782.04100 155654811.96300                                                                                                
C10  37314737.04100 194307611.66500  37314734.73600 150250959.95400                                  37314730.55500 157890877.34400                                
C12  22720284.60000 118310468.88300                                                                  22720281.56200  96136927.00900                                
C19  22261466.32500 115921344.23000                                  22261464.75300  87358766.51300  22261458.28400  94195486.52500  22261459.76700 116984774.16400
C20  24488091.71900 127515985.22700                                  24488089.50300  96096521.71300  24488084.58900 103617052.22500  24488086.35800 128685880.80200
C36  22562382.87000 117488191.79010                                  22562384.76400  88539838.53600  22562384.42500  95468819.19000  22562379.83200 118566010.34700
C39  26334900.00400 137132590.27600                                  26334898.61100 103343820.36900  26334895.62700 111431622.63500  26334896.19800 138390907.41500
> 2026 06 07 17 01 33.0000000  0 12
C01  38582064.20500 200907031.86200                                                                  38582059.84500 163253328.95900                                
C02  36962882.57700 192475370.49000                                                                  36962867.42400 156401998.93800                                
C03  37001833.49100 192678234.19500                                                                  37001816.35500 156566806.75800                                
C07                                                                                                  37175186.95900 157300382.09810                                
C08  38330303.21600 199595948.13600                                                                  38330300.89300 162188069.81800                                
C09  38662300.80000 201324741.99210  38662315.02400 155677095.06100                                                                                                
C10  37314776.88900 194307817.91600  37314774.13700 150251119.48100                                  37314769.86700 157891044.99200                                
C12  22727574.35700 118348421.42700                                                                  22727571.48000  96167766.48400                                
C19  22264615.58000 115937743.53900                                  22264614.11500  87371125.10100  22264609.52200  94208812.30900  22264609.50400 117001323.95200
C20  24497197.72000 127563403.88200                                  24497196.79000  96132256.56800  24497193.50200 103655583.74500  24497192.94900 128733734.55700
C36  22560263.85400 117477152.61600                                  22560265.64100  88531519.41800  22560264.08600  95459848.96200  22560260.45900 118554869.90700
C39  26328952.12100 137101620.02500                                  26328952.85400 103320481.05600  26328944.83100 111406456.76200  26328948.81600 138359652.91300
> 2026 06 07 17 01 48.0000000  0 12
C01  38582040.72500 200906909.59300                                                                  38582036.13300 163253229.64600                                
C02  36963082.99600 192476414.52800                                                                  36963068.32600 156402847.31600                                
C03  37001982.84100 192679013.41100                                                                  37001965.99000 156567439.94800                                
C08  38325342.91800 199570118.72400                                                                  38325340.39900 162167081.37100                                
C09  38667835.21200 201353544.66200  38667845.55800 155699367.09200                                                                                                
C10  37314807.58800 194307980.60900  37314805.30100 150251245.21600                                  37314801.01200 157891177.19500                                
C12  22734873.62100 118386427.58900                                                                  22734869.76100  96198649.53600                                
C19  22267783.04300 115954237.88500                                  22267781.72100  87383555.27000  22267776.00200  94222215.29100  22267777.62900 117017969.60200
C20  24506307.72300 127610841.33200                                  24506309.86700  96168005.59800  24506304.43500 103694130.57000  24506302.73700 128781607.23700
C22                                                                                                  23539926.92700  99605135.26810                                
C36  22558146.66100 117466134.51700                                  22558150.66300  88523216.10100  22558146.87500  95450895.79700  22558143.60500 118543750.66000
C39  26323005.11400 137070655.58100                                  26323004.47100 103297146.16000  26322996.68000 111381295.64100  26323004.27400 138328404.36800
> 2026 06 07 17 02 03.0000000  0 12
C01  38582013.17100 200906766.17000                                                                  38582008.63200 163253113.04400                                
C02  36963279.43000 192477437.54300                                                                  36963265.09900 156403678.64000                                
C03  37002128.15200 192679771.41500                                                                  37002111.62300 156568055.91900                                
C08  38320381.54800 199544282.92900                                                                  38320378.52900 162146087.72800                                
C09  38673365.49500 201382337.23100  38673374.21600 155721631.37100                                                                                                
C10  37314830.56800 194308104.25300  37314828.97700 150251340.88000                                  37314824.99300 157891277.63300                                
C12  22742183.58800 118424491.59300                                                                  22742178.37000  96229579.62600                                
C19  22270969.64400 115970831.60100                                  22270969.26800  87396060.37700  22270961.63800  94235699.05100  22270963.42500 117034715.54500
C20  24515422.56800 127658301.82600                                  24515426.10600  96203771.98400  24515418.36900 103732696.09100  24515417.19000 128829503.16000
C22  23534315.82100 122549440.62610                                                                  23534308.83500  99581365.02210                                
C36  22556033.72000 117455141.78500                                  22556040.01000  88514931.90000  22556035.06000  95441963.23800  22556030.93300 118532657.03600
C39  26317060.25100 137039701.44800                                  26317059.12500 103273819.11200  26317053.31800 111356142.76100  26317059.57200 138297166.31700
> 2026 06 07 17 02 18.0000000  0 12
C01  38581987.42200 200906631.97000                                                                  38581982.65100 163253004.09300                                
C02  36963477.56200 192478469.96800                                                                  36963463.66000 156404517.59300                                
C03  37002275.23200 192680538.65300                                                                  37002258.88100 156568679.38000                                
C08  38315424.66400 199518471.23300                                                                  38315421.30400 162125113.65800                                
C09  38678900.19300 201411150.34600  38678906.78700 155743911.51500                                                                                                
C10  37314851.13500 194308220.23310  37314851.06300 150251429.83400                                  37314847.97200 157891371.06500                                
C12  22749510.81700 118462643.66800                                                                  22749505.00900  96260581.26200                                
C19  22274181.49300 115987555.04200                                  22274182.45800  87408663.22300  22274175.34600  94249288.20700  22274174.64900 117051592.31800
C20  24524547.56400 127705815.47200                                  24524550.36900  96239578.44000  24524542.43500 103771304.76800  24524542.20300 128877452.69600
C22  23528717.20600 122520289.54100                                                                  23528712.66800  99557677.44600                                
C36  22553931.75100 117444204.69000                                  22553940.36400  88506689.65100  22553934.37800  95433075.94300  22553929.75000 118521619.66300
C39  26311123.51800 137008858.99310                                  26311121.35600 103250522.68300  26311131.45200 111331022.74800  26311124.37600 138265969.31500
> 2026 06 07 17 02 33.0000000  0 12
C01  38581963.19100 200906505.74700                                                                  38581958.51000 163252901.49500                                
C02  36963677.28400 192479510.54600                                                                  36963663.81100 156405363.14100                                
C03  37002423.74100 192681313.84800                                                                  37002407.87300 156569309.30600                                
C08  38310471.88900 199492682.48300                                                                  38310468.95800 162104158.22600                                
C09  38684438.07100 201439982.45700  38684442.93200 155766206.32700                                  38684439.39400 163686533.08700                                
C10  37314873.25700 194308325.38600  37314871.34500 150251511.14100                                  37314868.95000 157891456.53500                                
C12  22756854.36000 118500882.29500                                                                  22756848.94500  96291653.19400                                
C19  22277418.10900 116004406.81100                                  22277418.25200  87421362.77600  22277411.56900  94262981.67700  22277411.39100 117068598.66400
C20  24533682.08300 127753380.71200                                  24533683.85200  96275423.76200  24533676.04300 103809955.38700  24533676.47200 128925454.32100
C22  23523138.92600 122491244.97900                                                                  23523135.03100  99534076.35600                                
C36  22551841.93300 117433321.92500                                  22551851.15400  88498488.35700  22551844.52400  95424232.82100  22551841.57600 118510637.01500
C39  26305196.66700 136977984.95200                                  26305192.05700 103227255.98700  26305202.13500 111305935.04100  26305196.45300 138234812.11700
> 2026 06 07 17 02 48.0000000  0 12
C01  38581941.71300 200906394.07400                                                                  38581936.92400 163252810.74500                                
C02  36963879.83000 192480565.78500                                                                  36963867.08900 156406220.66100                                
C03  37002575.12700 192682103.61600                                                                  37002559.58100 156569951.05500                                
C08  38305524.72500 199466923.28100                                                                  38305522.59800 162083226.81500                                
C09  38689980.79200 201468840.13600  38689983.75800 155788520.90000                                                                                                
C10  37314893.23400 194308427.24300  37314891.07200 150251589.92300                                  37314889.55300 157891539.29200                                
C12  22764214.21700 118539213.66900                                                                  22764211.73300  96322800.54500                                
C19  22280680.17100 116021393.32700                                  22280678.72400  87434163.85900  22280670.82600  94276784.63300  22280674.77500 117085741.05800
C20  24542827.32400 127801003.89100                                  24542829.20000  96311312.72100  24542821.21300 103848653.06600  24542822.01700 128973514.34800
C22  23517582.71400 122462229.87610                                                                  23517576.69300  99510567.47400                                
C36  22549764.42700 117422499.92300                                  22549772.98600  88490332.90200  22549766.41100  95415439.08900  22549763.83700 118499715.74300
C39  26299276.62400 136947156.98100                                  26299272.94300 103204023.98500  26299278.78600 111280884.76600                                
> 2026 06 07 17 03 03.0000000  0 13
C01  38581920.10900 200906281.48200                                                                  38581915.32000 163252719.29700                                
C02  36964082.28600 192481620.28300                                                                  36964069.49100 156407077.54300                                
C03  37002726.28100 192682892.41600                                                                  37002711.12800 156570592.05200                                
C08  38300580.47300 199441178.25500                                                                  38300579.04400 162062306.92200                                
C09  38695525.37100 201497707.73400  38695526.60400 155810843.13700                                  38695522.29800 163733418.70100                                
C10  37314909.90600 194308510.30900  37314907.19000 150251654.18000                                  37314906.35000 157891606.86100                                
C12  22771589.26300 118577622.16600                                                                  22771588.03000  96354010.61800                                
C19  22283964.40800 116038498.99700                                  22283963.67500  87447054.77700  22283951.65000  94290684.39100  22283960.40500 117103003.74000
C20  24551980.49900 127848669.16500                                  24551983.21500  96347233.46000  24551975.72800 103887384.98200  24551975.22700 129021616.90000
C22  23512046.87300 122433398.11410                                                                  23512039.06400  99487138.44300                                
C27  25387805.63800 132200982.30600                                                                                                                                
C36  22547695.80200 117411723.17200                                  22547702.73500  88482211.55600  22547697.17800  95406682.11300  22547693.30000 118488840.18100
C39  26293362.38800 136916359.43400                                  26293358.06400 103180814.88800  26293361.72700 111255859.31500                                
> 2026 06 07 17 03 18.0000000  0 13
C01  38581899.68500 200906175.08100                                                                  38581894.78900 163252632.82600                                
C02  36964285.90300 192482681.11300                                                                  36964273.37700 156407939.58300                                
C03  37002878.61500 192683687.35700                                                                  37002863.78400 156571238.06200                                
C08  38295640.60000 199415454.58400                                                                  38295639.22400 162041404.40300                                
C09  38701073.41700 201526592.35400  38701073.04200 155833178.58900                                  38701068.50300 163756890.81100                                
C10  37314924.54100 194308581.73000  37314921.11000 150251709.38900                                  37314919.85900 157891664.83300                                
C12  22778980.62400 118616114.64400                                                                  22778978.40800  96385288.89800                                
C19  22287273.69800 116055730.95800                                  22287273.84000  87460040.84400  22287262.95800  94304686.69000  22287269.65900 117120393.74200
C20  24561143.73400 127896383.42900                                  24561146.53900  96383191.12500  24561139.26600 103926156.73900  24561139.33800 129069768.96000
C22                                                                                                  23506523.41500  99463795.23300  23506535.58400 123527681.09800
C27  25384261.96100 132182483.17100                                                                                                  25384259.35200 133395164.96200
C36  22545636.59400 117400998.69100                                  22545644.47400  88474129.61400  22545639.38100  95397967.59300  22545633.62700 118478017.26300
C39  26287454.42500 136885599.59800                                  26287449.31400 103157634.14200  26287449.47500 111230864.37200                                
> 2026 06 07 17 03 33.0000000  0 14
C01  38581878.61700 200906065.51600                                                                  38581873.82900 163252543.84200                                
C02  36964488.98500 192483738.95200                                                                  36964476.83400 156408799.17800                                
C03  37003030.35900 192684479.13200                                                                  37003015.81300 156571881.46700                                
C07                                                                                                  37175137.06800 157300171.35000                                
C08  38290703.35300 199389742.98000                                                                  38290701.35100 162020511.68200                                
C09  38706622.62400 201555484.56000  38706620.94400 155855519.91200                                                                                                
C10  37314935.03000 194308632.13300  37314931.00900 150251748.35200                                  37314929.31200 157891705.80100                                
C12  22786385.56500 118654681.51300                                                                  22786383.52800  96416627.60000                                
C19  22290605.34100 116073079.59000                                  22290604.25100  87473114.84400  22290600.05200  94318783.87500  22290601.08800 117137901.50900
C20  24570315.08100 127944137.13400                                  24570317.08300  96419178.44100  24570309.36300 103964960.49400  24570310.11400 129117960.74000
C22                                                                                                  23501027.20800  99440530.33200  23501035.05200 123498787.64500
C27  25380728.80800 132164068.55900                                                                                                                                
C36  22543585.17600 117390316.90400                                  22543594.77200  88466079.88000  22543587.26700  95389287.85200  22543582.83500 118467237.49400
C39  26281553.09100 136854867.85200                                  26281545.92500 103134474.71800  26281544.31700 111205892.37100                                
> 2026 06 07 17 03 48.0000000  0 13
C01  38581862.64200 200905982.47300                                                                  38581857.81800 163252476.37500                                
C02  36964697.19400 192484823.44600                                                                  36964685.25800 156409680.44900                                
C03  37003187.14100 192685297.40800                                                                  37003172.98900 156572546.38800                                
C07                                                                                                  37175127.08000 157300127.94010                                
C08  38285774.30800 199364073.16600                                                                  38285771.25200 161999652.92200                                
C09  38712178.21100 201584413.88100  38712175.79800 155877889.81700                                                                                                
C10  37314946.82400 194308691.22500  37314942.64200 150251794.05000                                  37314940.10500 157891753.84400                                
C12  22793810.84100 118693352.11900                                                                  22793809.44700  96448050.63300                                
C19  22293965.03900 116090574.47700                                  22293963.07400  87486299.05800  22293961.10800  94332999.95100  22293960.57200 117155556.86500
C20  24579498.95500 127991959.59600                                  24579500.90300  96455217.62300  24579492.27200 104003820.13300  24579491.77200 129166221.85000
C22                                                                                                  23495555.37300  99417368.17300  23495561.19900 123470021.70200
C36  22541548.09000 117379707.46600                                  22541556.59500  88458084.68800  22541546.64200  95380666.94200  22541545.87400 118456530.77700
C39  26275663.19300 136824193.87600                                  26275655.36600 103111358.85500  26275651.56000 111180967.40500                                
> 2026 06 07 17 04 03.0000000  0 13
C01  38581839.89500 200905864.02500                                                                  38581835.05300 163252380.18100                                
C02  36964898.59600 192485872.70100                                                                  36964886.85600 156410533.07800                                
C03  37003337.22300 192686080.26400                                                                  37003323.39300 156573182.53500                                
C07                                                                                                  37175107.51300 157300040.61100                                
C08  38280841.33200 199338383.37000                                                                  38280837.36500 161978777.92200                                
C09  38717729.22300 201613318.16900  38717725.98800 155900240.44800                                                                                                
C10  37314947.91400 194308697.09000  37314944.12500 150251798.57000                                  37314940.71200 157891758.60500                                
C12  22801245.98000 118732064.40500                                                                  22801244.78300  96479507.49300                                
C19  22297340.80100 116108153.58500                                  22297339.06800  87499546.79100  22297335.60100  94347284.48700  22297337.65600 117173297.29900
C20  24588683.52500 128039788.63600                                  24588685.81300  96491261.74600  24588676.48500 104042685.12900  24588677.32500 129214489.67900
C22                                                                                                  23490095.10000  99394258.46500  23490099.60300 123441321.08000
C36  22539513.14700 117369108.56000                                  22539518.91900  88450097.37000  22539511.61100  95372054.42000  22539510.61000 118445834.58400
C39  26269772.15100 136793515.91800                                  26269765.34300 103088239.88800  26269762.07300 111156039.10500  26269793.88000 138048629.88010
> 2026 06 07 17 04 18.0000000  0 13
C01  38581814.66400 200905732.66300                                                                  38581809.91100 163252273.46700                                
C02  36965097.55000 192486909.12700                                                                  36965085.82800 156411375.31600                                
C03  37003484.69600 192686850.14000                                                                  37003471.31200 156573808.15500                                
C07  37175095.80900 193580504.62010                                                                  37175082.28200 157299930.53100                                
C08  38275908.39100 199312696.12200                                                                  38275904.12100 161957904.94000                                
C09  38723280.84200 201642220.00800  38723275.71400 155922589.15700                                                                                                
C10  37314942.62400 194308672.16700  37314939.64000 150251779.30300                                  37314935.35200 157891738.33200                                
C12  22808694.84300 118770840.56300                                                                  22808695.34400  96511016.23200                                
C19  22300736.91600 116125839.27100                                  22300735.23700  87512874.80200  22300728.98200  94361655.57200  22300734.36100 117191145.23000
C20  24597873.02800 128087646.29400                                  24597875.79800  96527327.51300  24597866.39900 104081573.44400  24597867.50600 129262786.46900
C22  23484660.64800 122290781.91600                                                                  23484652.12400  99371219.79000  23484653.55400 123412708.42900
C36  22537483.04800 117358542.42500                                  22537489.33800  88442134.67700  22537482.92300  95363468.45100  22537481.97600 118435171.41700
C39                                                                  26263877.91100 103065134.78700  26263874.03300 111131125.68600  26263905.19700 138017688.91800
> 2026 06 07 17 04 33.0000000  0 14
C01  38581793.38200 200905622.00800                                                                  38581788.70000 163252183.49600                                
C02  36965300.50600 192487966.48800                                                                  36965289.24900 156412234.51100                                
C03  37003636.22600 192687640.73700                                                                  37003623.16300 156574450.57800                                
C07  37175070.91700 193580375.04700                                                                  37175058.03400 157299825.19700                                
C08  38270981.86600 199287045.17600                                                                  38270977.68500 161937061.47900                                
C09  38728839.48400 201671152.99000  38728831.76500 155944961.89000                                                                                                
C10  37314937.51400 194308650.15500  37314935.69100 150251762.25000                                  37314930.81300 157891720.43600                                
C12                                                                                                  22816161.70000  96542604.00400                                
C19  22304159.87100 116143665.07100                                  22304160.12100  87526308.44600  22304153.18800  94376140.50000  22304157.67300 117209134.59600
C20  24607075.55700 128135566.22500                                  24607078.09400  96563440.16100  24607069.05300 104120512.31100  24607069.58900 129311146.01700
C22  23479238.82900 122262550.77100                                  23479223.01500  92137512.60900                                  23479231.93100 123384218.36500
C27  25366726.55300 132091198.29010                                                                                                                                
C36  22535466.38500 117348042.52000                                  22535472.46100  88434221.93700  22535466.74300  95354936.32600  22535464.59900 118424575.20300
C39  26258027.11000 136732462.90510                                  26258001.96900 103042068.78400  26257993.71300 111106254.47600  26258022.82200 137986842.43410
> 2026 06 07 17 04 48.0000000  0 14
C01  38581772.04700 200905511.00400                                                                  38581767.22200 163252093.39800                                
C02  36965503.46300 192489023.62900                                                                  36965492.15200 156413093.52000                                
C03  37003787.68400 192688430.97100                                                                  37003775.05000 156575092.74500                                
C07                                                                                                  37175030.42600 157299707.50800                                
C08  38266058.14600 199261409.47100                                                                  38266053.98300 161916230.40600                                
C09  38734400.05600 201700095.80300  38734390.85300 155967342.24000                                                                                                
C10                                  37314928.20400 150251731.14300                                  37314922.64700 157891687.77500                                
C12  22823649.01800 118848752.71810                                                                  22823638.08200  96574253.41200                                
C19  22307605.91200 116161609.82200                                  22307606.91200  87539831.70800  22307601.49800  94390722.08700  22307603.91000 117227243.93700
C20  24616285.91200 128183526.93400                                  24616289.20000  96599583.56400  24616280.57000 104159484.33500  24616281.60600 129359546.79500
C22  23473835.84400 122234420.00600                                  23473820.92300  92116313.16100                                  23473830.50100 123355829.45500
C27  25363259.26500 132073145.24400                                                                                                                                
C36  22533458.74700 117337587.72600                                  22533463.51800  88426343.27000  22533468.86100  95346476.71610  22533455.78100 118414024.57000
C39  26252151.07900 136701886.05800                                  26252130.51100 103019026.03400  26252121.84500 111081408.37000  26252143.00200 137955985.21500
> 2026 06 07 17 05 03.0000000  0 14
C01  38581742.45500 200905357.03200                                                                  38581737.50600 163251968.28000                                
C02  36965698.23500 192490037.89200                                                                  36965686.78100 156413917.75300                                
C03  37003930.93900 192689178.24200                                                                  37003918.68100 156575699.95400                                
C07                                                                                                  37174991.41800 157299542.78300                                
C08  38261129.53000 199235746.41800                                                                  38261124.74100 161895377.14500                                
C09  38739953.62300 201729005.84500  38739944.36700 155989697.31600                                                                                                
C10                                  37314908.97700 150251653.03700                                  37314903.06200 157891605.64400                                
C12  22831134.06500 118887735.02000                                                                  22831120.23500  96605929.59000                                
C19  22311066.53400 116179630.66100                                  22311067.21300  87553412.34900  22311062.54900  94405365.57800  22311064.81800 117245430.17800
C20  24625496.50000 128231485.50100                                  24625499.98500  96635725.32100  24625491.69400 104198454.59100  24625491.15800 129407945.35400
C22  23468443.52700 122206347.22400                                  23468430.60700  92095157.45400  23468436.00400  99302644.48210  23468440.38200 123327499.06000
C27  25359800.66200 132055122.45400                                                                                                                                
C36  22531451.66300 117327135.31300                                  22531456.14800  88418466.36500  22531463.17000  95337983.14700  22531448.32100 118403476.28100
C39  26246272.15200 136671297.72900                                  26246254.31900 102995974.50800  26246246.81400 111056552.79500  26246269.24000 137925116.22300
> 2026 06 07 17 05 18.0000000  0 13
C01  38581716.31300 200905220.91900                                                                  38581711.61400 163251857.72200                                
C02  36965896.52800 192491070.20600                                                                  36965885.02000 156414756.63500                                
C03  37004077.64400 192689943.37300                                                                  37004065.54700 156576321.69500                                
C07                                                                                                  37174953.75000 157299380.52000                                
C08  38256207.56100 199210116.99900                                                                  38256201.91500 161874551.20100                                
C09  38745511.64000 201757943.81100  38745503.93800 156012073.98900                                                                                                
C10                                  37314889.57100 150251574.94800                                  37314883.76400 157891523.59800                                
C12  22838637.30400 118926810.83300                                                                  22838626.06400  96637681.82300                                
C19  22314553.70900 116197788.44500                                  22314554.29900  87567096.15500  22314546.45500  94420120.29500  22314551.35100 117263754.50300
C20  24634718.27400 128279502.59500                                  24634720.86500  96671911.15800  24634712.57400 104237472.35700  24634714.02100 129456402.97200
C22  23463074.06400 122178393.53300                                  23463062.69900  92074091.48400  23463066.50500  99279929.83700  23463073.11700 123299288.89900
C36  22529456.46100 117316746.10100                                  22529463.37700  88410637.01100  22529469.48800  95329540.96400  22529453.33400 118392991.72300
C39  26240393.13600 136640553.07710                                  26240386.84700 102972959.97100  26240382.16500 111031737.05400  26240403.60800 137894296.69700
> 2026 06 07 17 05 33.0000000  0 13
C01  38581697.01500 200905120.64400                                                                  38581692.58300 163251776.21800                                
C02  36966101.62800 192492138.53000                                                                  36966090.40600 156415624.72400                                
C03  37004231.28200 192690744.24000                                                                  37004219.32800 156576972.54300                                
C07                                                                                                  37174921.56800 157299235.34700                                
C08  38251295.59900 199184539.25100                                                                  38251289.23800 161853767.25700                                
C09  38751076.66100 201786927.52800  38751072.42600 156034486.06400                                                                                                
C10                                  37314873.45300 150251510.82400                                  37314868.00300 157891456.22500                                
C12  22846161.64600 118965997.99000                                                                  22846155.28400  96669524.52200                                
C19  22318070.53000 116216100.90100                                  22318070.38700  87580896.50800  22318059.59400  94435000.66600  22318068.08200 117282235.00500
C20  24643953.80700 128327595.83500                                  24643955.04000  96708154.34600  24643946.60600 104276552.02800  24643951.09100 129504937.43100
C22  23457730.79700 122150577.25800                                  23457720.14700  92053128.96300  23457723.56000  99257326.73500  23457731.33300 123271217.17300
C36  22527477.39500 117306437.86500                                  22527485.15100  88402868.71600  22527490.85100  95321164.61100  22527473.58900 118382588.94200
C39  26234543.24700 136610080.54400                                  26234535.09900 102949995.92100  26234531.70400 111006975.76400  26234551.94900 137863544.66400
> 2026 06 07 17 05 48.0000000  0 13
C01  38581674.91100 200905005.94100                                                                  38581670.39000 163251683.03100                                
C02  36966303.99500 192493192.56200                                                                  36966293.11300 156416481.20500                                
C03  37004382.02500 192691530.70500                                                                  37004370.33900 156577611.63700                                
C07                                                                                                  37174884.59700 157299066.38500                                
C08  38246383.99400 199158962.96900                                                                  38246377.41900 161832984.45400                                
C09  38756639.78800 201815906.81900  38756637.78700 156056894.63200                                  38756632.78400 163991995.09010                                
C10                                  37314851.13500 150251421.73000                                  37314846.11400 157891362.62800                                
C12  22853697.72700 119005245.89000                                                                  22853692.29500  96701416.63500                                
C19  22321607.77400 116234517.71200                                  22321606.50600  87594775.48300  22321597.50000  94449965.82100  22321604.41500 117300820.79400
C20  24653193.77200 128375714.61100                                  24653194.07600  96744416.84000  24653186.74900 104315652.44200  24653191.05600 129553497.70200
C22  23452404.34500 122122848.05000                                  23452393.10600  92032232.16400  23452397.43000  99234794.51100  23452405.54200 123243233.66300
C36  22525503.72600 117296160.28200                                  22525510.92700  88395123.43200  22525516.18100  95312813.07000  22525499.09800 118372217.09300
C39  26228693.26900 136579697.16010                                  26228688.80100 102927044.46500  26228684.62000 110982228.04800  26228706.17000 137832689.80710
> 2026 06 07 17 06 03.0000000  0 13
C01  38581650.82300 200904880.58700                                                                  38581646.37400 163251581.22500                                
C02  36966504.34200 192494235.98400                                                                  36966493.22800 156417329.14800                                
C03  37004530.80300 192692306.50700                                                                  37004519.50900 156578242.03700                                
C07                                                                                                  37174841.69300 157298876.73500                                
C08  38241473.46200 199133391.95600                                                                  38241467.40400 161812205.98400                                
C09  38762202.54000 201844885.19700  38762200.87900 156079302.55400                                  38762198.25200 164015542.39300                                
C10                                  37314823.20600 150251310.62200                                  37314818.98900 157891245.83400                                
C12  22861246.69300 119044558.09600                                                                  22861239.63400  96733360.95900                                
C19  22325165.30000 116253042.44500                                  22325164.24600  87608735.77300  22325156.24100  94465018.67000  22325160.88700 117319515.46100
C20  24662439.95500 128423862.47000                                  24662440.72300  96780701.24700  24662434.64800 104354776.49500  24662435.66600 129602087.26700
C22  23447096.83400 122095210.10800                                  23447082.68200  92011403.97000  23447088.84700  99212336.36000  23447098.13900 123215342.06500
C36  22523535.57800 117285917.07500                                  22523543.58400  88387404.05100  22523544.53100  95304489.22600  22523533.41600 118361879.80000
C39  26222849.45500 136549272.93300                                  26222844.52300 102904108.34900  26222840.10900 110957496.90900  26222872.70200 137801975.29400
> 2026 06 07 17 06 18.0000000  0 13
C01  38581625.98500 200904751.11900                                                                  38581621.55400 163251476.02100                                
C02  36966703.93900 192495275.55300                                                                  36966692.78900 156418173.90200                                
C03  37004678.84700 192693078.15100                                                                  37004667.76900 156578869.09600                                
C07  37174794.43000 193578901.49610                                                                  37174793.30400 157298671.82800                                
C08  38236565.32400 199107832.93700                                                                  38236560.37400 161791437.23000                                
C09  38767766.54300 201873869.14900  38767765.84600 156101714.74900                                  38767764.86300 164039094.28300                                
C10                                  37314791.02400 150251182.58200                                  37314787.34300 157891111.31800                                
C12  22868808.23800 119083940.82700                                                                  22868802.05500  96765362.65300                                
C19  22328744.73400 116271681.57800                                  22328743.42900  87622782.28600  22328736.37100  94480164.48500  22328738.73000 117338325.53700
C20  24671693.48200 128472045.74900                                  24671696.05500  96817012.32000  24671688.99700 104393929.33500  24671688.01400 129650712.59500
C22  23441808.60400 122067670.15800                                                                  23441799.02600  99189957.90900                                
C36  22521575.54300 117275714.72500                                  22521585.26400  88379715.41600  22521583.03000  95296198.88700  22521575.95400 118351583.66300
C39                                                                  26217004.22900 102881192.64400  26217000.60200 110932787.77100  26217029.55000 137771288.07000
> 2026 06 07 17 06 33.0000000  0 13
C01  38581602.72000 200904630.11500                                                                  38581598.21700 163251377.67700                                
C02  36966905.16200 192496323.65400                                                                  36966894.08400 156419025.57200                                
C03  37004828.53600 192693858.23600                                                                  37004817.69000 156579502.98900                                
C07  37174748.18500 193578642.90800                                                                  37174741.94900 157298461.68700                                
C08  38231661.92100 199082298.49700                                                                  38231658.36500 161770688.41800                                
C09  38773334.83400 201902871.12600  38773334.88800 156124140.88800                                  38773334.78100 164062660.79100                                
C10  37314764.68500 194307761.49110  37314756.94700 150251047.28500                                  37314753.99900 157890969.12400                                
C12  22876386.34800 119123406.45200                                                                  22876382.09500  96797431.69500                                
C19  22332348.50500 116290447.46900                                  22332347.66500  87636924.32300  22332341.07100  94495413.31200  22332343.69800 117357263.62200
C20  24680956.19400 128520276.66900                                  24680959.76800  96853359.30200  24680951.53000 104433120.89900  24680950.11800 129699385.98000
C22  23436541.58500 122040240.91600                                                                  23436530.29100  99167669.41200                                
C36  22519627.49800 117265565.39800                                  22519637.46900  88372066.93500                                  22519626.30100 118341341.52800
C39                                                                  26211170.81500 102858306.67300  26211167.81300 110908110.72700  26211193.49100 137740640.67000
> 2026 06 07 17 06 48.0000000  0 13
C01  38581580.54400 200904514.79900                                                                  38581576.04100 163251284.02700                                
C02  36967107.54700 192497377.60500                                                                  36967096.64700 156419882.02200                                
C03  37004979.31500 192694643.94200                                                                  37004968.62900 156580141.46800                                
C07  37174697.00800 193578375.36900                                                                  37174687.32300 157298244.26700                                
C08  38226762.82400 199056785.92700                                                                  38226760.43000 161749957.42200                                
C09  38778906.82500 201931888.27400  38778907.57500 156146578.89300                                  38778907.59300 164086239.64500                                
C10  37314725.99800 194307551.48300  37314720.62000 150250902.70200                                  37314718.24300 157890817.18000                                
C12  22883980.61100 119162951.92500                                                                  22883977.16200  96829565.60500                                
C19  22335975.61200 116309337.21100                                  22335976.25600  87651159.73400  22335969.25100  94510762.81900  22335970.82400 117376326.74000
C20  24690226.96500 128568552.14800                                  24690230.19900  96889739.87200  24690222.26500 104472348.66100  24690219.40600 129748104.34400
C22  23431295.22200 122012919.97100                                                                  23431282.74900  99145468.91100                                
C36  22517688.88800 117255466.44300                                  22517697.10700  88364456.40800  22517696.30300  95279790.91410  22517686.85100 118331150.00400
C39                                                                  26205344.88800 102835448.41400  26205341.42200 110883463.53800  26205365.02700 137710030.35600
> 2026 06 07 17 07 03.0000000  0 13
C01  38581558.35100 200904399.46800                                                                  38581553.83000 163251190.32500                                
C02  36967309.91400 192498431.64800                                                                  36967299.13900 156420738.53100                                
C03  37005130.14700 192695429.61900                                                                  37005119.58700 156580779.92100                                
C07  37174642.81100 193578093.08300                                                                  37174627.78300 157298014.99500                                
C08  38221866.85500 199031289.59100                                                                  38221864.87200 161729239.62900                                
C09  38784482.06700 201960914.77200  38784482.40700 156169024.02100                                  38784481.01300 164109826.08400                                
