     3.05           OBSERVATION DATA    M                   RINEX VERSION / TYPE
rtklib_java         USER                20260627 031352     PGM / RUN BY / DATE 
ROVER                                                       MARKER NAME         
ROVER                                                                           MARKER NUMBER       
USER                AGENCY                                  OBSERVER / AGENCY   
                    UNKNOWN                                 REC # / TYPE / VERS 
                    UNKNOWN                                                     ANT # / TYPE        
  -492860.3329  5551481.2314  3092889.6323                  APPROX POSITION XYZ 
        0.0000        0.0000        0.0000                  ANTENNA: DELTA H/E/N
C   10 C2I L2I C7I L7I C5P L5P C6I L6I C1P L1P              SYS / # / OBS TYPES 
  2026    06    07    17    00   18.0000000     GPS                  TIME OF FIRST OBS
                                                            END OF HEADER       
> 2026 06 07 17 00 18.0000000  0 13
C01  38582162.03809 200907540.10209              00              00              00              00  38582157.28509 163253741.86609              00              00
C02  36961861.07709 192470049.90709              00              00              00              00  36961844.56609 156397675.42209              00              00
C03  37001066.89209 192674235.16309              00              00              00              00  37001048.30909 156563557.15509              00              00
C07  37175104.26109 193580527.60909              00              00              00              00  37175093.96809 157299992.52109              00              00
C08  38355126.52309 199725211.63509              00              00              00              00  38355122.62809 162293106.72009              00              00
C09  38634669.12609 201180806.80009  38634677.61309 155565788.52809              00              00              00              00              00              00
C10              00              00  37314548.80909 150250203.69409              00              00  37314544.59209 157890082.62209              00              00
C12  22691289.91209 118159482.59509              00              00              00              00  22691285.30209  96014238.40509              00              00
C19  22249106.01809 115856981.63609              00              00  22249105.30409  87310262.60709  22249097.74509  94143186.73309  22249100.64009 116919821.08209
C20  24451758.43809 127326786.26109              00              00  24451761.15409  95953940.68309  24451753.13109 103463312.62109  24451753.25609 128494946.06809
C22  23574002.06409 122756002.76409              00              00              00              00  23573995.64909  99749284.74009  23574002.51009 123882211.39109
C36  22570957.35609 117532851.18509              00              00  22570962.50309  88573487.17709  22570982.15909  95505137.05509  22570953.40709 118611070.36109
C39  26358757.25909 137256812.47209              00              00  26358767.10409 103437434.45209  26358765.38909 111532563.46109  26358757.68809 138516269.45509
> 2026 06 07 17 00 33.0000000  0 13
C01  38582143.36509 200907443.18009              00              00              00              00  38582138.68309 163253663.12309              00              00
C02  36962066.23109 192471118.37109              00              00              00              00  36962049.82709 156398543.66709              00              00
C03  37001221.13809 192675039.67309              00              00              00              00  37001202.87609 156564210.88109              00              00
C07  37175127.45509 193580652.57909              00              00              00              00              00              00              00              00
C08  38350156.84409 199699334.62509              00              00              00              00  38350153.12809 162272079.60309              00              00
C09  38640199.39209 201209577.22309  38640201.51809 155588035.55209              00              00              00              00              00              00
C10  37314599.55709 194306910.88309  37314601.54009 150250418.12609              00              00  37314597.85909 157890307.94409              00              00
C12  22698517.68209 118197114.97809              00              00              00              00  22698512.50009  96044817.74909              00              00
C19  22252162.39009 115872896.66409              00              00  22252162.72909  87322256.24109  22252153.97309  94156118.97809  22252156.81509 116935882.11909
C20  24460829.54009 127374023.86309              00              00  24460832.20309  95989539.12709  24460824.41209 103501697.06509  24460825.73409 128542617.07209
C22              00              00              00              00              00              00              00              00  23568279.79509 123852139.92109
C36  22568800.86909 117521624.05409              00              00  22568805.08609  88565026.42409  22568800.15419  95495978.48219  22568796.54509 118599740.26409
C39  26352785.59209 137225715.49509              00              00  26352792.34709 103413999.53209  26352787.93309 111507294.59809  26352784.35909 138484887.14909
> 2026 06 07 17 00 48.0000000  0 13
C01  38582125.97809 200907352.83309              00              00              00              00  38582121.33209 163253589.75409              00              00
C02  36962272.69009 192472193.63009              00              00              00              00  36962256.42909 156399417.39609              00              00
C03  37001376.68809 192675850.82809              00              00              00              00  37001358.69409 156564870.01109              00              00
C07  37175149.48709 193580769.08509              00              00              00              00              00              00              00              00
C08  38345191.72209 199673478.65809              00              00              00              00  38345188.13009 162251069.58109              00              00
C09  38645734.53609 201238365.92109  38645728.97909 155610296.68509              00              00              00              00              00              00
C10  37314652.68209 194307176.89809  37314652.05609 150250623.84109              00              00  37314648.42909 157890524.16109              00              00
C12  22705762.14109 118234834.29509              00              00              00              00  22705756.13709  96075467.69909              00              00
C19  22255243.22409 115888939.44209              00              00  22255243.65309  87334346.14409  22255234.71809  94169155.03009  22255236.98709 116952072.04909
C20  24469911.22109 127421313.68509              00              00  24469913.15109  96025176.91809  24469904.68109 103540123.91809  24469905.71809 128590340.71609
C22              00              00              00              00              00              00              00              00  23562567.64019 123822145.11319
C36  22566655.44309 117510450.54409              00              00  22566659.05209  88556606.08109  22566657.44409  95486899.13409  22566650.88609 118588464.31209
C39  26346821.23409 137194656.72509              00              00  26346812.49609 103390593.86609  26346818.41009 111482056.76609  26346818.92909 138453543.55709
> 2026 06 07 17 01  3.0000000  0 12
C01  38582106.17909 200907249.89809              00              00              00              00  38582101.46209 163253506.13609              00              00
C02  36962476.75409 192473256.48209              00              00              00              00  36962460.92209 156400281.05009              00              00
C03  37001529.73609 192676649.33409              00              00              00              00  37001512.01009 156565518.90309              00              00
C07  37175166.60609 193580857.69609              00              00              00              00              00              00              00              00
C08  38340226.97509 199647624.62609              00              00              00              00  38340223.77609 162230061.10909              00              00
C09  38651269.12609 201267153.61009  38651256.08209 155632557.02909              00              00              00              00              00              00
C10  37314698.42609 194307412.48909  37314696.81809 150250805.94109              00              00  37314692.99409 157890715.56209              00              00
C12  22713016.98209 118272621.03109              00              00              00              00  22713012.62209  96106172.46309              00              00
C19  22258344.98209 115905090.66209              00              00  22258344.53609  87346517.76009  22258336.81609  94182279.19109  22258337.85309 116968371.44909
C20  24478999.19209 127468636.23809              00              00  24478998.51309  96060839.31709  24478990.88309 103578577.31809  24478994.11709 128638097.41209
C36              00              00              00              00  22564519.38009  88548211.65009  22564518.73609  95477847.68109  22564511.78509 118577223.09409
C39  26340859.18109 137163617.03109              00              00  26340851.14009 103367202.24409  26340855.03509 111456834.42009  26340856.23209 138422218.91909
> 2026 06 07 17 01 18.0000000  0 12
C01  38582082.80709 200907128.40809              00              00              00              00  38582078.12509 163253407.37809              00              00
C02  36962677.28009 192474300.92709              00              00              00              00  36962661.75209 156401129.79309              00              00
C03  37001679.22809 192677429.31209              00              00              00              00  37001661.73409 156566152.70309              00              00
C07  37175177.13109 193580912.60109              00              00              00              00  37175174.82619 157300320.32719              00              00
C08  38335261.33409 199621766.58909              00              00              00              00  38335258.70709 162209049.38609              00              00
C09  38656802.26909 201295934.17009  38656782.04109 155654811.96309              00              00              00              00              00              00
C10  37314737.04109 194307611.66509  37314734.73609 150250959.95409              00              00  37314730.55509 157890877.34409              00              00
C12  22720284.60009 118310468.88309              00              00              00              00  22720281.56209  96136927.00909              00              00
C19  22261466.32509 115921344.23009              00              00  22261464.75309  87358766.51309  22261458.28409  94195486.52509  22261459.76709 116984774.16409
C20  24488091.71909 127515985.22709              00              00  24488089.50309  96096521.71309  24488084.58909 103617052.22509  24488086.35809 128685880.80209
C36  22562382.87019 117488191.79019              00              00  22562384.76409  88539838.53609  22562384.42509  95468819.19009  22562379.83209 118566010.34709
C39  26334900.00409 137132590.27609              00              00  26334898.61109 103343820.36909  26334895.62709 111431622.63509  26334896.19809 138390907.41509
> 2026 06 07 17 01 33.0000000  0 12
C01  38582064.20509 200907031.86209              00              00              00              00  38582059.84509 163253328.95909              00              00
C02  36962882.57709 192475370.49009              00              00              00              00  36962867.42409 156401998.93809              00              00
C03  37001833.49109 192678234.19509              00              00              00              00  37001816.35509 156566806.75809              00              00
C07              00              00              00              00              00              00  37175186.95919 157300382.09819              00              00
C08  38330303.21609 199595948.13609              00              00              00              00  38330300.89309 162188069.81809              00              00
C09  38662300.80019 201324741.99219  38662315.02409 155677095.06109              00              00              00              00              00              00
C10  37314776.88909 194307817.91609  37314774.13709 150251119.48109              00              00  37314769.86709 157891044.99209              00              00
C12  22727574.35709 118348421.42709              00              00              00              00  22727571.48009  96167766.48409              00              00
C19  22264615.58009 115937743.53909              00              00  22264614.11509  87371125.10109  22264609.52209  94208812.30909  22264609.50409 117001323.95209
C20  24497197.72009 127563403.88209              00              00  24497196.79009  96132256.56809  24497193.50209 103655583.74509  24497192.94909 128733734.55709
C36  22560263.85409 117477152.61609              00              00  22560265.64109  88531519.41809  22560264.08609  95459848.96209  22560260.45909 118554869.90709
C39  26328952.12109 137101620.02509              00              00  26328952.85409 103320481.05609  26328944.83109 111406456.76209  26328948.81609 138359652.91309
> 2026 06 07 17 01 48.0000000  0 12
C01  38582040.72509 200906909.59309              00              00              00              00  38582036.13309 163253229.64609              00              00
C02  36963082.99609 192476414.52809              00              00              00              00  36963068.32609 156402847.31609              00              00
C03  37001982.84109 192679013.41109              00              00              00              00  37001965.99009 156567439.94809              00              00
C08  38325342.91809 199570118.72409              00              00              00              00  38325340.39909 162167081.37109              00              00
C09  38667835.21209 201353544.66209  38667845.55809 155699367.09209              00              00              00              00              00              00
C10  37314807.58809 194307980.60909  37314805.30109 150251245.21609              00              00  37314801.01209 157891177.19509              00              00
C12  22734873.62109 118386427.58909              00              00              00              00  22734869.76109  96198649.53609              00              00
C19  22267783.04309 115954237.88509              00              00  22267781.72109  87383555.27009  22267776.00209  94222215.29109  22267777.62909 117017969.60209
C20  24506307.72309 127610841.33209              00              00  24506309.86709  96168005.59809  24506304.43509 103694130.57009  24506302.73709 128781607.23709
C22              00              00              00              00              00              00  23539926.92719  99605135.26819              00              00
C36  22558146.66109 117466134.51709              00              00  22558150.66309  88523216.10109  22558146.87509  95450895.79709  22558143.60509 118543750.66009
C39  26323005.11409 137070655.58109              00              00  26323004.47109 103297146.16009  26322996.68009 111381295.64109  26323004.27409 138328404.36809
> 2026 06 07 17 02  3.0000000  0 12
C01  38582013.17109 200906766.17009              00              00              00              00  38582008.63209 163253113.04409              00              00
C02  36963279.43009 192477437.54309              00              00              00              00  36963265.09909 156403678.64009              00              00
C03  37002128.15209 192679771.41509              00              00              00              00  37002111.62309 156568055.91909              00              00
C08  38320381.54809 199544282.92909              00              00              00              00  38320378.52909 162146087.72809              00              00
C09  38673365.49509 201382337.23109  38673374.21609 155721631.37109              00              00              00              00              00              00
C10  37314830.56809 194308104.25309  37314828.97709 150251340.88009              00              00  37314824.99309 157891277.63309              00              00
C12  22742183.58809 118424491.59309              00              00              00              00  22742178.37009  96229579.62609              00              00
C19  22270969.64409 115970831.60109              00              00  22270969.26809  87396060.37709  22270961.63809  94235699.05109  22270963.42509 117034715.54509
C20  24515422.56809 127658301.82609              00              00  24515426.10609  96203771.98409  24515418.36909 103732696.09109  24515417.19009 128829503.16009
C22  23534315.82119 122549440.62619              00              00              00              00  23534308.83519  99581365.02219              00              00
C36  22556033.72009 117455141.78509              00              00  22556040.01009  88514931.90009  22556035.06009  95441963.23809  22556030.93309 118532657.03609
C39  26317060.25109 137039701.44809              00              00  26317059.12509 103273819.11209  26317053.31809 111356142.76109  26317059.57209 138297166.31709
> 2026 06 07 17 02 18.0000000  0 12
C01  38581987.42209 200906631.97009              00              00              00              00  38581982.65109 163253004.09309              00              00
C02  36963477.56209 192478469.96809              00              00              00              00  36963463.66009 156404517.59309              00              00
C03  37002275.23209 192680538.65309              00              00              00              00  37002258.88109 156568679.38009              00              00
C08  38315424.66409 199518471.23309              00              00              00              00  38315421.30409 162125113.65809              00              00
C09  38678900.19309 201411150.34609  38678906.78709 155743911.51509              00              00              00              00              00              00
C10  37314851.13519 194308220.23319  37314851.06309 150251429.83409              00              00  37314847.97209 157891371.06509              00              00
C12  22749510.81709 118462643.66809              00              00              00              00  22749505.00909  96260581.26209              00              00
C19  22274181.49309 115987555.04209              00              00  22274182.45809  87408663.22309  22274175.34609  94249288.20709  22274174.64909 117051592.31809
C20  24524547.56409 127705815.47209              00              00  24524550.36909  96239578.44009  24524542.43509 103771304.76809  24524542.20309 128877452.69609
C22  23528717.20609 122520289.54109              00              00              00              00  23528712.66809  99557677.44609              00              00
C36  22553931.75109 117444204.69009              00              00  22553940.36409  88506689.65109  22553934.37809  95433075.94309  22553929.75009 118521619.66309
C39  26311123.51819 137008858.99319              00              00  26311121.35609 103250522.68309  26311131.45209 111331022.74809  26311124.37609 138265969.31509
> 2026 06 07 17 02 33.0000000  0 12
C01  38581963.19109 200906505.74709              00              00              00              00  38581958.51009 163252901.49509              00              00
C02  36963677.28409 192479510.54609              00              00              00              00  36963663.81109 156405363.14109              00              00
C03  37002423.74109 192681313.84809              00              00              00              00  37002407.87309 156569309.30609              00              00
C08  38310471.88909 199492682.48309              00              00              00              00  38310468.95809 162104158.22609              00              00
C09  38684438.07109 201439982.45709  38684442.93209 155766206.32709              00              00  38684439.39409 163686533.08709              00              00
C10  37314873.25709 194308325.38609  37314871.34509 150251511.14109              00              00  37314868.95009 157891456.53509              00              00
C12  22756854.36009 118500882.29509              00              00              00              00  22756848.94509  96291653.19409              00              00
C19  22277418.10909 116004406.81109              00              00  22277418.25209  87421362.77609  22277411.56909  94262981.67709  22277411.39109 117068598.66409
C20  24533682.08309 127753380.71209              00              00  24533683.85209  96275423.76209  24533676.04309 103809955.38709  24533676.47209 128925454.32109
C22  23523138.92609 122491244.97909              00              00              00              00  23523135.03109  99534076.35609              00              00
C36  22551841.93309 117433321.92509              00              00  22551851.15409  88498488.35709  22551844.52409  95424232.82109  22551841.57609 118510637.01509
C39  26305196.66709 136977984.95209              00              00  26305192.05709 103227255.98709  26305202.13509 111305935.04109  26305196.45309 138234812.11709
> 2026 06 07 17 02 48.0000000  0 12
C01  38581941.71309 200906394.07409              00              00              00              00  38581936.92409 163252810.74509              00              00
C02  36963879.83009 192480565.78509              00              00              00              00  36963867.08909 156406220.66109              00              00
C03  37002575.12709 192682103.61609              00              00              00              00  37002559.58109 156569951.05509              00              00
C08  38305524.72509 199466923.28109              00              00              00              00  38305522.59809 162083226.81509              00              00
C09  38689980.79209 201468840.13609  38689983.75809 155788520.90009              00              00              00              00              00              00
C10  37314893.23409 194308427.24309  37314891.07209 150251589.92309              00              00  37314889.55309 157891539.29209              00              00
C12  22764214.21709 118539213.66909              00              00              00              00  22764211.73309  96322800.54509              00              00
C19  22280680.17109 116021393.32709              00              00  22280678.72409  87434163.85909  22280670.82609  94276784.63309  22280674.77509 117085741.05809
C20  24542827.32409 127801003.89109              00              00  24542829.20009  96311312.72109  24542821.21309 103848653.06609  24542822.01709 128973514.34809
C22  23517582.71419 122462229.87619              00              00              00              00  23517576.69309  99510567.47409              00              00
C36  22549764.42709 117422499.92309              00              00  22549772.98609  88490332.90209  22549766.41109  95415439.08909  22549763.83709 118499715.74309
C39  26299276.62409 136947156.98109              00              00  26299272.94309 103204023.98509  26299278.78609 111280884.76609              00              00
> 2026 06 07 17 03  3.0000000  0 13
C01  38581920.10909 200906281.48209              00              00              00              00  38581915.32009 163252719.29709              00              00
C02  36964082.28609 192481620.28309              00              00              00              00  36964069.49109 156407077.54309              00              00
C03  37002726.28109 192682892.41609              00              00              00              00  37002711.12809 156570592.05209              00              00
C08  38300580.47309 199441178.25509              00              00              00              00  38300579.04409 162062306.92209              00              00
C09  38695525.37109 201497707.73409  38695526.60409 155810843.13709              00              00  38695522.29809 163733418.70109              00              00
C10  37314909.90609 194308510.30909  37314907.19009 150251654.18009              00              00  37314906.35009 157891606.86109              00              00
C12  22771589.26309 118577622.16609              00              00              00              00  22771588.03009  96354010.61809              00              00
C19  22283964.40809 116038498.99709              00              00  22283963.67509  87447054.77709  22283951.65009  94290684.39109  22283960.40509 117103003.74009
C20  24551980.49909 127848669.16509              00              00  24551983.21509  96347233.46009  24551975.72809 103887384.98209  24551975.22709 129021616.90009
C22  23512046.87319 122433398.11419              00              00              00              00  23512039.06409  99487138.44309              00              00
C27  25387805.63809 132200982.30609              00              00              00              00              00              00              00              00
C36  22547695.80209 117411723.17209              00              00  22547702.73509  88482211.55609  22547697.17809  95406682.11309  22547693.30009 118488840.18109
C39  26293362.38809 136916359.43409              00              00  26293358.06409 103180814.88809  26293361.72709 111255859.31509              00              00
> 2026 06 07 17 03 18.0000000  0 13
C01  38581899.68509 200906175.08109              00              00              00              00  38581894.78909 163252632.82609              00              00
C02  36964285.90309 192482681.11309              00              00              00              00  36964273.37709 156407939.58309              00              00
C03  37002878.61509 192683687.35709              00              00              00              00  37002863.78409 156571238.06209              00              00
C08  38295640.60009 199415454.58409              00              00              00              00  38295639.22409 162041404.40309              00              00
C09  38701073.41709 201526592.35409  38701073.04209 155833178.58909              00              00  38701068.50309 163756890.81109              00              00
C10  37314924.54109 194308581.73009  37314921.11009 150251709.38909              00              00  37314919.85909 157891664.83309              00              00
C12  22778980.62409 118616114.64409              00              00              00              00  22778978.40809  96385288.89809              00              00
C19  22287273.69809 116055730.95809              00              00  22287273.84009  87460040.84409  22287262.95809  94304686.69009  22287269.65909 117120393.74209
C20  24561143.73409 127896383.42909              00              00  24561146.53909  96383191.12509  24561139.26609 103926156.73909  24561139.33809 129069768.96009
C22              00              00              00              00              00              00  23506523.41509  99463795.23309  23506535.58409 123527681.09809
C27  25384261.96109 132182483.17109              00              00              00              00              00              00  25384259.35209 133395164.96209
C36  22545636.59409 117400998.69109              00              00  22545644.47409  88474129.61409  22545639.38109  95397967.59309  22545633.62709 118478017.26309
C39  26287454.42509 136885599.59809              00              00  26287449.31409 103157634.14209  26287449.47509 111230864.37209              00              00
> 2026 06 07 17 03 33.0000000  0 14
C01  38581878.61709 200906065.51609              00              00              00              00  38581873.82909 163252543.84209              00              00
C02  36964488.98509 192483738.95209              00              00              00              00  36964476.83409 156408799.17809              00              00
C03  37003030.35909 192684479.13209              00              00              00              00  37003015.81309 156571881.46709              00              00
C07              00              00              00              00              00              00  37175137.06809 157300171.35009              00              00
C08  38290703.35309 199389742.98009              00              00              00              00  38290701.35109 162020511.68209              00              00
C09  38706622.62409 201555484.56009  38706620.94409 155855519.91209              00              00              00              00              00              00
C10  37314935.03009 194308632.13309  37314931.00909 150251748.35209              00              00  37314929.31209 157891705.80109              00              00
C12  22786385.56509 118654681.51309              00              00              00              00  22786383.52809  96416627.60009              00              00
C19  22290605.34109 116073079.59009              00              00  22290604.25109  87473114.84409  22290600.05209  94318783.87509  22290601.08809 117137901.50909
C20  24570315.08109 127944137.13409              00              00  24570317.08309  96419178.44109  24570309.36309 103964960.49409  24570310.11409 129117960.74009
C22              00              00              00              00              00              00  23501027.20809  99440530.33209  23501035.05209 123498787.64509
C27  25380728.80809 132164068.55909              00              00              00              00              00              00              00              00
C36  22543585.17609 117390316.90409              00              00  22543594.77209  88466079.88009  22543587.26709  95389287.85209  22543582.83509 118467237.49409
C39  26281553.09109 136854867.85209              00              00  26281545.92509 103134474.71809  26281544.31709 111205892.37109              00              00
> 2026 06 07 17 03 48.0000000  0 13
C01  38581862.64209 200905982.47309              00              00              00              00  38581857.81809 163252476.37509              00              00
C02  36964697.19409 192484823.44609              00              00              00              00  36964685.25809 156409680.44909              00              00
C03  37003187.14109 192685297.40809              00              00              00              00  37003172.98909 156572546.38809              00              00
C07              00              00              00              00              00              00  37175127.08019 157300127.94019              00              00
C08  38285774.30809 199364073.16609              00              00              00              00  38285771.25209 161999652.92209              00              00
C09  38712178.21109 201584413.88109  38712175.79809 155877889.81709              00              00              00              00              00              00
C10  37314946.82409 194308691.22509  37314942.64209 150251794.05009              00              00  37314940.10509 157891753.84409              00              00
C12  22793810.84109 118693352.11909              00              00              00              00  22793809.44709  96448050.63309              00              00
C19  22293965.03909 116090574.47709              00              00  22293963.07409  87486299.05809  22293961.10809  94332999.95109  22293960.57209 117155556.86509
C20  24579498.95509 127991959.59609              00              00  24579500.90309  96455217.62309  24579492.27209 104003820.13309  24579491.77209 129166221.85009
C22              00              00              00              00              00              00  23495555.37309  99417368.17309  23495561.19909 123470021.70209
C36  22541548.09009 117379707.46609              00              00  22541556.59509  88458084.68809  22541546.64209  95380666.94209  22541545.87409 118456530.77709
C39  26275663.19309 136824193.87609              00              00  26275655.36609 103111358.85509  26275651.56009 111180967.40509              00              00
> 2026 06 07 17 04  3.0000000  0 13
C01  38581839.89509 200905864.02509              00              00              00              00  38581835.05309 163252380.18109              00              00
C02  36964898.59609 192485872.70109              00              00              00              00  36964886.85609 156410533.07809              00              00
C03  37003337.22309 192686080.26409              00              00              00              00  37003323.39309 156573182.53509              00              00
C07              00              00              00              00              00              00  37175107.51309 157300040.61109              00              00
C08  38280841.33209 199338383.37009              00              00              00              00  38280837.36509 161978777.92209              00              00
C09  38717729.22309 201613318.16909  38717725.98809 155900240.44809              00              00              00              00              00              00
C10  37314947.91409 194308697.09009  37314944.12509 150251798.57009              00              00  37314940.71209 157891758.60509              00              00
C12  22801245.98009 118732064.40509              00              00              00              00  22801244.78309  96479507.49309              00              00
C19  22297340.80109 116108153.58509              00              00  22297339.06809  87499546.79109  22297335.60109  94347284.48709  22297337.65609 117173297.29909
C20  24588683.52509 128039788.63609              00              00  24588685.81309  96491261.74609  24588676.48509 104042685.12909  24588677.32509 129214489.67909
C22              00              00              00              00              00              00  23490095.10009  99394258.46509  23490099.60309 123441321.08009
C36  22539513.14709 117369108.56009              00              00  22539518.91909  88450097.37009  22539511.61109  95372054.42009  22539510.61009 118445834.58409
C39  26269772.15109 136793515.91809              00              00  26269765.34309 103088239.88809  26269762.07309 111156039.10509  26269793.88019 138048629.88019
> 2026 06 07 17 04 18.0000000  0 13
C01  38581814.66409 200905732.66309              00              00              00              00  38581809.91109 163252273.46709              00              00
C02  36965097.55009 192486909.12709              00              00              00              00  36965085.82809 156411375.31609              00              00
C03  37003484.69609 192686850.14009              00              00              00              00  37003471.31209 156573808.15509              00              00
C07  37175095.80919 193580504.62019              00              00              00              00  37175082.28209 157299930.53109              00              00
C08  38275908.39109 199312696.12209              00              00              00              00  38275904.12109 161957904.94009              00              00
C09  38723280.84209 201642220.00809  38723275.71409 155922589.15709              00              00              00              00              00              00
C10  37314942.62409 194308672.16709  37314939.64009 150251779.30309              00              00  37314935.35209 157891738.33209              00              00
C12  22808694.84309 118770840.56309              00              00              00              00  22808695.34409  96511016.23209              00              00
C19  22300736.91609 116125839.27109              00              00  22300735.23709  87512874.80209  22300728.98209  94361655.57209  22300734.36109 117191145.23009
C20  24597873.02809 128087646.29409              00              00  24597875.79809  96527327.51309  24597866.39909 104081573.44409  24597867.50609 129262786.46909
C22  23484660.64809 122290781.91609              00              00              00              00  23484652.12409  99371219.79009  23484653.55409 123412708.42909
C36  22537483.04809 117358542.42509              00              00  22537489.33809  88442134.67709  22537482.92309  95363468.45109  22537481.97609 118435171.41709
C39              00              00              00              00  26263877.91109 103065134.78709  26263874.03309 111131125.68609  26263905.19709 138017688.91809
> 2026 06 07 17 04 33.0000000  0 14
C01  38581793.38209 200905622.00809              00              00              00              00  38581788.70009 163252183.49609              00              00
C02  36965300.50609 192487966.48809              00              00              00              00  36965289.24909 156412234.51109              00              00
C03  37003636.22609 192687640.73709              00              00              00              00  37003623.16309 156574450.57809              00              00
C07  37175070.91709 193580375.04709              00              00              00              00  37175058.03409 157299825.19709              00              00
C08  38270981.86609 199287045.17609              00              00              00              00  38270977.68509 161937061.47909              00              00
C09  38728839.48409 201671152.99009  38728831.76509 155944961.89009              00              00              00              00              00              00
C10  37314937.51409 194308650.15509  37314935.69109 150251762.25009              00              00  37314930.81309 157891720.43609              00              00
C12              00              00              00              00              00              00  22816161.70009  96542604.00409              00              00
C19  22304159.87109 116143665.07109              00              00  22304160.12109  87526308.44609  22304153.18809  94376140.50009  22304157.67309 117209134.59609
C20  24607075.55709 128135566.22509              00              00  24607078.09409  96563440.16109  24607069.05309 104120512.31109  24607069.58909 129311146.01709
C22  23479238.82909 122262550.77109              00              00  23479223.01509  92137512.60909              00              00  23479231.93109 123384218.36509
C27  25366726.55319 132091198.29019              00              00              00              00              00              00              00              00
C36  22535466.38509 117348042.52009              00              00  22535472.46109  88434221.93709  22535466.74309  95354936.32609  22535464.59909 118424575.20309
C39  26258027.11019 136732462.90519              00              00  26258001.96909 103042068.78409  26257993.71309 111106254.47609  26258022.82219 137986842.43419
> 2026 06 07 17 04 48.0000000  0 14
C01  38581772.04709 200905511.00409              00              00              00              00  38581767.22209 163252093.39809              00              00
C02  36965503.46309 192489023.62909              00              00              00              00  36965492.15209 156413093.52009              00              00
C03  37003787.68409 192688430.97109              00              00              00              00  37003775.05009 156575092.74509              00              00
C07              00              00              00              00              00              00  37175030.42609 157299707.50809              00              00
C08  38266058.14609 199261409.47109              00              00              00              00  38266053.98309 161916230.40609              00              00
C09  38734400.05609 201700095.80309  38734390.85309 155967342.24009              00              00              00              00              00              00
C10              00              00  37314928.20409 150251731.14309              00              00  37314922.64709 157891687.77509              00              00
C12  22823649.01819 118848752.71819              00              00              00              00  22823638.08209  96574253.41209              00              00
C19  22307605.91209 116161609.82209              00              00  22307606.91209  87539831.70809  22307601.49809  94390722.08709  22307603.91009 117227243.93709
C20  24616285.91209 128183526.93409              00              00  24616289.20009  96599583.56409  24616280.57009 104159484.33509  24616281.60609 129359546.79509
C22  23473835.84409 122234420.00609              00              00  23473820.92309  92116313.16109              00              00  23473830.50109 123355829.45509
C27  25363259.26509 132073145.24409              00              00              00              00              00              00              00              00
C36  22533458.74709 117337587.72609              00              00  22533463.51809  88426343.27009  22533468.86119  95346476.71619  22533455.78109 118414024.57009
C39  26252151.07909 136701886.05809              00              00  26252130.51109 103019026.03409  26252121.84509 111081408.37009  26252143.00209 137955985.21509
> 2026 06 07 17 05  3.0000000  0 14
C01  38581742.45509 200905357.03209              00              00              00              00  38581737.50609 163251968.28009              00              00
C02  36965698.23509 192490037.89209              00              00              00              00  36965686.78109 156413917.75309              00              00
C03  37003930.93909 192689178.24209              00              00              00              00  37003918.68109 156575699.95409              00              00
C07              00              00              00              00              00              00  37174991.41809 157299542.78309              00              00
C08  38261129.53009 199235746.41809              00              00              00              00  38261124.74109 161895377.14509              00              00
C09  38739953.62309 201729005.84509  38739944.36709 155989697.31609              00              00              00              00              00              00
C10              00              00  37314908.97709 150251653.03709              00              00  37314903.06209 157891605.64409              00              00
C12  22831134.06509 118887735.02009              00              00              00              00  22831120.23509  96605929.59009              00              00
C19  22311066.53409 116179630.66109              00              00  22311067.21309  87553412.34909  22311062.54909  94405365.57809  22311064.81809 117245430.17809
C20  24625496.50009 128231485.50109              00              00  24625499.98509  96635725.32109  24625491.69409 104198454.59109  24625491.15809 129407945.35409
C22  23468443.52709 122206347.22409              00              00  23468430.60709  92095157.45409  23468436.00419  99302644.48219  23468440.38209 123327499.06009
C27  25359800.66209 132055122.45409              00              00              00              00              00              00              00              00
C36  22531451.66309 117327135.31309              00              00  22531456.14809  88418466.36509  22531463.17009  95337983.14709  22531448.32109 118403476.28109
C39  26246272.15209 136671297.72909              00              00  26246254.31909 102995974.50809  26246246.81409 111056552.79509  26246269.24009 137925116.22309
> 2026 06 07 17 05 18.0000000  0 13
C01  38581716.31309 200905220.91909              00              00              00              00  38581711.61409 163251857.72209              00              00
C02  36965896.52809 192491070.20609              00              00              00              00  36965885.02009 156414756.63509              00              00
C03  37004077.64409 192689943.37309              00              00              00              00  37004065.54709 156576321.69509              00              00
C07              00              00              00              00              00              00  37174953.75009 157299380.52009              00              00
C08  38256207.56109 199210116.99909              00              00              00              00  38256201.91509 161874551.20109              00              00
C09  38745511.64009 201757943.81109  38745503.93809 156012073.98909              00              00              00              00              00              00
C10              00              00  37314889.57109 150251574.94809              00              00  37314883.76409 157891523.59809              00              00
C12  22838637.30409 118926810.83309              00              00              00              00  22838626.06409  96637681.82309              00              00
C19  22314553.70909 116197788.44509              00              00  22314554.29909  87567096.15509  22314546.45509  94420120.29509  22314551.35109 117263754.50309
C20  24634718.27409 128279502.59509              00              00  24634720.86509  96671911.15809  24634712.57409 104237472.35709  24634714.02109 129456402.97209
C22  23463074.06409 122178393.53309              00              00  23463062.69909  92074091.48409  23463066.50509  99279929.83709  23463073.11709 123299288.89909
C36  22529456.46109 117316746.10109              00              00  22529463.37709  88410637.01109  22529469.48809  95329540.96409  22529453.33409 118392991.72309
C39  26240393.13619 136640553.07719              00              00  26240386.84709 102972959.97109  26240382.16509 111031737.05409  26240403.60809 137894296.69709
> 2026 06 07 17 05 33.0000000  0 13
C01  38581697.01509 200905120.64409              00              00              00              00  38581692.58309 163251776.21809              00              00
C02  36966101.62809 192492138.53009              00              00              00              00  36966090.40609 156415624.72409              00              00
C03  37004231.28209 192690744.24009              00              00              00              00  37004219.32809 156576972.54309              00              00
C07              00              00              00              00              00              00  37174921.56809 157299235.34709              00              00
C08  38251295.59909 199184539.25109              00              00              00              00  38251289.23809 161853767.25709              00              00
C09  38751076.66109 201786927.52809  38751072.42609 156034486.06409              00              00              00              00              00              00
C10              00              00  37314873.45309 150251510.82409              00              00  37314868.00309 157891456.22509              00              00
C12  22846161.64609 118965997.99009              00              00              00              00  22846155.28409  96669524.52209              00              00
C19  22318070.53009 116216100.90109              00              00  22318070.38709  87580896.50809  22318059.59409  94435000.66609  22318068.08209 117282235.00509
C20  24643953.80709 128327595.83509              00              00  24643955.04009  96708154.34609  24643946.60609 104276552.02809  24643951.09109 129504937.43109
C22  23457730.79709 122150577.25809              00              00  23457720.14709  92053128.96309  23457723.56009  99257326.73509  23457731.33309 123271217.17309
C36  22527477.39509 117306437.86509              00              00  22527485.15109  88402868.71609  22527490.85109  95321164.61109  22527473.58909 118382588.94209
C39  26234543.24709 136610080.54409              00              00  26234535.09909 102949995.92109  26234531.70409 111006975.76409  26234551.94909 137863544.66409
> 2026 06 07 17 05 48.0000000  0 13
C01  38581674.91109 200905005.94109              00              00              00              00  38581670.39009 163251683.03109              00              00
C02  36966303.99509 192493192.56209              00              00              00              00  36966293.11309 156416481.20509              00              00
C03  37004382.02509 192691530.70509              00              00              00              00  37004370.33909 156577611.63709              00              00
C07              00              00              00              00              00              00  37174884.59709 157299066.38509              00              00
C08  38246383.99409 199158962.96909              00              00              00              00  38246377.41909 161832984.45409              00              00
C09  38756639.78809 201815906.81909  38756637.78709 156056894.63209              00              00  38756632.78419 163991995.09019              00              00
C10              00              00  37314851.13509 150251421.73009              00              00  37314846.11409 157891362.62809              00              00
C12  22853697.72709 119005245.89009              00              00              00              00  22853692.29509  96701416.63509              00              00
C19  22321607.77409 116234517.71209              00              00  22321606.50609  87594775.48309  22321597.50009  94449965.82109  22321604.41509 117300820.79409
C20  24653193.77209 128375714.61109              00              00  24653194.07609  96744416.84009  24653186.74909 104315652.44209  24653191.05609 129553497.70209
C22  23452404.34509 122122848.05009              00              00  23452393.10609  92032232.16409  23452397.43009  99234794.51109  23452405.54209 123243233.66309
C36  22525503.72609 117296160.28209              00              00  22525510.92709  88395123.43209  22525516.18109  95312813.07009  22525499.09809 118372217.09309
C39  26228693.26919 136579697.16019              00              00  26228688.80109 102927044.46509  26228684.62009 110982228.04809  26228706.17019 137832689.80719
> 2026 06 07 17 06  3.0000000  0 13
C01  38581650.82309 200904880.58709              00              00              00              00  38581646.37409 163251581.22509              00              00
C02  36966504.34209 192494235.98409              00              00              00              00  36966493.22809 156417329.14809              00              00
C03  37004530.80309 192692306.50709              00              00              00              00  37004519.50909 156578242.03709              00              00
C07              00              00              00              00              00              00  37174841.69309 157298876.73509              00              00
C08  38241473.46209 199133391.95609              00              00              00              00  38241467.40409 161812205.98409              00              00
C09  38762202.54009 201844885.19709  38762200.87909 156079302.55409              00              00  38762198.25209 164015542.39309              00              00
C10              00              00  37314823.20609 150251310.62209              00              00  37314818.98909 157891245.83409              00              00
C12  22861246.69309 119044558.09609              00              00              00              00  22861239.63409  96733360.95909              00              00
C19  22325165.30009 116253042.44509              00              00  22325164.24609  87608735.77309  22325156.24109  94465018.67009  22325160.88709 117319515.46109
C20  24662439.95509 128423862.47009              00              00  24662440.72309  96780701.24709  24662434.64809 104354776.49509  24662435.66609 129602087.26709
C22  23447096.83409 122095210.10809              00              00  23447082.68209  92011403.97009  23447088.84709  99212336.36009  23447098.13909 123215342.06509
C36  22523535.57809 117285917.07509              00              00  22523543.58409  88387404.05109  22523544.53109  95304489.22609  22523533.41609 118361879.80009
C39  26222849.45509 136549272.93309              00              00  26222844.52309 102904108.34909  26222840.10909 110957496.90909  26222872.70209 137801975.29409
> 2026 06 07 17 06 18.0000000  0 13
C01  38581625.98509 200904751.11909              00              00              00              00  38581621.55409 163251476.02109              00              00
C02  36966703.93909 192495275.55309              00              00              00              00  36966692.78909 156418173.90209              00              00
C03  37004678.84709 192693078.15109              00              00              00              00  37004667.76909 156578869.09609              00              00
C07  37174794.43019 193578901.49619              00              00              00              00  37174793.30409 157298671.82809              00              00
C08  38236565.32409 199107832.93709              00              00              00              00  38236560.37409 161791437.23009              00              00
C09  38767766.54309 201873869.14909  38767765.84609 156101714.74909              00              00  38767764.86309 164039094.28309              00              00
C10              00              00  37314791.02409 150251182.58209              00              00  37314787.34309 157891111.31809              00              00
C12  22868808.23809 119083940.82709              00              00              00              00  22868802.05509  96765362.65309              00              00
C19  22328744.73409 116271681.57809              00              00  22328743.42909  87622782.28609  22328736.37109  94480164.48509  22328738.73009 117338325.53709
C20  24671693.48209 128472045.74909              00              00  24671696.05509  96817012.32009  24671688.99709 104393929.33509  24671688.01409 129650712.59509
C22  23441808.60409 122067670.15809              00              00              00              00  23441799.02609  99189957.90909              00              00
C36  22521575.54309 117275714.72509              00              00  22521585.26409  88379715.41609  22521583.03009  95296198.88709  22521575.95409 118351583.66309
C39              00              00              00              00  26217004.22909 102881192.64409  26217000.60209 110932787.77109  26217029.55009 137771288.07009
> 2026 06 07 17 06 33.0000000  0 13
C01  38581602.72009 200904630.11509              00              00              00              00  38581598.21709 163251377.67709              00              00
C02  36966905.16209 192496323.65409              00              00              00              00  36966894.08409 156419025.57209              00              00
C03  37004828.53609 192693858.23609              00              00              00              00  37004817.69009 156579502.98909              00              00
C07  37174748.18509 193578642.90809              00              00              00              00  37174741.94909 157298461.68709              00              00
C08  38231661.92109 199082298.49709              00              00              00              00  38231658.36509 161770688.41809              00              00
C09  38773334.83409 201902871.12609  38773334.88809 156124140.88809              00              00  38773334.78109 164062660.79109              00              00
C10  37314764.68519 194307761.49119  37314756.94709 150251047.28509              00              00  37314753.99909 157890969.12409              00              00
C12  22876386.34809 119123406.45209              00              00              00              00  22876382.09509  96797431.69509              00              00
C19  22332348.50509 116290447.46909              00              00  22332347.66509  87636924.32309  22332341.07109  94495413.31209  22332343.69809 117357263.62209
C20  24680956.19409 128520276.66909              00              00  24680959.76809  96853359.30209  24680951.53009 104433120.89909  24680950.11809 129699385.98009
C22  23436541.58509 122040240.91609              00              00              00              00  23436530.29109  99167669.41209              00              00
C36  22519627.49809 117265565.39809              00              00  22519637.46909  88372066.93509              00              00  22519626.30109 118341341.52809
C39              00              00              00              00  26211170.81509 102858306.67309  26211167.81309 110908110.72709  26211193.49109 137740640.67009
> 2026 06 07 17 06 48.0000000  0 13
C01  38581580.54409 200904514.79909              00              00              00              00  38581576.04109 163251284.02709              00              00
C02  36967107.54709 192497377.60509              00              00              00              00  36967096.64709 156419882.02209              00              00
C03  37004979.31509 192694643.94209              00              00              00              00  37004968.62909 156580141.46809              00              00
C07  37174697.00809 193578375.36909              00              00              00              00  37174687.32309 157298244.26709              00              00
C08  38226762.82409 199056785.92709              00              00              00              00  38226760.43009 161749957.42209              00              00
C09  38778906.82509 201931888.27409  38778907.57509 156146578.89309              00              00  38778907.59309 164086239.64509              00              00
C10  37314725.99809 194307551.48309  37314720.62009 150250902.70209              00              00  37314718.24309 157890817.18009              00              00
C12  22883980.61109 119162951.92509              00              00              00              00  22883977.16209  96829565.60509              00              00
C19  22335975.61209 116309337.21109              00              00  22335976.25609  87651159.73409  22335969.25109  94510762.81909  22335970.82409 117376326.74009
C20  24690226.96509 128568552.14809              00              00  24690230.19909  96889739.87209  24690222.26509 104472348.66109  24690219.40609 129748104.34409
C22  23431295.22209 122012919.97109              00              00              00              00  23431282.74909  99145468.91109              00              00
C36  22517688.88809 117255466.44309              00              00  22517697.10709  88364456.40809  22517696.30319  95279790.91419  22517686.85109 118331150.00409
C39              00              00              00              00  26205344.88809 102835448.41409  26205341.42209 110883463.53809  26205365.02709 137710030.35609
> 2026 06 07 17 07  3.0000000  0 13
C01  38581558.35109 200904399.46809              00              00              00              00  38581553.83009 163251190.32509              00              00
C02  36967309.91409 192498431.64809              00              00              00              00  36967299.13909 156420738.53109              00              00
C03  37005130.14709 192695429.61909              00              00              00              00  37005119.58709 156580779.92109              00              00
C07  37174642.81109 193578093.08309              00              00              00              00  37174627.78309 157298014.99509              00              00
C08  38221866.85509 199031289.59109              00              00              00              00  38221864.87209 161729239.62909              00              00
C09  38784482.06709 201960914.77209  38784482.40709 156169024.02109              00              00  38784481.01309 164109826.08409              00              00
