     3.04           OBSERVATION DATA    M: Mixed            RINEX VERSION / TYPE
CONVBIN EX 2.5.0                        20260617 034616 UTC PGM / RUN BY / DATE 
format: RTCM 3                                              COMMENT             
log: C:\Users\admin\Desktop\540423494727\2026-06-08\1.rtcm3 COMMENT             
0000                                                        MARKER NAME         
                                                            MARKER NUMBER       
                                                            MARKER TYPE         
                                                            OBSERVER / AGENCY   
                    NONE                                    REC # / TYPE / VERS 
NONE                NONE                                    ANT # / TYPE        
  -492860.3329  5551481.2314  3092889.6323                  APPROX POSITION XYZ 
        0.0000        0.0000        0.0000                  ANTENNA: DELTA H/E/N
C   15 C2I L2I S2I C7I L7I S7I C5P L5P S5P C6I L6I S6I C1P  SYS / # / OBS TYPES 
       L1P S1P                                              SYS / # / OBS TYPES 
  1970    01    01    00    00   00.0000000     GPS         TIME OF FIRST OBS   
  1970    01    01    00    00   00.0000000     GPS         TIME OF LAST OBS    
C L2I                                                       SYS / PHASE SHIFT   
C L7I                                                       SYS / PHASE SHIFT   
C L5P  0.00000                                              SYS / PHASE SHIFT   
C L6I                                                       SYS / PHASE SHIFT   
C L1P  0.00000                                              SYS / PHASE SHIFT   
  0                                                         GLONASS SLOT / FRQ #
 C1C    0.000 C1P    0.000 C2C    0.000 C2P    0.000        GLONASS COD/PHS/BIS 
                                                            END OF HEADER       
> 2026 06 07 17 00 18.0000000  0 13                     
C01  38582162.038   200907540.102          40.000                                                                                                    38582157.285   163253741.866          36.000                                                  
C02  36961861.077   192470049.907          41.000                                                                                                    36961844.566   156397675.422          38.000                                                  
C03  37001066.892   192674235.163          42.000                                                                                                    37001048.309   156563557.155          41.000                                                  
C07  37175104.261   193580527.609          33.000                                                                                                    37175093.968   157299992.521          29.000                                                  
C08  38355126.523   199725211.635          45.000                                                                                                    38355122.628   162293106.720          47.000                                                  
C09  38634669.126   201180806.800          33.000    38634677.613   155565788.528          38.000                                                                                                                                                  
C10                                                  37314548.809   150250203.694          38.000                                                    37314544.592   157890082.622          33.000                                                  
C12  22691289.912   118159482.595          40.000                                                                                                    22691285.302    96014238.405          44.000                                                  
C19  22249106.018   115856981.636          50.000                                                    22249105.304    87310262.607          48.000    22249097.745    94143186.733          50.000    22249100.640   116919821.082          46.000  
C20  24451758.438   127326786.261          48.000                                                    24451761.154    95953940.683          43.000    24451753.131   103463312.621          45.000    24451753.256   128494946.068          44.000  
C22  23574002.064   122756002.764          30.000                                                                                                    23573995.649    99749284.740          28.000    23574002.510   123882211.391          30.000  
C36  22570957.356   117532851.185          39.000                                                    22570962.503    88573487.177          41.000    22570982.159    95505137.055          30.000    22570953.407   118611070.361          39.000  
C39  26358757.259   137256812.472          39.000                                                    26358767.104   103437434.452          31.000    26358765.389   111532563.461          31.000    26358757.688   138516269.455          34.000  
> 2026 06 07 17 00 33.0000000  0 13                     
C01  38582143.365   200907443.180          40.000                                                                                                    38582138.683   163253663.123          35.000                                                  
C02  36962066.231   192471118.371          41.000                                                                                                    36962049.827   156398543.667          38.000                                                  
C03  37001221.138   192675039.673          42.000                                                                                                    37001202.876   156564210.881          42.000                                                  
C07  37175127.455   193580652.579          32.000                                                                                                                                                                                                  
C08  38350156.844   199699334.625          46.000                                                                                                    38350153.128   162272079.603          47.000                                                  
C09  38640199.392   201209577.223          33.000    38640201.518   155588035.552          37.000                                                                                                                                                  
C10  37314599.557   194306910.883          29.000    37314601.540   150250418.126          38.000                                                    37314597.859   157890307.944          33.000                                                  
C12  22698517.682   118197114.978          44.000                                                                                                    22698512.500    96044817.749          44.000                                                  
C19  22252162.390   115872896.664          51.000                                                    22252162.729    87322256.241          48.000    22252153.973    94156118.978          49.000    22252156.815   116935882.119          46.000  
C20  24460829.540   127374023.863          46.000                                                    24460832.203    95989539.127          43.000    24460824.412   103501697.065          45.000    24460825.734   128542617.072          43.000  
C22                                                                                                                                                                                                  23568279.795   123852139.921          28.000  
C36  22568800.869   117521624.054          39.000                                                    22568805.086    88565026.424          41.000    22568800.154    95495978.4821         34.000    22568796.545   118599740.264          37.000  
C39  26352785.592   137225715.495          40.000                                                    26352792.347   103413999.532          29.000    26352787.933   111507294.598          34.000    26352784.359   138484887.149          33.000  
> 2026 06 07 17 00 48.0000000  0 13                     
C01  38582125.978   200907352.833          40.000                                                                                                    38582121.332   163253589.754          35.000                                                  
C02  36962272.690   192472193.630          40.000                                                                                                    36962256.429   156399417.396          38.000                                                  
C03  37001376.688   192675850.828          41.000                                                                                                    37001358.694   156564870.011          42.000                                                  
C07  37175149.487   193580769.085          32.000                                                                                                                                                                                                  
C08  38345191.722   199673478.658          46.000                                                                                                    38345188.130   162251069.581          47.000                                                  
C09  38645734.536   201238365.921          31.000    38645728.979   155610296.685          37.000                                                                                                                                                  
C10  37314652.682   194307176.898          31.000    37314652.056   150250623.841          38.000                                                    37314648.429   157890524.161          33.000                                                  
C12  22705762.141   118234834.295          43.000                                                                                                    22705756.137    96075467.699          44.000                                                  
C19  22255243.224   115888939.442          51.000                                                    22255243.653    87334346.144          47.000    22255234.718    94169155.030          49.000    22255236.987   116952072.049          45.000  
C20  24469911.221   127421313.685          48.000                                                    24469913.151    96025176.918          42.000    24469904.681   103540123.918          44.000    24469905.718   128590340.716          43.000  
C22                                                                                                                                                                                                  23562567.640   123822145.1131         26.000  
C36  22566655.443   117510450.544          36.000                                                    22566659.052    88556606.081          42.000    22566657.444    95486899.134          40.000    22566650.886   118588464.312          36.000  
C39  26346821.234   137194656.725          37.000                                                    26346812.496   103390593.866          27.000    26346818.410   111482056.766          36.000    26346818.929   138453543.557          33.000  
> 2026 06 07 17 01 03.0000000  0 12                     
C01  38582106.179   200907249.898          40.000                                                                                                    38582101.462   163253506.136          35.000                                                  
C02  36962476.754   192473256.482          41.000                                                                                                    36962460.922   156400281.050          38.000                                                  
C03  37001529.736   192676649.334          42.000                                                                                                    37001512.010   156565518.903          41.000                                                  
C07  37175166.606   193580857.696          31.000                                                                                                                                                                                                  
C08  38340226.975   199647624.626          46.000                                                                                                    38340223.776   162230061.109          47.000                                                  
C09  38651269.126   201267153.610          31.000    38651256.082   155632557.029          37.000                                                                                                                                                  
C10  37314698.426   194307412.489          32.000    37314696.818   150250805.941          37.000                                                    37314692.994   157890715.562          32.000                                                  
C12  22713016.982   118272621.031          37.000                                                                                                    22713012.622    96106172.463          43.000                                                  
C19  22258344.982   115905090.662          51.000                                                    22258344.536    87346517.760          45.000    22258336.816    94182279.191          49.000    22258337.853   116968371.449          47.000  
C20  24478999.192   127468636.238          47.000                                                    24478998.513    96060839.317          41.000    24478990.883   103578577.318          44.000    24478994.117   128638097.412          45.000  
C36                                                                                                  22564519.380    88548211.650          42.000    22564518.736    95477847.681          43.000    22564511.785   118577223.094          36.000  
C39  26340859.181   137163617.031          35.000                                                    26340851.140   103367202.244          31.000    26340855.035   111456834.420          37.000    26340856.232   138422218.919          34.000  
> 2026 06 07 17 01 18.0000000  0 12                     
C01  38582082.807   200907128.408          39.000                                                                                                    38582078.125   163253407.378          36.000                                                  
C02  36962677.280   192474300.927          41.000                                                                                                    36962661.752   156401129.793          38.000                                                  
C03  37001679.228   192677429.312          41.000                                                                                                    37001661.734   156566152.703          41.000                                                  
C07  37175177.131   193580912.601          30.000                                                                                                    37175174.826   157300320.3271         29.000                                                  
C08  38335261.334   199621766.589          46.000                                                                                                    38335258.707   162209049.386          48.000                                                  
C09  38656802.269   201295934.170          31.000    38656782.041   155654811.963          38.000                                                                                                                                                  
C10  37314737.041   194307611.665          32.000    37314734.736   150250959.954          37.000                                                    37314730.555   157890877.344          32.000                                                  
C12  22720284.600   118310468.883          42.000                                                                                                    22720281.562    96136927.009          44.000                                                  
C19  22261466.325   115921344.230          50.000                                                    22261464.753    87358766.513          45.000    22261458.284    94195486.525          48.000    22261459.767   116984774.164          47.000  
C20  24488091.719   127515985.227          46.000                                                    24488089.503    96096521.713          41.000    24488084.589   103617052.225          44.000    24488086.358   128685880.802          45.000  
C36  22562382.870   117488191.7901         38.000                                                    22562384.764    88539838.536          43.000    22562384.425    95468819.190          45.000    22562379.832   118566010.347          38.000  
C39  26334900.004   137132590.276          36.000                                                    26334898.611   103343820.369          34.000    26334895.627   111431622.635          37.000    26334896.198   138390907.415          33.000  
> 2026 06 07 17 01 33.0000000  0 12                     
C01  38582064.205   200907031.862          40.000                                                                                                    38582059.845   163253328.959          36.000                                                  
C02  36962882.577   192475370.490          41.000                                                                                                    36962867.424   156401998.938          38.000                                                  
C03  37001833.491   192678234.195          41.000                                                                                                    37001816.355   156566806.758          41.000                                                  
C07                                                                                                                                                  37175186.959   157300382.0981         29.000                                                  
C08  38330303.216   199595948.136          46.000                                                                                                    38330300.893   162188069.818          48.000                                                  
C09  38662300.800   201324741.9921         30.000    38662315.024   155677095.061          38.000                                                                                                                                                  
C10  37314776.889   194307817.916          31.000    37314774.137   150251119.481          37.000                                                    37314769.867   157891044.992          31.000                                                  
C12  22727574.357   118348421.427          46.000                                                                                                    22727571.480    96167766.484          45.000                                                  
C19  22264615.580   115937743.539          50.000                                                    22264614.115    87371125.101          45.000    22264609.522    94208812.309          49.000    22264609.504   117001323.952          46.000  
C20  24497197.720   127563403.882          46.000                                                    24497196.790    96132256.568          41.000    24497193.502   103655583.745          44.000    24497192.949   128733734.557          46.000  
C36  22560263.854   117477152.616          37.000                                                    22560265.641    88531519.418          45.000    22560264.086    95459848.962          46.000    22560260.459   118554869.907          38.000  
C39  26328952.121   137101620.025          32.000                                                    26328952.854   103320481.056          36.000    26328944.831   111406456.762          36.000    26328948.816   138359652.913          32.000  
> 2026 06 07 17 01 48.0000000  0 12                     
C01  38582040.725   200906909.593          40.000                                                                                                    38582036.133   163253229.646          36.000                                                  
C02  36963082.996   192476414.528          40.000                                                                                                    36963068.326   156402847.316          39.000                                                  
C03  37001982.841   192679013.411          41.000                                                                                                    37001965.990   156567439.948          41.000                                                  
C08  38325342.918   199570118.724          46.000                                                                                                    38325340.399   162167081.371          48.000                                                  
C09  38667835.212   201353544.662          30.000    38667845.558   155699367.092          38.000                                                                                                                                                  
C10  37314807.588   194307980.609          30.000    37314805.301   150251245.216          38.000                                                    37314801.012   157891177.195          31.000                                                  
C12  22734873.621   118386427.589          46.000                                                                                                    22734869.761    96198649.536          45.000                                                  
C19  22267783.043   115954237.885          50.000                                                    22267781.721    87383555.270          46.000    22267776.002    94222215.291          48.000    22267777.629   117017969.602          45.000  
C20  24506307.723   127610841.332          48.000                                                    24506309.867    96168005.598          42.000    24506304.435   103694130.570          44.000    24506302.737   128781607.237          46.000  
C22                                                                                                                                                  23539926.927    99605135.2681         28.000                                                  
C36  22558146.661   117466134.517          32.000                                                    22558150.663    88523216.101          45.000    22558146.875    95450895.797          46.000    22558143.605   118543750.660          36.000  
C39  26323005.114   137070655.581          34.000                                                    26323004.471   103297146.160          37.000    26322996.680   111381295.641          34.000    26323004.274   138328404.368          31.000  
> 2026 06 07 17 02 03.0000000  0 12                     
C01  38582013.171   200906766.170          40.000                                                                                                    38582008.632   163253113.044          36.000                                                  
C02  36963279.430   192477437.543          41.000                                                                                                    36963265.099   156403678.640          38.000                                                  
C03  37002128.152   192679771.415          41.000                                                                                                    37002111.623   156568055.919          41.000                                                  
C08  38320381.548   199544282.929          46.000                                                                                                    38320378.529   162146087.728          48.000                                                  
C09  38673365.495   201382337.231          34.000    38673374.216   155721631.371          38.000                                                                                                                                                  
C10  37314830.568   194308104.253          29.000    37314828.977   150251340.880          38.000                                                    37314824.993   157891277.633          31.000                                                  
C12  22742183.588   118424491.593          45.000                                                                                                    22742178.370    96229579.626          45.000                                                  
C19  22270969.644   115970831.601          50.000                                                    22270969.268    87396060.377          47.000    22270961.638    94235699.051          48.000    22270963.425   117034715.545          42.000  
C20  24515422.568   127658301.826          50.000                                                    24515426.106    96203771.984          43.000    24515418.369   103732696.091          45.000    24515417.190   128829503.160          46.000  
C22  23534315.821   122549440.6261         30.000                                                                                                    23534308.835    99581365.0221         30.000                                                  
C36  22556033.720   117455141.785          35.000                                                    22556040.010    88514931.900          46.000    22556035.060    95441963.238          46.000    22556030.933   118532657.036          33.000  
C39  26317060.251   137039701.448          30.000                                                    26317059.125   103273819.112          38.000    26317053.318   111356142.761          31.000    26317059.572   138297166.317          29.000  
> 2026 06 07 17 02 18.0000000  0 12                     
C01  38581987.422   200906631.970          39.000                                                                                                    38581982.651   163253004.093          35.000                                                  
C02  36963477.562   192478469.968          40.000                                                                                                    36963463.660   156404517.593          38.000                                                  
C03  37002275.232   192680538.653          40.000                                                                                                    37002258.881   156568679.380          41.000                                                  
C08  38315424.664   199518471.233          46.000                                                                                                    38315421.304   162125113.658          48.000                                                  
C09  38678900.193   201411150.346          36.000    38678906.787   155743911.515          38.000                                                                                                                                                  
C10  37314851.135   194308220.2331         29.000    37314851.063   150251429.834          39.000                                                    37314847.972   157891371.065          32.000                                                  
C12  22749510.817   118462643.668          46.000                                                                                                    22749505.009    96260581.262          45.000                                                  
C19  22274181.493   115987555.042          50.000                                                    22274182.458    87408663.223          46.000    22274175.346    94249288.207          49.000    22274174.649   117051592.318          42.000  
C20  24524547.564   127705815.472          50.000                                                    24524550.369    96239578.440          43.000    24524542.435   103771304.768          44.000    24524542.203   128877452.696          46.000  
C22  23528717.206   122520289.541          30.000                                                                                                    23528712.668    99557677.446          31.000                                                  
C36  22553931.751   117444204.690          39.000                                                    22553940.364    88506689.651          46.000    22553934.378    95433075.943          45.000    22553929.750   118521619.663          38.000  
C39  26311123.518   137008858.9931         33.000                                                    26311121.356   103250522.683          39.000    26311131.452   111331022.748          30.000    26311124.376   138265969.315          31.000  
> 2026 06 07 17 02 33.0000000  0 12                     
C01  38581963.191   200906505.747          39.000                                                                                                    38581958.510   163252901.495          35.000                                                  
C02  36963677.284   192479510.546          41.000                                                                                                    36963663.811   156405363.141          38.000                                                  
C03  37002423.741   192681313.848          40.000                                                                                                    37002407.873   156569309.306          41.000                                                  
C08  38310471.889   199492682.483          46.000                                                                                                    38310468.958   162104158.226          48.000                                                  
C09  38684438.071   201439982.457          36.000    38684442.932   155766206.327          37.000                                                    38684439.394   163686533.087          29.000                                                  
C10  37314873.257   194308325.386          32.000    37314871.345   150251511.141          39.000                                                    37314868.950   157891456.535          32.000                                                  
C12  22756854.360   118500882.295          44.000                                                                                                    22756848.945    96291653.194          45.000                                                  
C19  22277418.109   116004406.811          49.000                                                    22277418.252    87421362.776          45.000    22277411.569    94262981.677          48.000    22277411.391   117068598.664          46.000  
C20  24533682.083   127753380.712          50.000                                                    24533683.852    96275423.762          44.000    24533676.043   103809955.387          45.000    24533676.472   128925454.321          45.000  
C22  23523138.926   122491244.979          28.000                                                                                                    23523135.031    99534076.356          31.000                                                  
C36  22551841.933   117433321.925          41.000                                                    22551851.154    88498488.357          45.000    22551844.524    95424232.821          44.000    22551841.576   118510637.015          40.000  
C39  26305196.667   136977984.952          33.000                                                    26305192.057   103227255.987          40.000    26305202.135   111305935.041          35.000    26305196.453   138234812.117          28.000  
> 2026 06 07 17 02 48.0000000  0 12                     
C01  38581941.713   200906394.074          39.000                                                                                                    38581936.924   163252810.745          36.000                                                  
C02  36963879.830   192480565.785          40.000                                                                                                    36963867.089   156406220.661          37.000                                                  
C03  37002575.127   192682103.616          40.000                                                                                                    37002559.581   156569951.055          41.000                                                  
C08  38305524.725   199466923.281          46.000                                                                                                    38305522.598   162083226.815          48.000                                                  
C09  38689980.792   201468840.136          36.000    38689983.758   155788520.900          36.000                                                                                                                                                  
C10  37314893.234   194308427.243          35.000    37314891.072   150251589.923          40.000                                                    37314889.553   157891539.292          32.000                                                  
C12  22764214.217   118539213.669          39.000                                                                                                    22764211.733    96322800.545          45.000                                                  
C19  22280680.171   116021393.327          47.000                                                    22280678.724    87434163.859          44.000    22280670.826    94276784.633          45.000    22280674.775   117085741.058          46.000  
C20  24542827.324   127801003.891          49.000                                                    24542829.200    96311312.721          44.000    24542821.213   103848653.066          44.000    24542822.017   128973514.348          43.000  
C22  23517582.714   122462229.8761         28.000                                                                                                    23517576.693    99510567.474          31.000                                                  
C36  22549764.427   117422499.923          42.000                                                    22549772.986    88490332.902          44.000    22549766.411    95415439.089          43.000    22549763.837   118499715.743          38.000  
C39  26299276.624   136947156.981          34.000                                                    26299272.943   103204023.985          40.000    26299278.786   111280884.766          37.000                                                  
> 2026 06 07 17 03 03.0000000  0 13                     
C01  38581920.109   200906281.482          39.000                                                                                                    38581915.320   163252719.297          35.000                                                  
C02  36964082.286   192481620.283          40.000                                                                                                    36964069.491   156407077.543          37.000                                                  
C03  37002726.281   192682892.416          40.000                                                                                                    37002711.128   156570592.052          41.000                                                  
C08  38300580.473   199441178.255          46.000                                                                                                    38300579.044   162062306.922          48.000                                                  
C09  38695525.371   201497707.734          36.000    38695526.604   155810843.137          36.000                                                    38695522.298   163733418.701          29.000                                                  
C10  37314909.906   194308510.309          37.000    37314907.190   150251654.180          40.000                                                    37314906.350   157891606.861          33.000                                                  
C12  22771589.263   118577622.166          40.000                                                                                                    22771588.030    96354010.618          45.000                                                  
C19  22283964.408   116038498.997          47.000                                                    22283963.675    87447054.777          44.000    22283951.650    94290684.391          42.000    22283960.405   117103003.740          44.000  
C20  24551980.499   127848669.165          47.000                                                    24551983.215    96347233.460          44.000    24551975.728   103887384.982          45.000    24551975.227   129021616.900          43.000  
C22  23512046.873   122433398.1141         28.000                                                                                                    23512039.064    99487138.443          32.000                                                  
C27  25387805.638   132200982.306          28.000                                                                                                                                                                                                  
C36  22547695.802   117411723.172          43.000                                                    22547702.735    88482211.556          43.000    22547697.178    95406682.113          42.000    22547693.300   118488840.181          38.000  
C39  26293362.388   136916359.434          32.000                                                    26293358.064   103180814.888          39.000    26293361.727   111255859.315          37.000                                                  
> 2026 06 07 17 03 18.0000000  0 13                     
C01  38581899.685   200906175.081          39.000                                                                                                    38581894.789   163252632.826          35.000                                                  
C02  36964285.903   192482681.113          40.000                                                                                                    36964273.377   156407939.583          38.000                                                  
C03  37002878.615   192683687.357          39.000                                                                                                    37002863.784   156571238.062          41.000                                                  
C08  38295640.600   199415454.584          47.000                                                                                                    38295639.224   162041404.403          48.000                                                  
C09  38701073.417   201526592.354          36.000    38701073.042   155833178.589          38.000                                                    38701068.503   163756890.811          28.000                                                  
C10  37314924.541   194308581.730          37.000    37314921.110   150251709.389          41.000                                                    37314919.859   157891664.833          34.000                                                  
C12  22778980.624   118616114.644          37.000                                                                                                    22778978.408    96385288.898          44.000                                                  
C19  22287273.698   116055730.958          48.000                                                    22287273.840    87460040.844          44.000    22287262.958    94304686.690          42.000    22287269.659   117120393.742          42.000  
C20  24561143.734   127896383.429          48.000                                                    24561146.539    96383191.125          45.000    24561139.266   103926156.739          45.000    24561139.338   129069768.960          42.000  
C22                                                                                                                                                  23506523.415    99463795.233          32.000    23506535.584   123527681.098          28.000  
C27  25384261.961   132182483.171          31.000                                                                                                                                                    25384259.352   133395164.962          29.000  
C36  22545636.594   117400998.691          42.000                                                    22545644.474    88474129.614          45.000    22545639.381    95397967.593          42.000    22545633.627   118478017.263          38.000  
C39  26287454.425   136885599.598          32.000                                                    26287449.314   103157634.142          38.000    26287449.475   111230864.372          36.000                                                  
> 2026 06 07 17 03 33.0000000  0 14                     
C01  38581878.617   200906065.516          39.000                                                                                                    38581873.829   163252543.842          35.000                                                  
C02  36964488.985   192483738.952          40.000                                                                                                    36964476.834   156408799.178          38.000                                                  
C03  37003030.359   192684479.132          40.000                                                                                                    37003015.813   156571881.467          41.000                                                  
C07                                                                                                                                                  37175137.068   157300171.350          29.000                                                  
C08  38290703.353   199389742.980          48.000                                                                                                    38290701.351   162020511.682          48.000                                                  
C09  38706622.624   201555484.560          34.000    38706620.944   155855519.912          38.000                                                                                                                                                  
C10  37314935.030   194308632.133          37.000    37314931.009   150251748.352          41.000                                                    37314929.312   157891705.801          34.000                                                  
C12  22786385.565   118654681.513          37.000                                                                                                    22786383.528    96416627.600          43.000                                                  
C19  22290605.341   116073079.590          46.000                                                    22290604.251    87473114.844          43.000    22290600.052    94318783.875          45.000    22290601.088   117137901.509          39.000  
C20  24570315.081   127944137.134          49.000                                                    24570317.083    96419178.441          45.000    24570309.363   103964960.494          45.000    24570310.114   129117960.740          40.000  
C22                                                                                                                                                  23501027.208    99440530.332          33.000    23501035.052   123498787.645          30.000  
C27  25380728.808   132164068.559          30.000                                                                                                                                                                                                  
C36  22543585.176   117390316.904          42.000                                                    22543594.772    88466079.880          46.000    22543587.267    95389287.852          41.000    22543582.835   118467237.494          40.000  
C39  26281553.091   136854867.852          33.000                                                    26281545.925   103134474.718          36.000    26281544.317   111205892.371          34.000                                                  
> 2026 06 07 17 03 48.0000000  0 13                     
C01  38581862.642   200905982.473          39.000                                                                                                    38581857.818   163252476.375          36.000                                                  
C02  36964697.194   192484823.446          40.000                                                                                                    36964685.258   156409680.449          38.000                                                  
C03  37003187.141   192685297.408          40.000                                                                                                    37003172.989   156572546.388          41.000                                                  
C07                                                                                                                                                  37175127.080   157300127.9401         32.000                                                  
C08  38285774.308   199364073.166          48.000                                                                                                    38285771.252   161999652.922          47.000                                                  
C09  38712178.211   201584413.881          32.000    38712175.798   155877889.817          37.000                                                                                                                                                  
C10  37314946.824   194308691.225          36.000    37314942.642   150251794.050          41.000                                                    37314940.105   157891753.844          34.000                                                  
C12  22793810.841   118693352.119          37.000                                                                                                    22793809.447    96448050.633          42.000                                                  
C19  22293965.039   116090574.477          44.000                                                    22293963.074    87486299.058          43.000    22293961.108    94332999.951          47.000    22293960.572   117155556.865          41.000  
C20  24579498.955   127991959.596          47.000                                                    24579500.903    96455217.623          45.000    24579492.272   104003820.133          45.000    24579491.772   129166221.850          41.000  
C22                                                                                                                                                  23495555.373    99417368.173          32.000    23495561.199   123470021.702          30.000  
C36  22541548.090   117379707.466          42.000                                                    22541556.595    88458084.688          46.000    22541546.642    95380666.942          39.000    22541545.874   118456530.777          42.000  
C39  26275663.193   136824193.876          34.000                                                    26275655.366   103111358.855          35.000    26275651.560   111180967.405          33.000                                                  
> 2026 06 07 17 04 03.0000000  0 13                     
C01  38581839.895   200905864.025          39.000                                                                                                    38581835.053   163252380.181          36.000                                                  
C02  36964898.596   192485872.701          41.000                                                                                                    36964886.856   156410533.078          38.000                                                  
C03  37003337.223   192686080.264          39.000                                                                                                    37003323.393   156573182.535          41.000                                                  
C07                                                                                                                                                  37175107.513   157300040.611          34.000                                                  
C08  38280841.332   199338383.370          47.000                                                                                                    38280837.365   161978777.922          46.000                                                  
C09  38717729.223   201613318.169          32.000    38717725.988   155900240.448          34.000                                                                                                                                                  
C10  37314947.914   194308697.090          34.000    37314944.125   150251798.570          42.000                                                    37314940.712   157891758.605          35.000                                                  
C12  22801245.980   118732064.405          40.000                                                                                                    22801244.783    96479507.493          43.000                                                  
C19  22297340.801   116108153.585          44.000                                                    22297339.068    87499546.791          44.000    22297335.601    94347284.487          46.000    22297337.656   117173297.299          43.000  
C20  24588683.525   128039788.636          45.000                                                    24588685.813    96491261.746          45.000    24588676.485   104042685.129          44.000    24588677.325   129214489.679          42.000  
C22                                                                                                                                                  23490095.100    99394258.465          31.000    23490099.603   123441321.080          29.000  
C36  22539513.147   117369108.560          39.000                                                    22539518.919    88450097.370          44.000    22539511.611    95372054.420          38.000    22539510.610   118445834.584          43.000  
C39  26269772.151   136793515.918          31.000                                                    26269765.343   103088239.888          36.000    26269762.073   111156039.105          33.000    26269793.880   138048629.8801         32.000  
> 2026 06 07 17 04 18.0000000  0 13                     
C01  38581814.664   200905732.663          40.000                                                                                                    38581809.911   163252273.467          36.000                                                  
C02  36965097.550   192486909.127          40.000                                                                                                    36965085.828   156411375.316          38.000                                                  
C03  37003484.696   192686850.140          40.000                                                                                                    37003471.312   156573808.155          41.000                                                  
C07  37175095.809   193580504.6201         30.000                                                                                                    37175082.282   157299930.531          35.000                                                  
C08  38275908.391   199312696.122          46.000                                                                                                    38275904.121   161957904.940          46.000                                                  
C09  38723280.842   201642220.008          34.000    38723275.714   155922589.157          32.000                                                                                                                                                  
C10  37314942.624   194308672.167          32.000    37314939.640   150251779.303          42.000                                                    37314935.352   157891738.332          35.000                                                  
C12  22808694.843   118770840.563          41.000                                                                                                    22808695.344    96511016.232          44.000                                                  
C19  22300736.916   116125839.271          43.000                                                    22300735.237    87512874.802          45.000    22300728.982    94361655.572          45.000    22300734.361   117191145.230          42.000  
C20  24597873.028   128087646.294          43.000                                                    24597875.798    96527327.513          45.000    24597866.399   104081573.444          44.000    24597867.506   129262786.469          42.000  
C22  23484660.648   122290781.916          33.000                                                                                                    23484652.124    99371219.790          30.000    23484653.554   123412708.429          29.000  
C36  22537483.048   117358542.425          40.000                                                    22537489.338    88442134.677          43.000    22537482.923    95363468.451          35.000    22537481.976   118435171.417          43.000  
C39                                                                                                  26263877.911   103065134.787          37.000    26263874.033   111131125.686          33.000    26263905.197   138017688.918          30.000  
> 2026 06 07 17 04 33.0000000  0 14                     
C01  38581793.382   200905622.008          40.000                                                                                                    38581788.700   163252183.496          36.000                                                  
C02  36965300.506   192487966.488          40.000                                                                                                    36965289.249   156412234.511          38.000                                                  
C03  37003636.226   192687640.737          39.000                                                                                                    37003623.163   156574450.578          41.000                                                  
C07  37175070.917   193580375.047          29.000                                                                                                    37175058.034   157299825.197          36.000                                                  
C08  38270981.866   199287045.176          46.000                                                                                                    38270977.685   161937061.479          45.000                                                  
C09  38728839.484   201671152.990          36.000    38728831.765   155944961.890          32.000                                                                                                                                                  
C10  37314937.514   194308650.155          29.000    37314935.691   150251762.250          43.000                                                    37314930.813   157891720.436          35.000                                                  
C12                                                                                                                                                  22816161.700    96542604.004          44.000                                                  
C19  22304159.871   116143665.071          44.000                                                    22304160.121    87526308.446          47.000    22304153.188    94376140.500          45.000    22304157.673   117209134.596          43.000  
C20  24607075.557   128135566.225          46.000                                                    24607078.094    96563440.161          45.000    24607069.053   104120512.311          44.000    24607069.589   129311146.017          45.000  
C22  23479238.829   122262550.771          34.000                                                    23479223.015    92137512.609          29.000                                                    23479231.931   123384218.365          29.000  
C27  25366726.553   132091198.2901         30.000                                                                                                                                                                                                  
C36  22535466.385   117348042.520          44.000                                                    22535472.461    88434221.937          41.000    22535466.743    95354936.326          30.000    22535464.599   118424575.203          40.000  
C39  26258027.110   136732462.9051         33.000                                                    26258001.969   103042068.784          39.000    26257993.713   111106254.476          33.000    26258022.822   137986842.4341         27.000  
> 2026 06 07 17 04 48.0000000  0 14                     
C01  38581772.047   200905511.004          40.000                                                                                                    38581767.222   163252093.398          36.000                                                  
C02  36965503.463   192489023.629          40.000                                                                                                    36965492.152   156413093.520          38.000                                                  
C03  37003787.684   192688430.971          39.000                                                                                                    37003775.050   156575092.745          41.000                                                  
C07                                                                                                                                                  37175030.426   157299707.508          37.000                                                  
C08  38266058.146   199261409.471          46.000                                                                                                    38266053.983   161916230.406          45.000                                                  
