     3.04           OBSERVATION DATA    M: Mixed            RINEX VERSION / TYPE
CONVBIN EX 2.5.0                        20260625 182623 UTC PGM / RUN BY / DATE 
format: RTCM 3                                              COMMENT             
log: C:\Users\admin\Desktop\540423494727\2026-06-08\1.rtcm3 COMMENT             
0000                                                        MARKER NAME         
                                                            MARKER NUMBER       
                                                            MARKER TYPE         
                                                            OBSERVER / AGENCY   
                    NONE                                    REC # / TYPE / VERS 
NONE                NONE                                    ANT # / TYPE        
  -492860.3329  5551481.2314  3092889.6323                  APPROX POSITION XYZ 
        0.0000        0.0000        0.0000                  ANTENNA: DELTA H/E/N
C   10 C2I L2I C7I L7I C5P L5P C6I L6I C1P L1P              SYS / # / OBS TYPES 
  2026    06    07    17    00   18.0000000     GPS         TIME OF FIRST OBS   
  2026    06    07    18    00   03.0000000     GPS         TIME OF LAST OBS    
C L2I                                                       SYS / PHASE SHIFT   
C L7I                                                       SYS / PHASE SHIFT   
C L5P  0.00000                                              SYS / PHASE SHIFT   
C L6I                                                       SYS / PHASE SHIFT   
C L1P  0.00000                                              SYS / PHASE SHIFT   
  0                                                         GLONASS SLOT / FRQ #
 C1C    0.000 C1P    0.000 C2C    0.000 C2P    0.000        GLONASS COD/PHS/BIS 
                                                            END OF HEADER       
> 2026 06 07 17 00 18.0000000  0 13                     
C01  38582162.038   200907540.102                                                                    38582157.285   163253741.866                                  
C02  36961861.077   192470049.907                                                                    36961844.566   156397675.422                                  
C03  37001066.892   192674235.163                                                                    37001048.309   156563557.155                                  
C07  37175104.261   193580527.609                                                                    37175093.968   157299992.521                                  
C08  38355126.523   199725211.635                                                                    38355122.628   162293106.720                                  
C09  38634669.126   201180806.800    38634677.613   155565788.528                                                                                                  
C10                                  37314548.809   150250203.694                                    37314544.592   157890082.622                                  
C12  22691289.912   118159482.595                                                                    22691285.302    96014238.405                                  
C19  22249106.018   115856981.636                                    22249105.304    87310262.607    22249097.745    94143186.733    22249100.640   116919821.082  
C20  24451758.438   127326786.261                                    24451761.154    95953940.683    24451753.131   103463312.621    24451753.256   128494946.068  
C22  23574002.064   122756002.764                                                                    23573995.649    99749284.740    23574002.510   123882211.391  
C36  22570957.356   117532851.185                                    22570962.503    88573487.177    22570982.159    95505137.055    22570953.407   118611070.361  
C39  26358757.259   137256812.472                                    26358767.104   103437434.452    26358765.389   111532563.461    26358757.688   138516269.455  
> 2026 06 07 17 00 33.0000000  0 13                     
C01  38582143.365   200907443.180                                                                    38582138.683   163253663.123                                  
C02  36962066.231   192471118.371                                                                    36962049.827   156398543.667                                  
C03  37001221.138   192675039.673                                                                    37001202.876   156564210.881                                  
C07  37175127.455   193580652.579                                                                                                                                  
C08  38350156.844   199699334.625                                                                    38350153.128   162272079.603                                  
C09  38640199.392   201209577.223    38640201.518   155588035.552                                                                                                  
C10  37314599.557   194306910.883    37314601.540   150250418.126                                    37314597.859   157890307.944                                  
C12  22698517.682   118197114.978                                                                    22698512.500    96044817.749                                  
C19  22252162.390   115872896.664                                    22252162.729    87322256.241    22252153.973    94156118.978    22252156.815   116935882.119  
C20  24460829.540   127374023.863                                    24460832.203    95989539.127    24460824.412   103501697.065    24460825.734   128542617.072  
C22                                                                                                                                  23568279.795   123852139.921  
C36  22568800.869   117521624.054                                    22568805.086    88565026.424    22568800.154    95495978.4821   22568796.545   118599740.264  
C39  26352785.592   137225715.495                                    26352792.347   103413999.532    26352787.933   111507294.598    26352784.359   138484887.149  
> 2026 06 07 17 00 48.0000000  0 13                     
C01  38582125.978   200907352.833                                                                    38582121.332   163253589.754                                  
C02  36962272.690   192472193.630                                                                    36962256.429   156399417.396                                  
C03  37001376.688   192675850.828                                                                    37001358.694   156564870.011                                  
C07  37175149.487   193580769.085                                                                                                                                  
C08  38345191.722   199673478.658                                                                    38345188.130   162251069.581                                  
C09  38645734.536   201238365.921    38645728.979   155610296.685                                                                                                  
C10  37314652.682   194307176.898    37314652.056   150250623.841                                    37314648.429   157890524.161                                  
C12  22705762.141   118234834.295                                                                    22705756.137    96075467.699                                  
C19  22255243.224   115888939.442                                    22255243.653    87334346.144    22255234.718    94169155.030    22255236.987   116952072.049  
C20  24469911.221   127421313.685                                    24469913.151    96025176.918    24469904.681   103540123.918    24469905.718   128590340.716  
C22                                                                                                                                  23562567.640   123822145.1131 
C36  22566655.443   117510450.544                                    22566659.052    88556606.081    22566657.444    95486899.134    22566650.886   118588464.312  
C39  26346821.234   137194656.725                                    26346812.496   103390593.866    26346818.410   111482056.766    26346818.929   138453543.557  
> 2026 06 07 17 01 03.0000000  0 12                     
C01  38582106.179   200907249.898                                                                    38582101.462   163253506.136                                  
C02  36962476.754   192473256.482                                                                    36962460.922   156400281.050                                  
C03  37001529.736   192676649.334                                                                    37001512.010   156565518.903                                  
C07  37175166.606   193580857.696                                                                                                                                  
C08  38340226.975   199647624.626                                                                    38340223.776   162230061.109                                  
C09  38651269.126   201267153.610    38651256.082   155632557.029                                                                                                  
C10  37314698.426   194307412.489    37314696.818   150250805.941                                    37314692.994   157890715.562                                  
C12  22713016.982   118272621.031                                                                    22713012.622    96106172.463                                  
C19  22258344.982   115905090.662                                    22258344.536    87346517.760    22258336.816    94182279.191    22258337.853   116968371.449  
C20  24478999.192   127468636.238                                    24478998.513    96060839.317    24478990.883   103578577.318    24478994.117   128638097.412  
C36                                                                  22564519.380    88548211.650    22564518.736    95477847.681    22564511.785   118577223.094  
C39  26340859.181   137163617.031                                    26340851.140   103367202.244    26340855.035   111456834.420    26340856.232   138422218.919  
> 2026 06 07 17 01 18.0000000  0 12                     
C01  38582082.807   200907128.408                                                                    38582078.125   163253407.378                                  
C02  36962677.280   192474300.927                                                                    36962661.752   156401129.793                                  
C03  37001679.228   192677429.312                                                                    37001661.734   156566152.703                                  
C07  37175177.131   193580912.601                                                                    37175174.826   157300320.3271                                 
C08  38335261.334   199621766.589                                                                    38335258.707   162209049.386                                  
C09  38656802.269   201295934.170    38656782.041   155654811.963                                                                                                  
C10  37314737.041   194307611.665    37314734.736   150250959.954                                    37314730.555   157890877.344                                  
C12  22720284.600   118310468.883                                                                    22720281.562    96136927.009                                  
C19  22261466.325   115921344.230                                    22261464.753    87358766.513    22261458.284    94195486.525    22261459.767   116984774.164  
C20  24488091.719   127515985.227                                    24488089.503    96096521.713    24488084.589   103617052.225    24488086.358   128685880.802  
C36  22562382.870   117488191.7901                                   22562384.764    88539838.536    22562384.425    95468819.190    22562379.832   118566010.347  
C39  26334900.004   137132590.276                                    26334898.611   103343820.369    26334895.627   111431622.635    26334896.198   138390907.415  
> 2026 06 07 17 01 33.0000000  0 12                     
C01  38582064.205   200907031.862                                                                    38582059.845   163253328.959                                  
C02  36962882.577   192475370.490                                                                    36962867.424   156401998.938                                  
C03  37001833.491   192678234.195                                                                    37001816.355   156566806.758                                  
C07                                                                                                  37175186.959   157300382.0981                                 
C08  38330303.216   199595948.136                                                                    38330300.893   162188069.818                                  
C09  38662300.800   201324741.9921   38662315.024   155677095.061                                                                                                  
C10  37314776.889   194307817.916    37314774.137   150251119.481                                    37314769.867   157891044.992                                  
C12  22727574.357   118348421.427                                                                    22727571.480    96167766.484                                  
C19  22264615.580   115937743.539                                    22264614.115    87371125.101    22264609.522    94208812.309    22264609.504   117001323.952  
C20  24497197.720   127563403.882                                    24497196.790    96132256.568    24497193.502   103655583.745    24497192.949   128733734.557  
C36  22560263.854   117477152.616                                    22560265.641    88531519.418    22560264.086    95459848.962    22560260.459   118554869.907  
C39  26328952.121   137101620.025                                    26328952.854   103320481.056    26328944.831   111406456.762    26328948.816   138359652.913  
> 2026 06 07 17 01 48.0000000  0 12                     
C01  38582040.725   200906909.593                                                                    38582036.133   163253229.646                                  
C02  36963082.996   192476414.528                                                                    36963068.326   156402847.316                                  
C03  37001982.841   192679013.411                                                                    37001965.990   156567439.948                                  
C08  38325342.918   199570118.724                                                                    38325340.399   162167081.371                                  
C09  38667835.212   201353544.662    38667845.558   155699367.092                                                                                                  
C10  37314807.588   194307980.609    37314805.301   150251245.216                                    37314801.012   157891177.195                                  
C12  22734873.621   118386427.589                                                                    22734869.761    96198649.536                                  
C19  22267783.043   115954237.885                                    22267781.721    87383555.270    22267776.002    94222215.291    22267777.629   117017969.602  
C20  24506307.723   127610841.332                                    24506309.867    96168005.598    24506304.435   103694130.570    24506302.737   128781607.237  
C22                                                                                                  23539926.927    99605135.2681                                 
C36  22558146.661   117466134.517                                    22558150.663    88523216.101    22558146.875    95450895.797    22558143.605   118543750.660  
C39  26323005.114   137070655.581                                    26323004.471   103297146.160    26322996.680   111381295.641    26323004.274   138328404.368  
> 2026 06 07 17 02 03.0000000  0 12                     
C01  38582013.171   200906766.170                                                                    38582008.632   163253113.044                                  
C02  36963279.430   192477437.543                                                                    36963265.099   156403678.640                                  
C03  37002128.152   192679771.415                                                                    37002111.623   156568055.919                                  
C08  38320381.548   199544282.929                                                                    38320378.529   162146087.728                                  
C09  38673365.495   201382337.231    38673374.216   155721631.371                                                                                                  
C10  37314830.568   194308104.253    37314828.977   150251340.880                                    37314824.993   157891277.633                                  
C12  22742183.588   118424491.593                                                                    22742178.370    96229579.626                                  
C19  22270969.644   115970831.601                                    22270969.268    87396060.377    22270961.638    94235699.051    22270963.425   117034715.545  
C20  24515422.568   127658301.826                                    24515426.106    96203771.984    24515418.369   103732696.091    24515417.190   128829503.160  
C22  23534315.821   122549440.6261                                                                   23534308.835    99581365.0221                                 
C36  22556033.720   117455141.785                                    22556040.010    88514931.900    22556035.060    95441963.238    22556030.933   118532657.036  
C39  26317060.251   137039701.448                                    26317059.125   103273819.112    26317053.318   111356142.761    26317059.572   138297166.317  
> 2026 06 07 17 02 18.0000000  0 12                     
C01  38581987.422   200906631.970                                                                    38581982.651   163253004.093                                  
C02  36963477.562   192478469.968                                                                    36963463.660   156404517.593                                  
C03  37002275.232   192680538.653                                                                    37002258.881   156568679.380                                  
C08  38315424.664   199518471.233                                                                    38315421.304   162125113.658                                  
C09  38678900.193   201411150.346    38678906.787   155743911.515                                                                                                  
C10  37314851.135   194308220.2331   37314851.063   150251429.834                                    37314847.972   157891371.065                                  
C12  22749510.817   118462643.668                                                                    22749505.009    96260581.262                                  
C19  22274181.493   115987555.042                                    22274182.458    87408663.223    22274175.346    94249288.207    22274174.649   117051592.318  
C20  24524547.564   127705815.472                                    24524550.369    96239578.440    24524542.435   103771304.768    24524542.203   128877452.696  
C22  23528717.206   122520289.541                                                                    23528712.668    99557677.446                                  
C36  22553931.751   117444204.690                                    22553940.364    88506689.651    22553934.378    95433075.943    22553929.750   118521619.663  
C39  26311123.518   137008858.9931                                   26311121.356   103250522.683    26311131.452   111331022.748    26311124.376   138265969.315  
> 2026 06 07 17 02 33.0000000  0 12                     
C01  38581963.191   200906505.747                                                                    38581958.510   163252901.495                                  
C02  36963677.284   192479510.546                                                                    36963663.811   156405363.141                                  
C03  37002423.741   192681313.848                                                                    37002407.873   156569309.306                                  
C08  38310471.889   199492682.483                                                                    38310468.958   162104158.226                                  
C09  38684438.071   201439982.457    38684442.932   155766206.327                                    38684439.394   163686533.087                                  
C10  37314873.257   194308325.386    37314871.345   150251511.141                                    37314868.950   157891456.535                                  
C12  22756854.360   118500882.295                                                                    22756848.945    96291653.194                                  
C19  22277418.109   116004406.811                                    22277418.252    87421362.776    22277411.569    94262981.677    22277411.391   117068598.664  
C20  24533682.083   127753380.712                                    24533683.852    96275423.762    24533676.043   103809955.387    24533676.472   128925454.321  
C22  23523138.926   122491244.979                                                                    23523135.031    99534076.356                                  
C36  22551841.933   117433321.925                                    22551851.154    88498488.357    22551844.524    95424232.821    22551841.576   118510637.015  
C39  26305196.667   136977984.952                                    26305192.057   103227255.987    26305202.135   111305935.041    26305196.453   138234812.117  
> 2026 06 07 17 02 48.0000000  0 12                     
C01  38581941.713   200906394.074                                                                    38581936.924   163252810.745                                  
C02  36963879.830   192480565.785                                                                    36963867.089   156406220.661                                  
C03  37002575.127   192682103.616                                                                    37002559.581   156569951.055                                  
C08  38305524.725   199466923.281                                                                    38305522.598   162083226.815                                  
C09  38689980.792   201468840.136    38689983.758   155788520.900                                                                                                  
C10  37314893.234   194308427.243    37314891.072   150251589.923                                    37314889.553   157891539.292                                  
C12  22764214.217   118539213.669                                                                    22764211.733    96322800.545                                  
C19  22280680.171   116021393.327                                    22280678.724    87434163.859    22280670.826    94276784.633    22280674.775   117085741.058  
C20  24542827.324   127801003.891                                    24542829.200    96311312.721    24542821.213   103848653.066    24542822.017   128973514.348  
C22  23517582.714   122462229.8761                                                                   23517576.693    99510567.474                                  
C36  22549764.427   117422499.923                                    22549772.986    88490332.902    22549766.411    95415439.089    22549763.837   118499715.743  
C39  26299276.624   136947156.981                                    26299272.943   103204023.985    26299278.786   111280884.766                                  
> 2026 06 07 17 03 03.0000000  0 13                     
C01  38581920.109   200906281.482                                                                    38581915.320   163252719.297                                  
C02  36964082.286   192481620.283                                                                    36964069.491   156407077.543                                  
C03  37002726.281   192682892.416                                                                    37002711.128   156570592.052                                  
C08  38300580.473   199441178.255                                                                    38300579.044   162062306.922                                  
C09  38695525.371   201497707.734    38695526.604   155810843.137                                    38695522.298   163733418.701                                  
C10  37314909.906   194308510.309    37314907.190   150251654.180                                    37314906.350   157891606.861                                  
C12  22771589.263   118577622.166                                                                    22771588.030    96354010.618                                  
C19  22283964.408   116038498.997                                    22283963.675    87447054.777    22283951.650    94290684.391    22283960.405   117103003.740  
C20  24551980.499   127848669.165                                    24551983.215    96347233.460    24551975.728   103887384.982    24551975.227   129021616.900  
C22  23512046.873   122433398.1141                                                                   23512039.064    99487138.443                                  
C27  25387805.638   132200982.306                                                                                                                                  
C36  22547695.802   117411723.172                                    22547702.735    88482211.556    22547697.178    95406682.113    22547693.300   118488840.181  
C39  26293362.388   136916359.434                                    26293358.064   103180814.888    26293361.727   111255859.315                                  
> 2026 06 07 17 03 18.0000000  0 13                     
C01  38581899.685   200906175.081                                                                    38581894.789   163252632.826                                  
C02  36964285.903   192482681.113                                                                    36964273.377   156407939.583                                  
C03  37002878.615   192683687.357                                                                    37002863.784   156571238.062                                  
C08  38295640.600   199415454.584                                                                    38295639.224   162041404.403                                  
C09  38701073.417   201526592.354    38701073.042   155833178.589                                    38701068.503   163756890.811                                  
C10  37314924.541   194308581.730    37314921.110   150251709.389                                    37314919.859   157891664.833                                  
C12  22778980.624   118616114.644                                                                    22778978.408    96385288.898                                  
C19  22287273.698   116055730.958                                    22287273.840    87460040.844    22287262.958    94304686.690    22287269.659   117120393.742  
C20  24561143.734   127896383.429                                    24561146.539    96383191.125    24561139.266   103926156.739    24561139.338   129069768.960  
C22                                                                                                  23506523.415    99463795.233    23506535.584   123527681.098  
C27  25384261.961   132182483.171                                                                                                    25384259.352   133395164.962  
C36  22545636.594   117400998.691                                    22545644.474    88474129.614    22545639.381    95397967.593    22545633.627   118478017.263  
C39  26287454.425   136885599.598                                    26287449.314   103157634.142    26287449.475   111230864.372                                  
> 2026 06 07 17 03 33.0000000  0 14                     
C01  38581878.617   200906065.516                                                                    38581873.829   163252543.842                                  
C02  36964488.985   192483738.952                                                                    36964476.834   156408799.178                                  
C03  37003030.359   192684479.132                                                                    37003015.813   156571881.467                                  
C07                                                                                                  37175137.068   157300171.350                                  
C08  38290703.353   199389742.980                                                                    38290701.351   162020511.682                                  
C09  38706622.624   201555484.560    38706620.944   155855519.912                                                                                                  
C10  37314935.030   194308632.133    37314931.009   150251748.352                                    37314929.312   157891705.801                                  
C12  22786385.565   118654681.513                                                                    22786383.528    96416627.600                                  
C19  22290605.341   116073079.590                                    22290604.251    87473114.844    22290600.052    94318783.875    22290601.088   117137901.509  
C20  24570315.081   127944137.134                                    24570317.083    96419178.441    24570309.363   103964960.494    24570310.114   129117960.740  
C22                                                                                                  23501027.208    99440530.332    23501035.052   123498787.645  
C27  25380728.808   132164068.559                                                                                                                                  
C36  22543585.176   117390316.904                                    22543594.772    88466079.880    22543587.267    95389287.852    22543582.835   118467237.494  
C39  26281553.091   136854867.852                                    26281545.925   103134474.718    26281544.317   111205892.371                                  
> 2026 06 07 17 03 48.0000000  0 13                     
C01  38581862.642   200905982.473                                                                    38581857.818   163252476.375                                  
C02  36964697.194   192484823.446                                                                    36964685.258   156409680.449                                  
C03  37003187.141   192685297.408                                                                    37003172.989   156572546.388                                  
C07                                                                                                  37175127.080   157300127.9401                                 
C08  38285774.308   199364073.166                                                                    38285771.252   161999652.922                                  
C09  38712178.211   201584413.881    38712175.798   155877889.817                                                                                                  
C10  37314946.824   194308691.225    37314942.642   150251794.050                                    37314940.105   157891753.844                                  
C12  22793810.841   118693352.119                                                                    22793809.447    96448050.633                                  
C19  22293965.039   116090574.477                                    22293963.074    87486299.058    22293961.108    94332999.951    22293960.572   117155556.865  
C20  24579498.955   127991959.596                                    24579500.903    96455217.623    24579492.272   104003820.133    24579491.772   129166221.850  
C22                                                                                                  23495555.373    99417368.173    23495561.199   123470021.702  
C36  22541548.090   117379707.466                                    22541556.595    88458084.688    22541546.642    95380666.942    22541545.874   118456530.777  
C39  26275663.193   136824193.876                                    26275655.366   103111358.855    26275651.560   111180967.405                                  
> 2026 06 07 17 04 03.0000000  0 13                     
C01  38581839.895   200905864.025                                                                    38581835.053   163252380.181                                  
C02  36964898.596   192485872.701                                                                    36964886.856   156410533.078                                  
C03  37003337.223   192686080.264                                                                    37003323.393   156573182.535                                  
C07                                                                                                  37175107.513   157300040.611                                  
C08  38280841.332   199338383.370                                                                    38280837.365   161978777.922                                  
C09  38717729.223   201613318.169    38717725.988   155900240.448                                                                                                  
C10  37314947.914   194308697.090    37314944.125   150251798.570                                    37314940.712   157891758.605                                  
C12  22801245.980   118732064.405                                                                    22801244.783    96479507.493                                  
C19  22297340.801   116108153.585                                    22297339.068    87499546.791    22297335.601    94347284.487    22297337.656   117173297.299  
C20  24588683.525   128039788.636                                    24588685.813    96491261.746    24588676.485   104042685.129    24588677.325   129214489.679  
C22                                                                                                  23490095.100    99394258.465    23490099.603   123441321.080  
C36  22539513.147   117369108.560                                    22539518.919    88450097.370    22539511.611    95372054.420    22539510.610   118445834.584  
C39  26269772.151   136793515.918                                    26269765.343   103088239.888    26269762.073   111156039.105    26269793.880   138048629.8801 
> 2026 06 07 17 04 18.0000000  0 13                     
C01  38581814.664   200905732.663                                                                    38581809.911   163252273.467                                  
C02  36965097.550   192486909.127                                                                    36965085.828   156411375.316                                  
C03  37003484.696   192686850.140                                                                    37003471.312   156573808.155                                  
C07  37175095.809   193580504.6201                                                                   37175082.282   157299930.531                                  
C08  38275908.391   199312696.122                                                                    38275904.121   161957904.940                                  
C09  38723280.842   201642220.008    38723275.714   155922589.157                                                                                                  
C10  37314942.624   194308672.167    37314939.640   150251779.303                                    37314935.352   157891738.332                                  
C12  22808694.843   118770840.563                                                                    22808695.344    96511016.232                                  
C19  22300736.916   116125839.271                                    22300735.237    87512874.802    22300728.982    94361655.572    22300734.361   117191145.230  
C20  24597873.028   128087646.294                                    24597875.798    96527327.513    24597866.399   104081573.444    24597867.506   129262786.469  
C22  23484660.648   122290781.916                                                                    23484652.124    99371219.790    23484653.554   123412708.429  
C36  22537483.048   117358542.425                                    22537489.338    88442134.677    22537482.923    95363468.451    22537481.976   118435171.417  
C39                                                                  26263877.911   103065134.787    26263874.033   111131125.686    26263905.197   138017688.918  
> 2026 06 07 17 04 33.0000000  0 14                     
C01  38581793.382   200905622.008                                                                    38581788.700   163252183.496                                  
C02  36965300.506   192487966.488                                                                    36965289.249   156412234.511                                  
C03  37003636.226   192687640.737                                                                    37003623.163   156574450.578                                  
C07  37175070.917   193580375.047                                                                    37175058.034   157299825.197                                  
C08  38270981.866   199287045.176                                                                    38270977.685   161937061.479                                  
C09  38728839.484   201671152.990    38728831.765   155944961.890                                                                                                  
C10  37314937.514   194308650.155    37314935.691   150251762.250                                    37314930.813   157891720.436                                  
C12                                                                                                  22816161.700    96542604.004                                  
C19  22304159.871   116143665.071                                    22304160.121    87526308.446    22304153.188    94376140.500    22304157.673   117209134.596  
C20  24607075.557   128135566.225                                    24607078.094    96563440.161    24607069.053   104120512.311    24607069.589   129311146.017  
C22  23479238.829   122262550.771                                    23479223.015    92137512.609                                    23479231.931   123384218.365  
C27  25366726.553   132091198.2901                                                                                                                                 
C36  22535466.385   117348042.520                                    22535472.461    88434221.937    22535466.743    95354936.326    22535464.599   118424575.203  
C39  26258027.110   136732462.9051                                   26258001.969   103042068.784    26257993.713   111106254.476    26258022.822   137986842.4341 
> 2026 06 07 17 04 48.0000000  0 14                     
C01  38581772.047   200905511.004                                                                    38581767.222   163252093.398                                  
C02  36965503.463   192489023.629                                                                    36965492.152   156413093.520                                  
C03  37003787.684   192688430.971                                                                    37003775.050   156575092.745                                  
C07                                                                                                  37175030.426   157299707.508                                  
C08  38266058.146   199261409.471                                                                    38266053.983   161916230.406                                  
C09  38734400.056   201700095.803    38734390.853   155967342.240                                                                                                  
C10                                  37314928.204   150251731.143                                    37314922.647   157891687.775                                  
C12  22823649.018   118848752.7181                                                                   22823638.082    96574253.412                                  
C19  22307605.912   116161609.822                                    22307606.912    87539831.708    22307601.498    94390722.087    22307603.910   117227243.937  
C20  24616285.912   128183526.934                                    24616289.200    96599583.564    24616280.570   104159484.335    24616281.606   129359546.795  
C22  23473835.844   122234420.006                                    23473820.923    92116313.161                                    23473830.501   123355829.455  
C27  25363259.265   132073145.244                                                                                                                                  
C36  22533458.747   117337587.726                                    22533463.518    88426343.270    22533468.861    95346476.7161   22533455.781   118414024.570  
C39  26252151.079   136701886.058                                    26252130.511   103019026.034    26252121.845   111081408.370    26252143.002   137955985.215  
> 2026 06 07 17 05 03.0000000  0 14                     
C01  38581742.455   200905357.032                                                                    38581737.506   163251968.280                                  
C02  36965698.235   192490037.892                                                                    36965686.781   156413917.753                                  
C03  37003930.939   192689178.242                                                                    37003918.681   156575699.954                                  
C07                                                                                                  37174991.418   157299542.783                                  
C08  38261129.530   199235746.418                                                                    38261124.741   161895377.145                                  
C09  38739953.623   201729005.845    38739944.367   155989697.316                                                                                                  
C10                                  37314908.977   150251653.037                                    37314903.062   157891605.644                                  
C12  22831134.065   118887735.020                                                                    22831120.235    96605929.590                                  
C19  22311066.534   116179630.661                                    22311067.213    87553412.349    22311062.549    94405365.578    22311064.818   117245430.178  
C20  24625496.500   128231485.501                                    24625499.985    96635725.321    24625491.694   104198454.591    24625491.158   129407945.354  
C22  23468443.527   122206347.224                                    23468430.607    92095157.454    23468436.004    99302644.4821   23468440.382   123327499.060  
C27  25359800.662   132055122.454                                                                                                                                  
C36  22531451.663   117327135.313                                    22531456.148    88418466.365    22531463.170    95337983.147    22531448.321   118403476.281  
C39  26246272.152   136671297.729                                    26246254.319   102995974.508    26246246.814   111056552.795    26246269.240   137925116.223  
> 2026 06 07 17 05 18.0000000  0 13                     
C01  38581716.313   200905220.919                                                                    38581711.614   163251857.722                                  
C02  36965896.528   192491070.206                                                                    36965885.020   156414756.635                                  
C03  37004077.644   192689943.373                                                                    37004065.547   156576321.695                                  
C07                                                                                                  37174953.750   157299380.520                                  
C08  38256207.561   199210116.999                                                                    38256201.915   161874551.201                                  
C09  38745511.640   201757943.811    38745503.938   156012073.989                                                                                                  
C10                                  37314889.571   150251574.948                                    37314883.764   157891523.598                                  
C12  22838637.304   118926810.833                                                                    22838626.064    96637681.823                                  
C19  22314553.709   116197788.445                                    22314554.299    87567096.155    22314546.455    94420120.295    22314551.351   117263754.503  
C20  24634718.274   128279502.595                                    24634720.865    96671911.158    24634712.574   104237472.357    24634714.021   129456402.972  
C22  23463074.064   122178393.533                                    23463062.699    92074091.484    23463066.505    99279929.837    23463073.117   123299288.899  
C36  22529456.461   117316746.101                                    22529463.377    88410637.011    22529469.488    95329540.964    22529453.334   118392991.723  
C39  26240393.136   136640553.0771                                   26240386.847   102972959.971    26240382.165   111031737.054    26240403.608   137894296.697  
> 2026 06 07 17 05 33.0000000  0 13                     
C01  38581697.015   200905120.644                                                                    38581692.583   163251776.218                                  
C02  36966101.628   192492138.530                                                                    36966090.406   156415624.724                                  
C03  37004231.282   192690744.240                                                                    37004219.328   156576972.543                                  
C07                                                                                                  37174921.568   157299235.347                                  
C08  38251295.599   199184539.251                                                                    38251289.238   161853767.257                                  
C09  38751076.661   201786927.528    38751072.426   156034486.064                                                                                                  
C10                                  37314873.453   150251510.824                                    37314868.003   157891456.225                                  
C12  22846161.646   118965997.990                                                                    22846155.284    96669524.522                                  
C19  22318070.530   116216100.901                                    22318070.387    87580896.508    22318059.594    94435000.666    22318068.082   117282235.005  
C20  24643953.807   128327595.835                                    24643955.040    96708154.346    24643946.606   104276552.028    24643951.091   129504937.431  
C22  23457730.797   122150577.258                                    23457720.147    92053128.963    23457723.560    99257326.735    23457731.333   123271217.173  
C36  22527477.395   117306437.865                                    22527485.151    88402868.716    22527490.851    95321164.611    22527473.589   118382588.942  
C39  26234543.247   136610080.544                                    26234535.099   102949995.921    26234531.704   111006975.764    26234551.949   137863544.664  
> 2026 06 07 17 05 48.0000000  0 13                     
C01  38581674.911   200905005.941                                                                    38581670.390   163251683.031                                  
C02  36966303.995   192493192.562                                                                    36966293.113   156416481.205                                  
C03  37004382.025   192691530.705                                                                    37004370.339   156577611.637                                  
C07                                                                                                  37174884.597   157299066.385                                  
C08  38246383.994   199158962.969                                                                    38246377.419   161832984.454                                  
C09  38756639.788   201815906.819    38756637.787   156056894.632                                    38756632.784   163991995.0901                                 
C10                                  37314851.135   150251421.730                                    37314846.114   157891362.628                                  
C12  22853697.727   119005245.890                                                                    22853692.295    96701416.635                                  
C19  22321607.774   116234517.712                                    22321606.506    87594775.483    22321597.500    94449965.821    22321604.415   117300820.794  
C20  24653193.772   128375714.611                                    24653194.076    96744416.840    24653186.749   104315652.442    24653191.056   129553497.702  
C22  23452404.345   122122848.050                                    23452393.106    92032232.164    23452397.430    99234794.511    23452405.542   123243233.663  
C36  22525503.726   117296160.282                                    22525510.927    88395123.432    22525516.181    95312813.070    22525499.098   118372217.093  
C39  26228693.269   136579697.1601                                   26228688.801   102927044.465    26228684.620   110982228.048    26228706.170   137832689.8071 
> 2026 06 07 17 06 03.0000000  0 13                     
C01  38581650.823   200904880.587                                                                    38581646.374   163251581.225                                  
C02  36966504.342   192494235.984                                                                    36966493.228   156417329.148                                  
C03  37004530.803   192692306.507                                                                    37004519.509   156578242.037                                  
C07                                                                                                  37174841.693   157298876.735                                  
C08  38241473.462   199133391.956                                                                    38241467.404   161812205.984                                  
C09  38762202.540   201844885.197    38762200.879   156079302.554                                    38762198.252   164015542.393                                  
C10                                  37314823.206   150251310.622                                    37314818.989   157891245.834                                  
C12  22861246.693   119044558.096                                                                    22861239.634    96733360.959                                  
C19  22325165.300   116253042.445                                    22325164.246    87608735.773    22325156.241    94465018.670    22325160.887   117319515.461  
C20  24662439.955   128423862.470                                    24662440.723    96780701.247    24662434.648   104354776.495    24662435.666   129602087.267  
C22  23447096.834   122095210.108                                    23447082.682    92011403.970    23447088.847    99212336.360    23447098.139   123215342.065  
C36  22523535.578   117285917.075                                    22523543.584    88387404.051    22523544.531    95304489.226    22523533.416   118361879.800  
C39  26222849.455   136549272.933                                    26222844.523   102904108.349    26222840.109   110957496.909    26222872.702   137801975.294  
> 2026 06 07 17 06 18.0000000  0 13                     
C01  38581625.985   200904751.119                                                                    38581621.554   163251476.021                                  
C02  36966703.939   192495275.553                                                                    36966692.789   156418173.902                                  
C03  37004678.847   192693078.151                                                                    37004667.769   156578869.096                                  
C07  37174794.430   193578901.4961                                                                   37174793.304   157298671.828                                  
C08  38236565.324   199107832.937                                                                    38236560.374   161791437.230                                  
C09  38767766.543   201873869.149    38767765.846   156101714.749                                    38767764.863   164039094.283                                  
C10                                  37314791.024   150251182.582                                    37314787.343   157891111.318                                  
C12  22868808.238   119083940.827                                                                    22868802.055    96765362.653                                  
C19  22328744.734   116271681.578                                    22328743.429    87622782.286    22328736.371    94480164.485    22328738.730   117338325.537  
C20  24671693.482   128472045.749                                    24671696.055    96817012.320    24671688.997   104393929.335    24671688.014   129650712.595  
C22  23441808.604   122067670.158                                                                    23441799.026    99189957.909                                  
C36  22521575.543   117275714.725                                    22521585.264    88379715.416    22521583.030    95296198.887    22521575.954   118351583.663  
C39                                                                  26217004.229   102881192.644    26217000.602   110932787.771    26217029.550   137771288.070  
> 2026 06 07 17 06 33.0000000  0 13                     
C01  38581602.720   200904630.115                                                                    38581598.217   163251377.677                                  
C02  36966905.162   192496323.654                                                                    36966894.084   156419025.572                                  
C03  37004828.536   192693858.236                                                                    37004817.690   156579502.989                                  
C07  37174748.185   193578642.908                                                                    37174741.949   157298461.687                                  
C08  38231661.921   199082298.497                                                                    38231658.365   161770688.418                                  
C09  38773334.834   201902871.126    38773334.888   156124140.888                                    38773334.781   164062660.791                                  
C10  37314764.685   194307761.4911   37314756.947   150251047.285                                    37314753.999   157890969.124                                  
C12  22876386.348   119123406.452                                                                    22876382.095    96797431.695                                  
C19  22332348.505   116290447.469                                    22332347.665    87636924.323    22332341.071    94495413.312    22332343.698   117357263.622  
C20  24680956.194   128520276.669                                    24680959.768    96853359.302    24680951.530   104433120.899    24680950.118   129699385.980  
C22  23436541.585   122040240.916                                                                    23436530.291    99167669.412                                  
C36  22519627.498   117265565.398                                    22519637.469    88372066.935                                    22519626.301   118341341.528  
C39                                                                  26211170.815   102858306.673    26211167.813   110908110.727    26211193.491   137740640.670  
> 2026 06 07 17 06 48.0000000  0 13                     
C01  38581580.544   200904514.799                                                                    38581576.041   163251284.027                                  
C02  36967107.547   192497377.605                                                                    36967096.647   156419882.022                                  
C03  37004979.315   192694643.942                                                                    37004968.629   156580141.468                                  
C07  37174697.008   193578375.369                                                                    37174687.323   157298244.267                                  
C08  38226762.824   199056785.927                                                                    38226760.430   161749957.422                                  
C09  38778906.825   201931888.274    38778907.575   156146578.893                                    38778907.593   164086239.645                                  
C10  37314725.998   194307551.483    37314720.620   150250902.702                                    37314718.243   157890817.180                                  
C12  22883980.611   119162951.925                                                                    22883977.162    96829565.605                                  
C19  22335975.612   116309337.211                                    22335976.256    87651159.734    22335969.251    94510762.819    22335970.824   117376326.740  
C20  24690226.965   128568552.148                                    24690230.199    96889739.872    24690222.265   104472348.661    24690219.406   129748104.344  
C22  23431295.222   122012919.971                                                                    23431282.749    99145468.911                                  
