% program   : rnx2rtkp ver.EX 2.5.0
% inp file  : D:/code/rtklib_java/temp_rinex\ROVER.obs
% inp file  : D:/code/rtklib_java/temp_rinex\base.obs
% inp file  : D:/code/rtklib_java/temp_rinex\ROVER.nav
% obs start : 2026/06/07 17:00:18.0 GPST (week2422  61218.0s)
% obs end   : 2026/06/07 18:00:03.0 GPST (week2422  64803.0s)
% ref pos   :  29.189057880   95.075927980   709.4898
%
% (lat/lon/height=WGS84/ellipsoidal,Q=1:fix,2:float,3:sbas,4:dgps,5:single,6:ppp,ns=# of satellites)
%  GPST          latitude(deg) longitude(deg)  height(m)   Q  ns   sdn(m)   sde(m)   sdu(m)  sdne(m)  sdeu(m)  sdun(m) age(s)  ratio
2422  61218.000   29.191546849   95.073489293   922.1989   2  10   2.0989   2.1589   5.1162   1.6277   1.9693   0.8580   0.00    0.0
2422  61233.000   29.191541246   95.073490171   921.7184   2  10   1.2512   1.3085   3.4575   0.5798   1.1668  -1.0676   0.00    0.0
2422  61248.000   29.191538586   95.073492575   921.0990   2  10   0.0000   0.0000   3.1403   4.2930  -1.8895   1.7026   0.00    0.0
2422  61263.000   29.191537914   95.073496270   919.6773   2   8   0.9720   0.9506   1.9631   0.1238   0.7045  -0.9868   0.00    0.0
2422  61278.000   29.191536560   95.073497143   917.8968   2   9   0.9033   0.8514   1.5855   0.1908   0.5442  -0.9149   0.00    0.0
2422  61293.000   29.191529163   95.073489263   916.6267   2   9   0.8355   0.7784   1.3357   0.1937   0.4350  -0.8505   0.00    0.0
2422  61308.000   29.191524407   95.073484431   916.4350   2   9   0.7687   0.7207   1.1537   0.1785   0.3627  -0.7862   0.00    0.0
2422  61323.000   29.191522145   95.073478907   916.3379   2  10   0.6726   0.6661   0.9759   0.2095   0.2712  -0.6830   0.00    0.0
2422  61338.000   29.191519035   95.073473331   916.5753   2  10   0.5934   0.6209   0.8443   0.1940   0.2266  -0.6029   0.00    0.0
2422  61353.000   29.191516412   95.073468447   916.8762   2  10   0.5213   0.5806   0.7374   0.1584   0.2115  -0.5317   0.00    0.0
2422  61368.000   29.191514825   95.073465460   916.9587   2  10   0.4699   0.5483   0.6556   0.1410   0.1923  -0.4798   0.00    0.0
2422  61383.000   29.191512084   95.073463190   916.9529   2  10   0.4263   0.5195   0.5893   0.1186   0.1825  -0.4365   0.00    0.0
2422  61398.000   29.191511477   95.073462960   916.8022   2   9   0.3942   0.4974   0.5406   0.0676   0.1918  -0.4061   0.00    0.0
2422  61413.000   29.191511678   95.073463257   916.7310   2   9   0.3643   0.4779   0.4977  -0.0530   0.1995  -0.3779   0.00    0.0
2422  61428.000   29.191512061   95.073464153   916.6534   2   9   0.3380   0.4601   0.4601  -0.0943   0.2049  -0.3519   0.00    0.0
2422  61443.000   29.191510564   95.073464104   916.7606   2   9   0.3140   0.4443   0.4269  -0.1160   0.2088  -0.3285   0.00    0.0
2422  61458.000   29.191509107   95.073465520   916.8975   2   9   0.2898   0.4271   0.3941  -0.1225   0.2051  -0.3040   0.00    0.0
2422  61473.000   29.191508421   95.073467078   916.8134   2  10   0.2684   0.4109   0.3694  -0.1282   0.2003  -0.2835   0.00    0.0
2422  61488.000   29.191508444   95.073467859   916.6510   2  10   0.2504   0.3971   0.3476  -0.1308   0.1953  -0.2661   0.00    0.0
2422  61503.000   29.191507978   95.073468506   916.5939   2  10   0.2341   0.3842   0.3277  -0.1335   0.1916  -0.2503   0.00    0.0
2422  61518.000   29.191507048   95.073468441   916.6009   2  10   0.2193   0.3722   0.3093  -0.1361   0.1888  -0.2356   0.00    0.0
2422  61533.000   29.191506339   95.073468493   916.6142   2  10   0.2057   0.3610   0.2923  -0.1384   0.1867  -0.2221   0.00    0.0
2422  61548.000   29.191505855   95.073469679   916.5569   2  10   0.1942   0.3509   0.2770  -0.1387   0.1837  -0.2104   0.00    0.0
2422  61563.000   29.191503496   95.073462353   916.3587   2  10   0.1846   0.3418   0.2638  -0.1383   0.1805  -0.2006   0.00    0.0
2422  61578.000   29.191494936   95.073465209   917.3458   2  10   0.1756   0.3330   0.2515  -0.1380   0.1777  -0.1915   0.00    0.0
2422  61593.000   29.191486499   95.073464465   918.5327   2  10   0.1721   0.3253   0.2433  -0.1354   0.1735  -0.1872   0.00    0.0
2422  61608.000   29.191491934   95.073466940   917.9521   2  10   0.1616   0.3180   0.2304  -0.1355   0.1720  -0.1764   0.00    0.0
2422  61623.000   29.191492519   95.073470016   918.0793   2  10   0.1546   0.3105   0.2208  -0.1351   0.1697  -0.1693   0.00    0.0
2422  61638.000   29.191492984   95.073472147   918.1444   2  10   0.1489   0.3046   0.2128  -0.1363   0.1693  -0.1636   0.00    0.0
2422  61653.000   29.191493474   95.073474077   918.2376   2  10   0.1437   0.2992   0.2053  -0.1370   0.1687  -0.1583   0.00    0.0
2422  61668.000   29.191493379   95.073474983   918.2900   2  10   0.1389   0.2941   0.1984  -0.1373   0.1679  -0.1534   0.00    0.0
2422  61683.000   29.191494382   95.073475114   918.2957   2  10   0.1343   0.2881   0.1914  -0.1361   0.1655  -0.1483   0.00    0.0
2422  61698.000   29.191497192   95.073475549   918.3693   2  10   0.1302   0.2835   0.1855  -0.1361   0.1646  -0.1442   0.00    0.0
2422  61713.000   29.191495992   95.073473799   918.0170   2  10   0.1267   0.2800   0.1803  -0.1354   0.1643  -0.1401   0.00    0.0
2422  61728.000   29.191495106   95.073472773   917.8794   2  11   0.1232   0.2749   0.1748  -0.1335   0.1617  -0.1361   0.00    0.0
2422  61743.000   29.191495275   95.073473194   917.8744   2  10   0.1197   0.2705   0.1694  -0.1319   0.1593  -0.1323   0.00    0.0
2422  61758.000   29.191495033   95.073473440   917.8415   2  10   0.1164   0.2662   0.1643  -0.1305   0.1570  -0.1289   0.00    0.0
2422  61773.000   29.191494946   95.073473523   917.8271   2  10   0.1133   0.2620   0.1598  -0.1291   0.1549  -0.1257   0.00    0.0
2422  61788.000   29.191495047   95.073473633   917.7461   2  10   0.1104   0.2580   0.1555  -0.1278   0.1530  -0.1227   0.00    0.0
2422  61803.000   29.191494959   95.073473598   917.7375   2  10   0.1077   0.2541   0.1515  -0.1267   0.1512  -0.1198   0.00    0.0
2422  61818.000   29.191495254   95.073474093   917.7000   2   9   0.1062   0.2513   0.1482  -0.1254   0.1497  -0.1177   0.00    0.0
2422  61833.000   29.191495017   95.073476536   917.7597   2  10   0.1043   0.2480   0.1449  -0.1237   0.1476  -0.1155   0.00    0.0
2422  61848.000   29.191494923   95.073478352   917.7663   2  10   0.1025   0.2448   0.1419  -0.1220   0.1457  -0.1135   0.00    0.0
2422  61863.000   29.191494755   95.073479640   917.8065   2   9   0.1014   0.2425   0.1400  -0.1212   0.1446  -0.1124   0.00    0.0
2422  61878.000   29.191494706   95.073480742   917.7779   2   9   0.1000   0.2403   0.1375  -0.1204   0.1435  -0.1107   0.00    0.0
2422  61893.000   29.191494984   95.073481200   917.7492   2  10   0.0983   0.2373   0.1347  -0.1189   0.1417  -0.1088   0.00    0.0
2422  61908.000   29.191495066   95.073480819   917.7196   2   9   0.0975   0.2351   0.1322  -0.1177   0.1404  -0.1074   0.00    0.0
2422  61923.000   29.191495513   95.073480280   917.6886   2  10   0.0961   0.2323   0.1298  -0.1162   0.1386  -0.1058   0.00    0.0
2422  61938.000   29.191495896   95.073480064   917.6440   2  10   0.0948   0.2296   0.1275  -0.1147   0.1369  -0.1042   0.00    0.0
2422  61953.000   29.191496236   95.073479541   917.5888   2   9   0.0935   0.2272   0.1261  -0.1132   0.1357  -0.1025   0.00    0.0
2422  61968.000   29.191496508   95.073478930   917.5123   2  10   0.0922   0.2247   0.1240  -0.1119   0.1342  -0.1010   0.00    0.0
2422  61983.000   29.191496975   95.073478422   917.4523   2  10   0.0910   0.2222   0.1220  -0.1106   0.1327  -0.0995   0.00    0.0
2422  61998.000   29.191497315   95.073478044   917.4078   2   9   0.0896   0.2197   0.1196  -0.1096   0.1311  -0.0983   0.00    0.0
2422  62013.000   29.191497697   95.073477790   917.3803   2   9   0.0885   0.2173   0.1182  -0.1084   0.1300  -0.0967   0.00    0.0
2422  62028.000   29.191498036   95.073477264   917.3415   2   9   0.0872   0.2149   0.1158  -0.1075   0.1286  -0.0956   0.00    0.0
2422  62043.000   29.191498398   95.073476684   917.2485   2  10   0.0860   0.2125   0.1141  -0.1066   0.1274  -0.0944   0.00    0.0
2422  62058.000   29.191498547   95.073476087   917.2383   2  10   0.0848   0.2101   0.1123  -0.1057   0.1262  -0.0931   0.00    0.0
2422  62073.000   29.191498568   95.073475176   917.2456   2  10   0.0839   0.2078   0.1113  -0.1048   0.1254  -0.0915   0.00    0.0
2422  62088.000   29.191498694   95.073475065   917.2818   2   9   0.0829   0.2065   0.1100  -0.1046   0.1252  -0.0908   0.00    0.0
2422  62103.000   29.191499141   95.073474765   917.2665   2   9   0.0821   0.2051   0.1085  -0.1041   0.1245  -0.0898   0.00    0.0
2422  62118.000   29.191499475   95.073474321   917.2266   2   9   0.0812   0.2038   0.1071  -0.1035   0.1238  -0.0889   0.00    0.0
2422  62133.000   29.191499561   95.073474701   917.2090   2  10   0.0802   0.2018   0.1057  -0.1026   0.1227  -0.0878   0.00    0.0
2422  62148.000   29.191499704   95.073475017   917.2109   2  10   0.0792   0.2000   0.1040  -0.1018   0.1216  -0.0866   0.00    0.0
2422  62163.000   29.191499832   95.073475319   917.1933   2  10   0.0782   0.1981   0.1025  -0.1009   0.1205  -0.0855   0.00    0.0
2422  62178.000   29.191500054   95.073475643   917.1904   2  10   0.0773   0.1963   0.1012  -0.1001   0.1195  -0.0846   0.00    0.0
2422  62193.000   29.191500186   95.073475742   917.1586   2  10   0.0764   0.1946   0.1000  -0.0994   0.1185  -0.0836   0.00    0.0
2422  62208.000   29.191500382   95.073475921   917.1526   2  10   0.0756   0.1927   0.0988  -0.0987   0.1176  -0.0827   0.00    0.0
2422  62223.000   29.191500625   95.073475885   917.1548   2   9   0.0749   0.1916   0.0983  -0.0984   0.1173  -0.0821   0.00    0.0
2422  62238.000   29.191500883   95.073476091   917.1083   2  10   0.0741   0.1899   0.0972  -0.0977   0.1164  -0.0812   0.00    0.0
2422  62253.000   29.191501030   95.073476393   917.1243   2  10   0.0732   0.1882   0.0958  -0.0970   0.1155  -0.0802   0.00    0.0
2422  62268.000   29.191501099   95.073476551   917.0771   2  10   0.0725   0.1866   0.0947  -0.0964   0.1146  -0.0793   0.00    0.0
2422  62283.000   29.191501122   95.073476615   917.0777   2  10   0.0717   0.1850   0.0936  -0.0957   0.1137  -0.0785   0.00    0.0
2422  62298.000   29.191500852   95.073476669   917.0542   2  10   0.0710   0.1835   0.0937  -0.0950   0.1134  -0.0775   0.00    0.0
2422  62313.000   29.191500884   95.073476746   917.0595   2  10   0.0703   0.1819   0.0922  -0.0944   0.1124  -0.0769   0.00    0.0
2422  62328.000   29.191500925   95.073476959   917.0873   2  10   0.0696   0.1803   0.0911  -0.0939   0.1116  -0.0762   0.00    0.0
2422  62343.000   29.191500800   95.073476932   917.0897   2  10   0.0689   0.1787   0.0902  -0.0933   0.1108  -0.0755   0.00    0.0
2422  62358.000   29.191500600   95.073476413   917.0767   2  11   0.0683   0.1770   0.0901  -0.0927   0.1102  -0.0746   0.00    0.0
2422  62373.000   29.191503576   95.073478825   917.1834   2  11   0.0675   0.1753   0.0887  -0.0923   0.1093  -0.0741   0.00    0.0
2422  62388.000   29.191502612   95.073476881   917.1259   2  11   0.0668   0.1736   0.0878  -0.0918   0.1085  -0.0735   0.00    0.0
2422  62403.000   29.191500810   95.073474117   916.9647   2  10   0.0665   0.1721   0.0877  -0.0912   0.1079  -0.0726   0.00    0.0
2422  62418.000   29.191500917   95.073473793   916.9611   2  11   0.0659   0.1703   0.0869  -0.0907   0.1072  -0.0720   0.00    0.0
2422  62433.000   29.191500980   95.073473500   916.9470   2  12   0.0651   0.1685   0.0860  -0.0902   0.1063  -0.0715   0.00    0.0
2422  62448.000   29.191501047   95.073473068   916.9437   2  12   0.0645   0.1668   0.0847  -0.0898   0.1055  -0.0710   0.00    0.0
2422  62463.000   29.191501020   95.073472438   916.9300   2  12   0.0639   0.1651   0.0838  -0.0893   0.1048  -0.0705   0.00    0.0
2422  62478.000   29.191501153   95.073472093   916.9085   2  11   0.0635   0.1634   0.0831  -0.0887   0.1041  -0.0699   0.00    0.0
2422  62493.000   29.191501356   95.073471662   916.8596   2  11   0.0630   0.1617   0.0824  -0.0882   0.1034  -0.0693   0.00    0.0
2422  62508.000   29.191501550   95.073471164   916.8495   2  11   0.0625   0.1600   0.0817  -0.0877   0.1027  -0.0688   0.00    0.0
2422  62523.000   29.191501764   95.073470623   916.8078   2  11   0.0619   0.1582   0.0810  -0.0872   0.1019  -0.0682   0.00    0.0
2422  62538.000   29.191502046   95.073470261   916.7997   2  11   0.0613   0.1564   0.0803  -0.0866   0.1012  -0.0677   0.00    0.0
2422  62553.000   29.191502473   95.073469667   916.7401   2  12   0.0609   0.1546   0.0796  -0.0861   0.1004  -0.0671   0.00    0.0
2422  62568.000   29.191502928   95.073469111   916.6819   2  13   0.0603   0.1526   0.0789  -0.0855   0.0995  -0.0666   0.00    0.0
2422  62583.000   29.191502931   95.073468292   916.6890   2  13   0.0597   0.1508   0.0782  -0.0849   0.0987  -0.0661   0.00    0.0
2422  62598.000   29.191503168   95.073467767   916.6847   2  13   0.0591   0.1488   0.0775  -0.0843   0.0978  -0.0655   0.00    0.0
2422  62613.000   29.191503443   95.073467490   916.6616   2  13   0.0585   0.1469   0.0768  -0.0836   0.0969  -0.0649   0.00    0.0
2422  62628.000   29.191503617   95.073466996   916.6044   2  13   0.0579   0.1449   0.0761  -0.0828   0.0959  -0.0643   0.00    0.0
2422  62643.000   29.191503797   95.073466567   916.5774   2  13   0.0575   0.1428   0.0753  -0.0820   0.0949  -0.0636   0.00    0.0
2422  62658.000   29.191503864   95.073465889   916.5245   2  13   0.0568   0.1408   0.0749  -0.0813   0.0941  -0.0630   0.00    0.0
2422  62673.000   29.191503985   95.073465241   916.5435   2  11   0.0564   0.1389   0.0757  -0.0806   0.0935  -0.0627   0.00    0.0
2422  62688.000   29.191504316   95.073464475   916.5002   2  11   0.0560   0.1370   0.0750  -0.0799   0.0926  -0.0622   0.00    0.0
2422  62703.000   29.191504377   95.073463595   916.5037   2  10   0.0559   0.1351   0.0758  -0.0794   0.0920  -0.0627   0.00    0.0
2422  62718.000   29.191504437   95.073462609   916.4978   2  11   0.0556   0.1333   0.0754  -0.0788   0.0913  -0.0624   0.00    0.0
2422  62733.000   29.191504422   95.073461370   916.4818   2  12   0.0555   0.1315   0.0746  -0.0782   0.0905  -0.0620   0.00    0.0
2422  62748.000   29.191504572   95.073460292   916.4571   2  12   0.0553   0.1296   0.0736  -0.0776   0.0895  -0.0616   0.00    0.0
2422  62763.000   29.191504606   95.073459399   916.4421   2  12   0.0550   0.1277   0.0729  -0.0770   0.0887  -0.0612   0.00    0.0
2422  62778.000   29.191504609   95.073458731   916.4471   2  12   0.0547   0.1259   0.0723  -0.0764   0.0878  -0.0608   0.00    0.0
2422  62793.000   29.191504586   95.073457963   916.4318   2  12   0.0544   0.1241   0.0717  -0.0757   0.0869  -0.0604   0.00    0.0
2422  62808.000   29.191504512   95.073457419   916.4558   2  11   0.0542   0.1224   0.0719  -0.0752   0.0863  -0.0602   0.00    0.0
2422  62823.000   29.191504419   95.073456732   916.3873   2  10   0.0542   0.1210   0.0736  -0.0744   0.0863  -0.0594   0.00    0.0
2422  62838.000   29.191504564   95.073456247   916.3889   2  10   0.0539   0.1193   0.0722  -0.0739   0.0852  -0.0594   0.00    0.0
2422  62853.000   29.191504764   95.073455815   916.4206   2  10   0.0536   0.1177   0.0727  -0.0733   0.0847  -0.0588   0.00    0.0
2422  62868.000   29.191504944   95.073455439   916.4277   2  10   0.0534   0.1160   0.0712  -0.0728   0.0837  -0.0587   0.00    0.0
2422  62883.000   29.191505150   95.073454955   916.4067   2  11   0.0531   0.1144   0.0704  -0.0721   0.0827  -0.0583   0.00    0.0
2422  62898.000   29.191504897   95.073454352   916.4705   2  10   0.0529   0.1127   0.0698  -0.0715   0.0817  -0.0582   0.00    0.0
2422  62913.000   29.191505025   95.073454121   916.5210   2  13   0.0527   0.1111   0.0695  -0.0708   0.0810  -0.0577   0.00    0.0
2422  62928.000   29.191504986   95.073453657   916.5506   2  13   0.0524   0.1095   0.0683  -0.0703   0.0801  -0.0574   0.00    0.0
2422  62943.000   29.191504912   95.073453506   916.6546   2  11   0.0519   0.1082   0.0686  -0.0698   0.0795  -0.0570   0.00    0.0
2422  62958.000   29.191504774   95.073453456   916.6834   2  11   0.0515   0.1066   0.0679  -0.0693   0.0786  -0.0566   0.00    0.0
2422  62973.000   29.191504615   95.073453540   916.7623   2  13   0.0512   0.1051   0.0672  -0.0686   0.0778  -0.0563   0.00    0.0
2422  62988.000   29.191504335   95.073453413   916.7091   2  12   0.0507   0.1036   0.0666  -0.0680   0.0770  -0.0558   0.00    0.0
2422  63003.000   29.191504214   95.073453186   916.7274   2  12   0.0505   0.1023   0.0670  -0.0675   0.0764  -0.0554   0.00    0.0
2422  63018.000   29.191504254   95.073452883   916.7149   2  11   0.0501   0.1009   0.0665  -0.0667   0.0757  -0.0550   0.00    0.0
2422  63033.000   29.191504443   95.073452742   916.6899   2  11   0.0499   0.0996   0.0660  -0.0662   0.0749  -0.0546   0.00    0.0
2422  63048.000   29.191504492   95.073452519   916.6873   2  10   0.0498   0.0983   0.0657  -0.0655   0.0743  -0.0540   0.00    0.0
2422  63063.000   29.191504388   95.073452268   916.6703   2  10   0.0494   0.0971   0.0652  -0.0649   0.0736  -0.0537   0.00    0.0
2422  63078.000   29.191504352   95.073451974   916.6375   2  10   0.0491   0.0957   0.0647  -0.0643   0.0728  -0.0533   0.00    0.0
2422  63093.000   29.191504299   95.073451537   916.6167   2   9   0.0489   0.0947   0.0669  -0.0638   0.0729  -0.0530   0.00    0.0
2422  63108.000   29.191504185   95.073451176   916.6542   2   9   0.0486   0.0935   0.0665  -0.0632   0.0723  -0.0527   0.00    0.0
2422  63123.000   29.191504359   95.073450938   916.6284   2   9   0.0481   0.0923   0.0661  -0.0626   0.0716  -0.0524   0.00    0.0
2422  63138.000   29.191504360   95.073450332   916.6110   2   9   0.0478   0.0913   0.0658  -0.0621   0.0710  -0.0520   0.00    0.0
2422  63153.000   29.191504515   95.073450059   916.6109   2  10   0.0474   0.0900   0.0654  -0.0615   0.0702  -0.0517   0.00    0.0
2422  63168.000   29.191504280   95.073449453   916.5792   2  10   0.0471   0.0887   0.0637  -0.0609   0.0693  -0.0515   0.00    0.0
2422  63183.000   29.191504497   95.073449051   916.5741   2  10   0.0467   0.0876   0.0629  -0.0603   0.0685  -0.0510   0.00    0.0
2422  63198.000   29.191504688   95.073448706   916.5522   2  10   0.0464   0.0865   0.0623  -0.0598   0.0677  -0.0507   0.00    0.0
2422  63213.000   29.191504638   95.073448372   916.5382   2  11   0.0462   0.0853   0.0617  -0.0592   0.0670  -0.0503   0.00    0.0
2422  63228.000   29.191504626   95.073448020   916.5472   2  10   0.0457   0.0844   0.0634  -0.0587   0.0669  -0.0499   0.00    0.0
2422  63243.000   29.191504916   95.073447968   916.5706   2  11   0.0453   0.0833   0.0625  -0.0582   0.0661  -0.0498   0.00    0.0
2422  63258.000   29.191505147   95.073448160   916.5583   2  11   0.0449   0.0822   0.0611  -0.0577   0.0652  -0.0495   0.00    0.0
2422  63273.000   29.191505219   95.073448254   916.5731   2  10   0.0446   0.0811   0.0615  -0.0572   0.0647  -0.0493   0.00    0.0
2422  63288.000   29.191505271   95.073448288   916.5913   2   9   0.0445   0.0803   0.0618  -0.0564   0.0644  -0.0485   0.00    0.0
2422  63303.000   29.191505027   95.073448148   916.5348   2   9   0.0441   0.0794   0.0614  -0.0560   0.0638  -0.0481   0.00    0.0
2422  63318.000   29.191504985   95.073448134   916.5512   2   9   0.0438   0.0783   0.0610  -0.0554   0.0631  -0.0477   0.00    0.0
2422  63333.000   29.191505104   95.073448009   916.5742   2   9   0.0435   0.0774   0.0605  -0.0549   0.0625  -0.0474   0.00    0.0
2422  63348.000   29.191505380   95.073447849   916.5391   2   9   0.0432   0.0764   0.0602  -0.0544   0.0619  -0.0469   0.00    0.0
2422  63363.000   29.191505365   95.073447704   916.5039   2   9   0.0429   0.0756   0.0598  -0.0539   0.0613  -0.0466   0.00    0.0
2422  63378.000   29.191505394   95.073447674   916.4846   2   9   0.0423   0.0746   0.0593  -0.0532   0.0607  -0.0462   0.00    0.0
2422  63393.000   29.191505477   95.073447863   916.4876   2  10   0.0422   0.0738   0.0589  -0.0529   0.0600  -0.0458   0.00    0.0
2422  63408.000   29.191505165   95.073447658   916.4361   2  11   0.0424   0.0728   0.0577  -0.0518   0.0594  -0.0448   0.00    0.0
2422  63423.000   29.191505294   95.073447671   916.4384   2  11   0.0417   0.0720   0.0565  -0.0514   0.0586  -0.0448   0.00    0.0
2422  63438.000   29.191505368   95.073447520   916.4509   2  12   0.0412   0.0710   0.0557  -0.0508   0.0578  -0.0445   0.00    0.0
2422  63453.000   29.191505528   95.073447544   916.4594   2  12   0.0406   0.0702   0.0550  -0.0503   0.0571  -0.0443   0.00    0.0
2422  63468.000   29.191505659   95.073447395   916.4475   2  10   0.0405   0.0694   0.0565  -0.0499   0.0569  -0.0440   0.00    0.0
2422  63483.000   29.191505719   95.073447344   916.4479   2  10   0.0401   0.0687   0.0561  -0.0493   0.0563  -0.0436   0.00    0.0
2422  63498.000   29.191505846   95.073447412   916.4807   2  10   0.0399   0.0679   0.0557  -0.0489   0.0557  -0.0434   0.00    0.0
2422  63513.000   29.191505894   95.073447449   916.4729   2  11   0.0395   0.0672   0.0552  -0.0483   0.0551  -0.0430   0.00    0.0
2422  63528.000   29.191505803   95.073447473   916.4907   2  10   0.0392   0.0662   0.0541  -0.0478   0.0542  -0.0428   0.00    0.0
2422  63543.000   29.191505724   95.073447730   916.5356   2  10   0.0391   0.0656   0.0532  -0.0473   0.0536  -0.0424   0.00    0.0
2422  63558.000   29.191505744   95.073447787   916.5359   2  10   0.0385   0.0648   0.0543  -0.0467   0.0534  -0.0422   0.00    0.0
2422  63573.000   29.191505758   95.073447925   916.5546   2  10   0.0385   0.0640   0.0528  -0.0464   0.0525  -0.0418   0.00    0.0
2422  63588.000   29.191505732   95.073447899   916.5743   2  11   0.0382   0.0634   0.0520  -0.0458   0.0519  -0.0414   0.00    0.0
2422  63603.000   29.191505749   95.073448117   916.5693   2   9   0.0378   0.0628   0.0525  -0.0453   0.0517  -0.0408   0.00    0.0
2422  63618.000   29.191514870   95.073456441   915.4955   2  11   0.0375   0.0623   0.0520  -0.0451   0.0513  -0.0405   0.00    0.0
2422  63633.000   29.191506177   95.073450630   917.0557   2  11   0.0374   0.0617   0.0514  -0.0445   0.0508  -0.0404   0.00    0.0
2422  63648.000   29.191506010   95.073450702   916.9911   2  11   0.0367   0.0610   0.0509  -0.0440   0.0503  -0.0402   0.00    0.0
2422  63663.000   29.191505765   95.073450628   916.9183   2  11   0.0368   0.0606   0.0505  -0.0437   0.0499  -0.0398   0.00    0.0
2422  63678.000   29.191505732   95.073450818   916.9030   2  12   0.0366   0.0599   0.0501  -0.0433   0.0494  -0.0396   0.00    0.0
2422  63693.000   29.191505659   95.073450734   916.8471   2  12   0.0365   0.0591   0.0496  -0.0429   0.0489  -0.0392   0.00    0.0
2422  63708.000   29.191505714   95.073450742   916.8000   2  12   0.0358   0.0586   0.0492  -0.0426   0.0484  -0.0388   0.00    0.0
2422  63723.000   29.191505634   95.073450819   916.8651   2  11   0.0358   0.0583   0.0514  -0.0425   0.0486  -0.0390   0.00    0.0
2422  63738.000   29.191505533   95.073450726   916.8474   2  11   0.0357   0.0578   0.0511  -0.0421   0.0483  -0.0388   0.00    0.0
2422  63753.000   29.191505641   95.073450584   916.8126   2  11   0.0353   0.0573   0.0508  -0.0414   0.0479  -0.0386   0.00    0.0
2422  63768.000   29.191505665   95.073450630   916.8037   2  11   0.0352   0.0568   0.0505  -0.0412   0.0475  -0.0383   0.00    0.0
2422  63783.000   29.191505883   95.073450741   916.7011   2  10   0.0350   0.0563   0.0522  -0.0407   0.0476  -0.0380   0.00    0.0
2422  63798.000   29.191505834   95.073450757   916.7320   2  12   0.0348   0.0559   0.0511  -0.0404   0.0470  -0.0377   0.00    0.0
2422  63813.000   29.191506033   95.073450730   916.7195   2  12   0.0341   0.0552   0.0493  -0.0399   0.0465  -0.0375   0.00    0.0
2422  63828.000   29.191506136   95.073450736   916.7117   2  12   0.0339   0.0545   0.0485  -0.0396   0.0459  -0.0371   0.00    0.0
2422  63843.000   29.191505901   95.073450839   916.6715   2  11   0.0342   0.0543   0.0480  -0.0393   0.0454  -0.0367   0.00    0.0
2422  63858.000   29.191505849   95.073450858   916.6972   2  11   0.0337   0.0536   0.0495  -0.0392   0.0455  -0.0369   0.00    0.0
2422  63873.000   29.191505863   95.073450789   916.7115   2  10   0.0340   0.0533   0.0492  -0.0387   0.0451  -0.0367   0.00    0.0
2422  63888.000   29.191505747   95.073450625   916.6911   2  12   0.0340   0.0531   0.0497  -0.0381   0.0453  -0.0358   0.00    0.0
2422  63903.000   29.191506281   95.073449677   916.1863   2  11   0.0335   0.0525   0.0479  -0.0378   0.0444  -0.0357   0.00    0.0
2422  63918.000   29.191505737   95.073450433   916.6933   2  10   0.0335   0.0521   0.0487  -0.0374   0.0444  -0.0358   0.00    0.0
2422  63933.000   29.191503426   95.073458414   920.5647   2  10   0.0328   0.0516   0.0479  -0.0370   0.0438  -0.0350   0.00    0.0
2422  63948.000   29.191503631   95.073457947   919.7794   2  12   0.0326   0.0511   0.0473  -0.0367   0.0434  -0.0348   0.00    0.0
2422  63963.000   29.191503509   95.073457765   919.3152   2  12   0.0328   0.0508   0.0466  -0.0368   0.0430  -0.0346   0.00    0.0
2422  63978.000   29.191504133   95.073458265   919.0623   2  12   0.0327   0.0503   0.0462  -0.0364   0.0427  -0.0343   0.00    0.0
2422  63993.000   29.191503866   95.073458189   918.8437   2  12   0.0323   0.0499   0.0457  -0.0361   0.0423  -0.0341   0.00    0.0
2422  64008.000   29.191503622   95.073458205   918.6731   2  12   0.0320   0.0495   0.0453  -0.0358   0.0419  -0.0339   0.00    0.0
2422  64023.000   29.191503338   95.073458253   918.5447   2  12   0.0316   0.0490   0.0449  -0.0354   0.0415  -0.0337   0.00    0.0
2422  64038.000   29.191504216   95.073456552   917.5711   2  11   0.0315   0.0486   0.0472  -0.0351   0.0418  -0.0341   0.00    0.0
2422  64053.000   29.191504125   95.073456561   917.5694   2  10   0.0317   0.0487   0.0486  -0.0353   0.0422  -0.0345   0.00    0.0
2422  64068.000   29.191504118   95.073456354   917.5089   2  10   0.0315   0.0480   0.0485  -0.0349   0.0418  -0.0341   0.00    0.0
2422  64083.000   29.191504172   95.073455767   917.1895   2   9   0.0315   0.0478   0.0508  -0.0347   0.0419  -0.0335   0.00    0.0
2422  64098.000   29.191504120   95.073455366   917.1052   2  11   0.0307   0.0474   0.0500  -0.0342   0.0415  -0.0333   0.00    0.0
2422  64113.000   29.191504283   95.073455236   917.0880   2  11   0.0308   0.0468   0.0468  -0.0337   0.0406  -0.0329   0.00    0.0
2422  64128.000   29.191504060   95.073454783   917.0538   2  11   0.0313   0.0466   0.0455  -0.0333   0.0402  -0.0325   0.00    0.0
2422  64143.000   29.191506974   95.073457184   917.2321   2  11   0.0304   0.0461   0.0453  -0.0329   0.0398  -0.0322   0.00    0.0
2422  64158.000   29.191504209   95.073454540   917.0024   2   9   0.0307   0.0459   0.0449  -0.0328   0.0396  -0.0320   0.00    0.0
2422  64173.000   29.191509944   95.073467187   918.7299   2  10   0.0310   0.0484   0.0555  -0.0315   0.0445  -0.0311   0.00    0.0
2422  64188.000   29.191504358   95.073457317   917.3186   2  10   0.0396   0.0680   0.0877   0.0138   0.0723   0.0266   0.00    0.0
2422  64203.000   29.191504383   95.073457513   917.3455   2  11   0.0395   0.0682   0.0882   0.0145   0.0727   0.0269   0.00    0.0
2422  64218.000   29.191504476   95.073457874   917.4160   2  10   0.0395   0.0684   0.0888   0.0148   0.0731   0.0272   0.00    0.0
2422  64233.000   29.191504466   95.073457699   917.3642   2  10   0.0394   0.0688   0.0893   0.0153   0.0736   0.0275   0.00    0.0
2422  64248.000   29.191504485   95.073458104   917.4175   2  10   0.0396   0.0690   0.0898   0.0153   0.0739   0.0278   0.00    0.0
2422  64263.000   29.191504682   95.073458364   917.4348   2  10   0.0394   0.0693   0.0904   0.0160   0.0744   0.0280   0.00    0.0
2422  64278.000   29.191504500   95.073458268   917.4240   2   9   0.0396   0.0696   0.0909   0.0161   0.0748   0.0283   0.00    0.0
2422  64293.000   29.191504387   95.073458091   917.4153   2   8   0.0395   0.0698   0.0914   0.0167   0.0752   0.0285   0.00    0.0
2422  64308.000   29.191504361   95.073457993   917.4195   2  10   0.0396   0.0701   0.0919   0.0167   0.0756   0.0288   0.00    0.0
2422  64323.000   29.191504575   95.073458069   917.3940   2  11   0.0396   0.0704   0.0924   0.0169   0.0760   0.0291   0.00    0.0
2422  64338.000   29.191504483   95.073458148   917.4291   2  11   0.0396   0.0706   0.0929   0.0173   0.0764   0.0293   0.00    0.0
2422  64353.000   29.191504533   95.073458368   917.4168   2  10   0.0396   0.0709   0.0935   0.0176   0.0768   0.0296   0.00    0.0
2422  64368.000   29.191504239   95.073458268   917.4214   2  12   0.0397   0.0712   0.0939   0.0177   0.0772   0.0298   0.00    0.0
2422  64383.000   29.191504174   95.073458503   917.4618   2  11   0.0505   0.0805   0.0997   0.0385   0.0849   0.0435   0.00    0.0
2422  64398.000   29.191504182   95.073458945   917.5277   2  12   0.0457   0.0766   0.0980   0.0308   0.0822   0.0383   0.00    0.0
2422  64413.000   29.191507162   95.073463063   917.8757   2  12   0.0440   0.0755   0.0979   0.0280   0.0815   0.0366   0.00    0.0
2422  64428.000   29.191506132   95.073462050   917.8297   2  11   0.0431   0.0750   0.0981   0.0266   0.0814   0.0359   0.00    0.0
2422  64443.000   29.191504783   95.073460350   917.7323   2  11   0.0519   0.0834   0.1038   0.0417   0.0887   0.0473   0.00    0.0
2422  64458.000   29.191504526   95.073459916   917.6632   2  12   0.0467   0.0788   0.1013   0.0332   0.0850   0.0410   0.00    0.0
2422  64473.000   29.191504397   95.073459620   917.5995   2  12   0.0527   0.0850   0.1060   0.0434   0.0907   0.0493   0.00    0.0
2422  64488.000   29.191504535   95.073459938   917.6494   2  12   0.0531   0.0859   0.1072   0.0443   0.0917   0.0503   0.00    0.0
2422  64503.000   29.191504473   95.073459957   917.6550   2  12   0.0428   0.0725   0.0891   0.0228   0.0753   0.0256   0.00    0.0
2422  64518.000   29.191504642   95.073460329   917.7204   2  11   0.0540   0.0876   0.1097   0.0462   0.0939   0.0525   0.00    0.0
2422  64533.000   29.191504787   95.073460716   917.7551   2  10   0.0544   0.0886   0.1110   0.0471   0.0951   0.0536   0.00    0.0
2422  64548.000   29.191504434   95.073460196   917.7052   2  11   0.0549   0.0895   0.1123   0.0481   0.0963   0.0546   0.00    0.0
2422  64563.000   29.191504792   95.073460965   917.8135   2  11   0.0554   0.0905   0.1137   0.0491   0.0975   0.0558   0.00    0.0
2422  64578.000   29.191505163   95.073461482   917.9166   2  11   0.0559   0.0915   0.1151   0.0501   0.0988   0.0570   0.00    0.0
2422  64593.000   29.191505346   95.073461564   917.9118   2   7   0.0564   0.0927   0.1167   0.0512   0.1002   0.0583   0.00    0.0
2422  64608.000   29.191505526   95.073462640   918.0213   2  10   0.0569   0.0937   0.1181   0.0522   0.1015   0.0595   0.00    0.0
2422  64623.000   29.191505627   95.073461457   917.8635   2   6   0.0498   0.0774   0.0947   0.0302   0.0812   0.0323   0.00    0.0
2422  64638.000   29.191505470   95.073461316   917.8952   2   8   0.0461   0.0721   0.0864   0.0198   0.0742   0.0178   0.00    0.0
2422  64653.000   29.191508998   95.073463788   917.5565   2   9   0.0489   0.0727   0.0902   0.0244   0.0708  -0.0156   0.00    0.0
2422  64668.000   29.191506764   95.073460811   917.8905   2   8   0.0605   0.1001   0.1263   0.0550   0.1090   0.0630   0.00    0.0
2422  64683.000   29.191506975   95.073461491   917.9458   2   9   0.0611   0.1013   0.1280   0.0562   0.1104   0.0644   0.00    0.0
2422  64698.000   29.191459335   95.073402094   921.5740   2   9   1.0998   1.2043   0.2921   1.1492  -0.2386  -0.2515   0.00    0.0
2422  64713.000   29.191422033   95.073352093   926.3430   2   7   0.8753   0.7444   0.8253   0.7402  -0.7233  -0.8408   0.00    0.0
2422  64728.000   29.191496802   95.073456478   918.7792   2   8   1.2350   1.4328   1.1308   1.2799  -1.2217  -1.1750   0.00    0.0
2422  64743.000   29.191619220   95.073638061   906.4256   2   7   0.8996   1.0027   0.8289   0.8832  -0.8436  -0.8543   0.00    0.0
2422  64758.000   29.191633742   95.073655316   905.0216   2  10   1.4285   1.7463   1.3026   1.5403  -1.4672  -1.3583   0.00    0.0
2422  64773.000   29.191473038   95.073427169   921.2173   2  10   0.7161   0.7825   0.6655   0.6705  -0.6401  -0.6788   0.00    0.0
2422  64788.000   29.191495052   95.073457949   919.0658   2  10   1.3827   1.7031   1.2565   1.4978  -1.4231  -1.3120   0.00    0.0
2422  64803.000   29.191485917   95.073444963   919.9233   2   9   1.1425   1.3960   1.0390   1.2198  -1.1571  -1.0822   0.00    0.0
