% program   : RTKLIB ver.EX 2.5.0
% inp file  : D:\code\rtklib_java\540423494727\2026-06-08\1.obs
% inp file  : D:\code\rtklib_java\540423494727\2026-06-08\1.nav
% obs start : 2026/06/07 17:00:18.0 GPST (week2422  61218.0s)
% obs end   : 2026/06/07 17:28:48.0 GPST (week2422  62928.0s)
%
% (lat/lon/height=WGS84/ellipsoidal,Q=1:fix,2:float,3:sbas,4:dgps,5:single,6:ppp,ns=# of satellites)
%  GPST                  latitude(deg) longitude(deg)  height(m)   Q  ns   sdn(m)   sde(m)   sdu(m)  sdne(m)  sdeu(m)  sdun(m) age(s)  ratio
2026/06/07 17:00:18.000   29.191509874   95.073474163   922.9322   5  11   2.0615   2.2564   7.0454   0.9937   1.9809  -1.7021   0.00    0.0
2026/06/07 17:00:33.000   29.191508455   95.073505369   932.5958   5  11   2.4231   2.6622   8.8709  -1.4438   3.4158  -3.6087   0.00    0.0
2026/06/07 17:00:48.000   29.191500965   95.073530653   941.7620   5  11   2.4240   2.6614   8.8646  -1.4445   3.4109  -3.6105   0.00    0.0
2026/06/07 17:01:03.000   29.191433744   95.073653857   968.2491   5  10   2.9967   3.7446   9.9144  -2.5938   4.8305  -4.5705   0.00    0.0
2026/06/07 17:01:18.000   29.191484183   95.073580202   961.2861   5  11   2.4258   2.6597   8.8514  -1.4457   3.4008  -3.6141   0.00    0.0
2026/06/07 17:01:33.000   29.191494717   95.073450212   912.4264   5  10   2.7971   2.7496   8.8828  -1.0572   3.3097  -3.7707   0.00    0.0
2026/06/07 17:01:48.000   29.191503416   95.073458270   915.7307   5  10   2.7971   2.7488   8.8760  -1.0585   3.3042  -3.7724   0.00    0.0
2026/06/07 17:02:03.000   29.191520238   95.073450272   914.2134   5  11   2.1233   2.3801   6.9273   1.1738   1.8091  -2.0395   0.00    0.0
2026/06/07 17:02:18.000   29.191532558   95.073454914   915.8226   5  11   2.1244   2.3795   6.9319   1.1713   1.8064  -2.0518   0.00    0.0
2026/06/07 17:02:33.000   29.191529159   95.073450966   914.8977   5  11   2.1255   2.3790   6.9364   1.1689   1.8036  -2.0640   0.00    0.0
2026/06/07 17:02:48.000   29.191525779   95.073453653   915.5785   5  11   2.1266   2.3785   6.9408   1.1664   1.8007  -2.0762   0.00    0.0
2026/06/07 17:03:03.000   29.191515757   95.073458712   918.3214   5  11   2.1278   2.3780   6.9451   1.1640   1.7978  -2.0884   0.00    0.0
2026/06/07 17:03:18.000   29.191487911   95.073479740   927.4238   5  10   2.7969   2.7437   8.8322  -1.0655   3.2691  -3.7815   0.00    0.0
2026/06/07 17:03:33.000   29.191480084   95.073481114   930.2941   5  10   2.7969   2.7429   8.8244  -1.0666   3.2630  -3.7829   0.00    0.0
2026/06/07 17:03:48.000   29.191472952   95.073481660   931.8047   5  10   2.7969   2.7420   8.8165  -1.0676   3.2569  -3.7842   0.00    0.0
2026/06/07 17:04:03.000   29.191472116   95.073483828   932.1770   5  10   2.7969   2.7411   8.8084  -1.0685   3.2506  -3.7854   0.00    0.0
2026/06/07 17:04:18.000   29.191467953   95.073468797   931.1895   5  12   1.8816   2.1452   6.9575   0.5474   1.6856  -2.2239   0.00    0.0
2026/06/07 17:04:33.000   29.191453705   95.073457346   944.4494   5  12   1.8600   2.0582   5.8858  -0.2707   2.2590  -1.7222   0.00    0.0
2026/06/07 17:04:48.000   29.191498016   95.073489484   948.1643   5  11   2.4092   2.5260   6.6545   1.5114   3.1210   1.6291   0.00    0.0
2026/06/07 17:05:03.000   29.191500685   95.073490222   951.5315   5  11   2.4052   2.5229   6.6509   1.5033   3.1155   1.6085   0.00    0.0
2026/06/07 17:05:18.000   29.191563996   95.073551112   939.3855   5  10   2.7810   2.8272   7.2298   2.0086   2.4548  -1.2117   0.00    0.0
2026/06/07 17:05:33.000   29.191562155   95.073544198   937.0201   5  10   2.7800   2.8250   7.2285   2.0045   2.4456  -1.2474   0.00    0.0
2026/06/07 17:05:48.000   29.191557465   95.073532002   932.8959   5  10   2.7791   2.8227   7.2272   2.0005   2.4363  -1.2820   0.00    0.0
2026/06/07 17:06:03.000   29.191550223   95.073519812   930.9275   5  10   2.7783   2.8205   7.2258   1.9965   2.4269  -1.3158   0.00    0.0
2026/06/07 17:06:18.000   29.191505581   95.073472689   927.6516   5  11   2.0888   2.2460   7.1148   0.9240   1.9264  -2.0281   0.00    0.0
2026/06/07 17:06:33.000   29.191474241   95.073448561   924.4614   5  12   1.8986   2.1432   6.9908   0.5123   1.6757  -2.3081   0.00    0.0
2026/06/07 17:06:48.000   29.191476620   95.073454620   926.0583   5  12   1.9006   2.1430   6.9940   0.5083   1.6744  -2.3172   0.00    0.0
2026/06/07 17:07:03.000   29.191468111   95.073450902   925.6448   5  12   1.9026   2.1428   6.9971   0.5042   1.6730  -2.3263   0.00    0.0
2026/06/07 17:07:18.000   29.191467413   95.073455648   926.7133   5  12   1.9046   2.1426   7.0000   0.5002   1.6716  -2.3354   0.00    0.0
2026/06/07 17:07:33.000   29.191435714   95.073423016   946.0195   5  13   1.7752   2.0541   5.8620  -0.4211   2.2631  -1.6825   0.00    0.0
2026/06/07 17:07:48.000   29.191467556   95.073440193   924.5364   5  12   1.9087   2.1421   7.0057   0.4920   1.6687  -2.3533   0.00    0.0
2026/06/07 17:08:03.000   29.191473784   95.073435806   921.0978   5  11   2.1562   2.3671   7.0113   1.1157   1.7277  -2.3187   0.00    0.0
2026/06/07 17:08:18.000   29.191412646   95.073453687   933.0879   5  10   2.7507   2.6535   8.6092  -1.3069   3.2363  -3.6194   0.00    0.0
2026/06/07 17:08:33.000   29.191405474   95.073451030   931.8489   5  10   2.7511   2.6524   8.5987  -1.3073   3.2291  -3.6207   0.00    0.0
2026/06/07 17:08:48.000   29.191445948   95.073439500   922.5391   5  11   2.1045   2.2412   7.1259   0.8949   1.8947  -2.1497   0.00    0.0
2026/06/07 17:09:03.000   29.191493909   95.073487160   924.1529   5  10   2.7718   2.7937   7.2040   1.9499   2.3098  -1.6653   0.00    0.0
2026/06/07 17:09:18.000   29.191486338   95.073476604   923.7735   5  10   2.7716   2.7915   7.2018   1.9462   2.2996  -1.6909   0.00    0.0
2026/06/07 17:09:33.000   29.191485823   95.073471823   922.9116   5  10   2.7714   2.7893   7.1995   1.9425   2.2895  -1.7160   0.00    0.0
2026/06/07 17:09:48.000   29.191484688   95.073474932   923.0094   5  10   2.7713   2.7872   7.1973   1.9388   2.2792  -1.7407   0.00    0.0
2026/06/07 17:10:03.000   29.191487650   95.073482715   924.5439   5  10   2.7712   2.7850   7.1949   1.9351   2.2689  -1.7650   0.00    0.0
2026/06/07 17:10:18.000   29.191491846   95.073490819   924.7246   5   9   2.9909   2.8137   7.2389   1.8063   2.1819  -1.5097   0.00    0.0
2026/06/07 17:10:33.000   29.191443642   95.073517478   921.1075   5  10   2.7712   2.7806   7.1900   1.9279   2.2482  -1.8124   0.00    0.0
2026/06/07 17:10:48.000   29.191444408   95.073498186   923.4710   5  11   2.1188   2.2373   7.1276   0.8719   1.8659  -2.2413   0.00    0.0
2026/06/07 17:11:03.000   29.191428481   95.073553948   938.3392   5  10   2.7554   2.6418   8.4879  -1.3105   3.1537  -3.6307   0.00    0.0
2026/06/07 17:11:18.000   29.191432284   95.073541097   934.2948   5  10   2.7558   2.6407   8.4764  -1.3107   3.1460  -3.6314   0.00    0.0
2026/06/07 17:11:33.000   29.191472707   95.073465220   931.4427   5  13   1.7878   2.0488   5.8775  -0.5307   2.2509  -1.7983   0.00    0.0
2026/06/07 17:11:48.000   29.191504300   95.073454274   917.4158   5  11   1.9948   2.3347   7.0418  -0.4904   1.5501  -2.4626   0.00    0.0
2026/06/07 17:12:03.000   29.191518052   95.073471477   916.8021   5  11   2.1855   2.3581   7.0366   1.0791   1.6570  -2.4848   0.00    0.0
2026/06/07 17:12:18.000   29.191512960   95.073470083   915.6553   5  11   2.1875   2.3576   7.0374   1.0768   1.6522  -2.4946   0.00    0.0
2026/06/07 17:12:33.000   29.191508650   95.073468318   917.6064   5  10   2.2545   2.5897   7.9789   1.3158   2.5974  -2.0620   0.00    0.0
2026/06/07 17:12:48.000   29.191497850   95.073450306   913.2773   5  11   2.1916   2.3565   7.0386   1.0724   1.6425  -2.5141   0.00    0.0
2026/06/07 17:13:03.000   29.191491481   95.073436738   908.7376   5  11   2.1936   2.3559   7.0391   1.0703   1.6376  -2.5237   0.00    0.0
2026/06/07 17:13:18.000   29.191539015   95.073548100   947.4329   5  11   2.1957   2.3554   7.0395   1.0681   1.6326  -2.5332   0.00    0.0
2026/06/07 17:13:33.000   29.191554812   95.073587104   961.3956   5  11   2.1978   2.3548   7.0399   1.0659   1.6275  -2.5427   0.00    0.0
2026/06/07 17:13:48.000   29.191554056   95.073594265   962.8024   5  11   2.1999   2.3543   7.0401   1.0638   1.6225  -2.5521   0.00    0.0
2026/06/07 17:14:03.000   29.191498597   95.073487673   925.2288   5  11   2.2020   2.3537   7.0402   1.0616   1.6174  -2.5615   0.00    0.0
2026/06/07 17:14:18.000   29.191486198   95.073479235   924.0201   5  11   2.2042   2.3532   7.0403   1.0595   1.6122  -2.5708   0.00    0.0
2026/06/07 17:14:33.000   29.191486943   95.073493675   930.2313   5  11   2.2063   2.3526   7.0402   1.0574   1.6070  -2.5800   0.00    0.0
2026/06/07 17:14:48.000   29.191475622   95.073476601   929.0639   5  11   2.4690   2.6094   8.3072  -1.4460   3.0337  -3.6367   0.00    0.0
2026/06/07 17:15:03.000   29.191477301   95.073470672   927.3549   5  11   2.4697   2.6086   8.2947  -1.4455   3.0257  -3.6359   0.00    0.0
2026/06/07 17:15:18.000   29.191479782   95.073466944   925.6549   5  11   2.4703   2.6077   8.2821  -1.4450   3.0177  -3.6352   0.00    0.0
2026/06/07 17:15:33.000   29.191463135   95.073483853   930.3969   5  12   1.9798   2.1353   7.0389   0.3527   1.6023  -2.6060   0.00    0.0
2026/06/07 17:15:48.000   29.191462606   95.073483656   930.7169   5  12   1.9823   2.1351   7.0384   0.3476   1.5995  -2.6133   0.00    0.0
2026/06/07 17:16:03.000   29.191464502   95.073484579   929.9122   5  12   1.9848   2.1349   7.0377   0.3425   1.5968  -2.6206   0.00    0.0
2026/06/07 17:16:18.000   29.191469195   95.073486495   928.2920   5  12   1.9873   2.1347   7.0369   0.3374   1.5940  -2.6278   0.00    0.0
2026/06/07 17:16:33.000   29.191474380   95.073486748   926.6266   5  12   1.9899   2.1345   7.0361   0.3322   1.5911  -2.6349   0.00    0.0
2026/06/07 17:16:48.000   29.191473971   95.073486486   926.2126   5  12   1.9924   2.1343   7.0351   0.3269   1.5882  -2.6419   0.00    0.0
2026/06/07 17:17:03.000   29.191494359   95.073460075   918.6201   5  11   2.4749   2.6020   8.1925  -1.4412   2.9607  -3.6289   0.00    0.0
2026/06/07 17:17:18.000   29.191484318   95.073470719   921.1187   5  12   1.9975   2.1338   7.0330   0.3163   1.5824  -2.6559   0.00    0.0
2026/06/07 17:17:33.000   29.191487267   95.073467267   919.0843   5  12   2.0000   2.1336   7.0317   0.3108   1.5795  -2.6628   0.00    0.0
2026/06/07 17:17:48.000   29.191490360   95.073464452   916.3748   5  12   2.0026   2.1334   7.0304   0.3053   1.5765  -2.6697   0.00    0.0
2026/06/07 17:18:03.000   29.191488818   95.073462886   915.4878   5  12   2.0052   2.1332   7.0290   0.2998   1.5734  -2.6765   0.00    0.0
2026/06/07 17:18:18.000   29.191487338   95.073463763   916.2708   5  12   2.0077   2.1330   7.0274   0.2941   1.5704  -2.6832   0.00    0.0
2026/06/07 17:18:33.000   29.191492011   95.073465340   916.6125   5  12   2.0103   2.1328   7.0258   0.2884   1.5673  -2.6899   0.00    0.0
2026/06/07 17:18:48.000   29.191498751   95.073466371   916.3477   5  12   2.0129   2.1327   7.0241   0.2826   1.5642  -2.6965   0.00    0.0
2026/06/07 17:19:03.000   29.191505419   95.073468700   917.4551   5  12   2.0155   2.1325   7.0223   0.2767   1.5610  -2.7030   0.00    0.0
2026/06/07 17:19:18.000   29.191511821   95.073465716   917.4778   5  12   2.0181   2.1323   7.0205   0.2707   1.5579  -2.7095   0.00    0.0
2026/06/07 17:19:33.000   29.191512015   95.073461594   915.6935   5  12   2.0207   2.1321   7.0185   0.2646   1.5547  -2.7160   0.00    0.0
2026/06/07 17:19:48.000   29.191511022   95.073453842   913.2105   5  12   2.0233   2.1319   7.0164   0.2584   1.5514  -2.7224   0.00    0.0
2026/06/07 17:20:03.000   29.191511944   95.073456763   913.6854   5  11   2.0347   2.2766   7.9368   0.4629   2.3164  -2.5973   0.00    0.0
2026/06/07 17:20:18.000   29.191507867   95.073456551   915.3237   5  12   2.0286   2.1315   7.0120   0.2456   1.5449  -2.7350   0.00    0.0
2026/06/07 17:20:33.000   29.191499475   95.073449553   916.2717   5  12   2.0312   2.1313   7.0097   0.2390   1.5416  -2.7412   0.00    0.0
2026/06/07 17:20:48.000   29.191496778   95.073442026   916.6332   5  12   2.0338   2.1311   7.0073   0.2323   1.5383  -2.7474   0.00    0.0
2026/06/07 17:21:03.000   29.191491625   95.073432791   915.7192   5  12   2.0365   2.1310   7.0048   0.2254   1.5349  -2.7535   0.00    0.0
2026/06/07 17:21:18.000   29.191511980   95.073453812   913.8328   5  11   2.2694   2.3388   7.0064   1.0040   1.4535  -2.8028   0.00    0.0
2026/06/07 17:21:33.000   29.191512104   95.073452121   914.1262   5  11   2.2718   2.3383   7.0040   1.0022   1.4474  -2.8100   0.00    0.0
2026/06/07 17:21:48.000   29.191503439   95.073440722   915.4609   5  12   2.0444   2.1304   6.9968   0.2035   1.5247  -2.7714   0.00    0.0
2026/06/07 17:22:03.000   29.191505079   95.073445141   917.0773   5  12   2.0471   2.1303   6.9940   0.1957   1.5212  -2.7773   0.00    0.0
2026/06/07 17:22:18.000   29.191503052   95.073448728   918.7915   5  12   2.0497   2.1301   6.9911   0.1877   1.5177  -2.7831   0.00    0.0
2026/06/07 17:22:33.000   29.191501914   95.073454253   920.6193   5  12   2.0524   2.1299   6.9881   0.1793   1.5142  -2.7889   0.00    0.0
2026/06/07 17:22:48.000   29.191501025   95.073461083   923.1494   5  12   2.0551   2.1298   6.9850   0.1706   1.5107  -2.7946   0.00    0.0
2026/06/07 17:23:03.000   29.191495952   95.073462916   927.1061   5  12   2.0577   2.1296   6.9818   0.1615   1.5072  -2.8003   0.00    0.0
2026/06/07 17:23:18.000   29.191498237   95.073465639   926.3762   5  12   2.0604   2.1295   6.9786   0.1519   1.5036  -2.8059   0.00    0.0
2026/06/07 17:23:33.000   29.191501423   95.073466817   923.9905   5  12   2.0631   2.1293   6.9753   0.1417   1.5000  -2.8114   0.00    0.0
2026/06/07 17:23:48.000   29.191498866   95.073469820   924.5799   5  12   2.0658   2.1291   6.9719   0.1307   1.4964  -2.8169   0.00    0.0
2026/06/07 17:24:03.000   29.191496244   95.073474929   925.7686   5  13   1.9370   1.8880   5.4705   0.8532  -1.4208  -2.1985   0.00    0.0
2026/06/07 17:24:18.000   29.191495701   95.073472286   924.8450   5  13   1.9384   1.8879   5.4713   0.8537  -1.4222  -2.2028   0.00    0.0
2026/06/07 17:24:33.000   29.191492406   95.073479983   926.4866   5  12   2.0738   2.1287   6.9613   0.0907   1.4854  -2.8330   0.00    0.0
2026/06/07 17:24:48.000   29.191493625   95.073478664   924.3535   5  12   2.0765   2.1286   6.9576   0.0728   1.4817  -2.8383   0.00    0.0
2026/06/07 17:25:03.000   29.191489306   95.073471089   925.6983   5  11   2.2741   2.1795   7.8291   0.6592   0.7051  -3.3763   0.00    0.0
2026/06/07 17:25:18.000   29.191495367   95.073467870   922.9034   5  12   2.0818   2.1283   6.9500  -0.0227   1.4743  -2.8486   0.00    0.0
2026/06/07 17:25:33.000   29.191494392   95.073456170   922.2677   5  13   1.9457   1.8873   5.4745   0.8557  -1.4290  -2.2239   0.00    0.0
2026/06/07 17:25:48.000   29.191497312   95.073457160   921.1891   5  13   1.9472   1.8872   5.4750   0.8561  -1.4304  -2.2281   0.00    0.0
2026/06/07 17:26:03.000   29.191502270   95.073459417   919.7296   5  13   1.9486   1.8871   5.4755   0.8565  -1.4317  -2.2322   0.00    0.0
2026/06/07 17:26:18.000   29.191504685   95.073460541   919.1764   5  13   1.9501   1.8870   5.4759   0.8569  -1.4330  -2.2363   0.00    0.0
2026/06/07 17:26:33.000   29.191505834   95.073462293   919.8873   5  13   1.9516   1.8868   5.4763   0.8573  -1.4343  -2.2404   0.00    0.0
2026/06/07 17:26:48.000   29.191508507   95.073455074   918.2378   5  12   2.0979   2.1275   6.9256  -0.1327   1.4515  -2.8784   0.00    0.0
2026/06/07 17:27:03.000   29.191519166   95.073468624   917.5278   5  12   2.1006   2.1274   6.9213  -0.1429   1.4477  -2.8831   0.00    0.0
2026/06/07 17:27:18.000   29.191514465   95.073461556   917.0262   5  12   2.1033   2.1273   6.9169  -0.1524   1.4438  -2.8879   0.00    0.0
2026/06/07 17:27:33.000   29.191515768   95.073458617   916.4023   5  12   2.1060   2.1272   6.9125  -0.1612   1.4399  -2.8925   0.00    0.0
2026/06/07 17:27:48.000   29.191515753   95.073454777   916.4363   5  12   2.1086   2.1271   6.9080  -0.1696   1.4360  -2.8971   0.00    0.0
2026/06/07 17:28:03.000   29.191504613   95.073464190   923.1857   5  13   1.9604   1.8863   5.4776   0.8595  -1.4417  -2.2642   0.00    0.0
2026/06/07 17:28:18.000   29.191492224   95.073454803   926.6726   5  12   2.1297   1.9826   6.1572   1.1160  -1.9492  -2.7338   0.00    0.0
2026/06/07 17:28:33.000   29.191497271   95.073448623   925.6003   5  13   1.9634   1.8861   5.4777   0.8603  -1.4441  -2.2720   0.00    0.0
2026/06/07 17:28:48.000   29.191497479   95.073439854   924.8965   5  13   1.9649   1.8860   5.4777   0.8606  -1.4453  -2.2758   0.00    0.0
